FlashID=0x1 0x20 0x18
BBram_blkflag1: 30ca: cf35
FW Ver: 1.30  
GPS00 Init Dop:   5000, 40
GPS01 Init Dop:   5000, 40
GPS02 Init Dop:   5000, 40
GPS03 Init Dop:   5000, 40
GPS04 Init Dop:   5000, 40
GPS05 Init Dop:   5000, 40
GPS06 Init Dop:   5000, 40
GPS07 Init Dop:   5000, 40
GPS08 Init Dop:   5000, 40
GPS09 Init Dop:   5000, 40
GPS10 Init Dop:   5000, 40
GPS11 Init Dop:   5000, 40
GPS12 Init Dop:   5000, 40
GPS13 Init Dop:   5000, 40
GPS14 Init Dop:   5000, 40
GPS15 Init Dop:   5000, 40
GPS16 Init Dop:   5000, 40
GPS17 Init Dop:   5000, 40
GPS18 Init Dop:   5000, 40
GPS19 Init Dop:   5000, 40
GPS20 Init Dop:   5000, 40
GPS21 Init Dop:   5000, 40
GPS22 Init Dop:   5000, 40
GPS23 Init Dop:   5000, 40
GPS24 Init Dop:   5000, 40
GPS25 Init Dop:   5000, 40
GPS26 Init Dop:   5000, 40
GPS27 Init Dop:   5000, 40
GPS28 Init Dop:   5000, 40
GPS29 Init Dop:   5000, 40
GPS30 Init Dop:   5000, 40
GPS31 Init Dop:   5000, 40
BDS00 Init Dop:   5000, 40
BDS01 Init Dop:   5000, 40
BDS02 Init Dop:   5000, 40
BDS03 Init Dop:   5000, 40
BDS04 Init Dop:   5000, 40
BDS05 Init Dop:   5000, 40
BDS06 Init Dop:   5000, 40
BDS07 Init Dop:   5000, 40
BDS08 Init Dop:   5000, 40
BDS09 Init Dop:   5000, 40
BDS10 Init Dop:   5000, 40
BDS11 Init Dop:   5000, 40
BDS12 Init Dop:   5000, 40
BDS13 Init Dop:   5000, 40
BDS14 Init Dop:   5000, 40
BDS15 Init Dop:   5000, 40
BDS16 Init Dop:   5000, 40
BDS17 Init Dop:   5000, 40
BDS18 Init Dop:   5000, 40
BDS19 Init Dop:   5000, 40
BDS20 Init Dop:   5000, 40
BDS21 Init Dop:   5000, 40
BDS22 Init Dop:   5000, 40
BDS23 Init Dop:   5000, 40
BDS24 Init Dop:   5000, 40
BDS25 Init Dop:   5000, 40
BDS26 Init Dop:   5000, 40
BDS27 Init Dop:   5000, 40
BDS28 Init Dop:   5000, 40
BDS29 Init Dop:   5000, 40
BDS30 Init Dop:   5000, 40
BDS31 Init Dop:   5000, 40
good luck!
---00000001--- Acq_st=3 2019-5-22 03:14:55 
[00]  G04  1 19   -503.9 2046002.1  0.0  0.0  1  0         0
$GNGGA,000000.000,,,,,0,00,,,M,,,,0000*2B
$GNRMC,000000.000,A,,,,,,,000000,,*26
$GPGSA,A,1,,,,,,,,,,,,,,,*1E
$BDGSA,A,1,,,,,,,,,,,,,,,*0F
$LOGTIM,0,0.000000,0.000000,0.000000,0.000000,0.000*0A
EndT:        0
---00000002--- Acq_st=3 2019-5-22 03:14:56 
[00]  G04  1 33   -501.2 2046001.5  0.1  0.0  1  0        18
[01]  G07  1 15  -3365.1 2046007.2 -0.0  0.0  1  0         0
[02]  G08  1 23   -779.6 2046003.4  0.0  0.0  1  0         0
[03]  G09  1  7    665.8 2046000.8 -0.0  0.0  1  0         0
$GNGGA,000000.000,,,,,0,00,,,M,,,,0000*2B
$GNRMC,000000.000,A,,,,,,,000000,,*26
$GPGSA,A,1,,,,,,,,,,,,,,,*1E
$BDGSA,A,1,,,,,,,,,,,,,,,*0F
$LOGTIM,0,0.000000,0.000000,0.000000,0.000000,0.000*0A
EndT:        0
---00000003--- Acq_st=3 2019-5-22 03:14:57 
[00]  G04  7 36   -500.8 2046000.6  1.0  1.0  5  0        18
[01]  G07  7 27  -3344.0 2046004.2  0.3  0.0 20  0         9
[02]  G08  7 22   -791.4 2046000.9  0.3  0.0 20  0         5
[03]  G09  7  7    636.3 2045999.0  0.3  0.0 10  0         1
[04]  G16  1  7   2492.4 2045999.5  0.0  0.0  1  0         0
$GNGGA,000000.000,,,,,0,00,,,M,,,,0000*2B
$GNRMC,000000.000,A,,,,,,,000000,,*26
$GPGSA,A,1,,,,,,,,,,,,,,,*1E
$BDGSA,A,1,,,,,,,,,,,,,,,*0F
$GPGSV,1,1,03,04,00,000,36,07,00,000,27,08,00,000,22*41
$LOGTIM,0,0.000000,0.000000,0.000000,0.000000,0.000*0A
EndT:        0
---00000004--- Acq_st=3 2019-5-22 03:14:58 
[00]  G04  7 37   -499.5 2046000.6  1.0  1.0  5  0        17
[01]  G07  7 47  -3342.9 2046004.3  1.0  1.0  5  0        19
[02]  G08  7 48   -790.1 2046001.0  1.0  1.0  5  0         6
[03]  G09  7 48    637.2 2045999.1  1.0  1.0  5  0        18
[04]  G16  1 31   1309.4 2045998.1  0.1  0.0  1  0        19
[05]  G21  1  7   2303.6 2045998.2  0.0  0.0  1  0         0
$GNGGA,000000.000,,,,,0,00,,,M,,,,0000*2B
$GNRMC,000000.000,A,,,,,,,000000,,*26
$GPGSA,A,1,,,,,,,,,,,,,,,*1E
$BDGSA,A,1,,,,,,,,,,,,,,,*0F
$GPGSV,1,1,04,04,00,000,37,07,00,000,47,08,00,000,48,09,00,000,48*78
$LOGTIM,0,0.000000,0.000000,0.000000,0.000000,0.000*0A
EndT:        0
---00000005--- Acq_st=3 2019-5-22 03:14:59 
[00]  G04  7 37   -499.5 2046000.7  1.0  1.0  5  0        17
[01]  G07  7 47  -3344.4 2046004.3  1.0  1.0  5  0        19
[02]  G08  7 48   -791.0 2046001.0  1.0  1.0  5  0         6
[03]  G09  7 47    636.1 2045999.1  1.0  1.0  5  0        18
[04]  G16  7 33   1306.6 2045998.2  0.7  1.0  5  0        19
[05]  G21  1 27   2371.3 2045997.0  0.2  0.0  1  0         2
[06]  G27  1  7   4732.2 2046000.9 -0.0  0.0  1  0         0
$GNGGA,000000.000,,,,,0,00,,,M,,,,0000*2B
$GNRMC,000000.000,A,,,,,,,000000,,*26
$GPGSA,A,1,,,,,,,,,,,,,,,*1E
$BDGSA,A,1,,,,,,,,,,,,,,,*0F
$GPGSV,2,1,05,04,00,000,37,07,00,000,47,08,00,000,48,09,00,000,47*75
$GPGSV,2,2,05,16,00,000,33*4B
$LOGTIM,0,0.000000,0.000000,0.000000,0.000000,0.000*0A
EndT:        0
---00000006--- Acq_st=3 2019-5-22 03:15:0 
[00]  G04  7 37   -499.8 2046000.6  1.0  0.9  5  0        17
[01]  G07  7 47  -3344.6 2046004.3  1.0  1.0  5  0        19
[02]  G08  7 48   -790.9 2046001.0  1.0  1.0  5  0         6
[03]  G09  7 48    636.3 2045999.1  1.0  1.0  5  0        18
[04]  G16  7 42   1306.3 2045998.3  1.0  1.0  5  0         1
[05]  G21  7 28   2351.5 2045996.8  0.2  0.6 10  0         2
[06]  G27  1 30   1432.9 2045998.1  0.0  0.0  1  0         2
[07]  G30  1  7  -3769.8 2046006.6 -0.1  0.0  1  0         0
$GNGGA,000000.000,,,,,0,00,,,M,,,,0000*2B
$GNRMC,000000.000,A,,,,,,,000000,,*26
$GPGSA,A,1,,,,,,,,,,,,,,,*1E
$BDGSA,A,1,,,,,,,,,,,,,,,*0F
$GPGSV,2,1,06,04,00,000,37,07,00,000,47,08,00,000,48,09,00,000,48*79
$GPGSV,2,2,06,16,00,000,42,21,00,000,28*77
$LOGTIM,0,0.000000,0.000000,0.000000,0.000000,0.000*0A
EndT:        0
---00000007--- Acq_st=3 2019-5-22 03:15:1 
[00]  G04  f 38   -498.1 2046000.6  1.0  1.0  5  0        17
[01]  G07  f 47  -3342.6 2046004.3  1.0  1.0  5  0        19
[02]  G08  f 48   -788.7 2046001.0  1.0  1.0  5  0         6
[03]  G09  f 47    638.5 2045999.1  1.0  1.0  5  0        18
[04]  G16  f 42   1308.1 2045998.3  1.0  1.0  5  0         1
[05]  G21  7 25   2354.7 2045997.0 -0.2 -0.2 10  0         7
[06]  G27  7 33   1438.8 2045998.0  0.6  1.0  5  0         2
$GNGGA,000000.000,,,,,0,00,,,M,,,,0000*2B
$GNRMC,000000.000,A,,,,,,,000000,,*26
$GPGSA,A,1,,,,,,,,,,,,,,,*1E
$BDGSA,A,1,,,,,,,,,,,,,,,*0F
$GPGSV,2,1,07,04,00,000,38,07,00,000,47,08,00,000,48,09,00,000,47*78
$GPGSV,2,2,07,16,00,000,42,21,00,000,25,27,00,000,33*4E
$LOGTIM,0,0.000000,0.000000,0.000000,0.000000,0.000*0A
EndT:        0
---00000008--- Acq_st=3 2019-5-22 03:15:2 
[00]  G04  f 39   -497.5 2046000.6  1.0  1.0  5  0 270919377
[01]  G07  f 47  -3342.3 2046004.3  1.0  1.0  5  0 270919379
[02]  G08  f 48   -788.2 2046001.0  1.0  1.0  5  0 270919386
[03]  G09  f 48    639.2 2045999.2  1.0  1.0  5  0 270919378
[04]  G16  f 43   1307.9 2045998.3  1.0  1.0  5  0 270919381
[05]  G21  7 26   2355.4 2045996.9 -0.9 -0.0 10  0         7
[06]  G27  7 48   1439.3 2045998.1  1.0  1.0  5  0         5
$GNGGA,000000.000,,,,,0,00,,,M,,,,0000*2B
$GNRMC,000000.000,A,,,,,,,000000,,*26
$GPGSA,A,1,,,,,,,,,,,,,,,*1E
$BDGSA,A,1,,,,,,,,,,,,,,,*0F
$GPGSV,2,1,07,04,00,000,39,07,00,000,47,08,00,000,48,09,00,000,48*76
$GPGSV,2,2,07,16,00,000,43,21,00,000,26,27,00,000,48*40
$LOGTIM,0,0.000000,0.000000,0.000000,0.000000,0.000*0A
EndT:        0
---00000009--- Acq_st=3 2019-5-22 03:15:3 
[00]  G04  f 38   -496.3 2046000.7  1.0  1.0  5  0 270920377
[01]  G07  f 47  -3342.0 2046004.3  1.0  1.0  5  0 270920379
[02]  G08  f 48   -787.4 2046001.0  1.0  1.0  5  0 270920386
[03]  G09  f 48    640.1 2045999.1  1.0  1.0  5  0 270920378
[04]  G16  f 43   1308.7 2045998.3  1.0  1.0  5  0 270920381
[05]  G21  7 26   2356.1 2045996.9 -1.0 -0.0 10  0         7
[06]  G27  7 47   1439.9 2045998.1  1.0  1.0  5  0         5
[16]  B07  1  7   -672.5 4092001.6 -0.0  0.0  1  0         0
$GNGGA,000000.000,,,,,0,00,,,M,,,,0000*2B
$GNRMC,000000.000,A,,,,,,,000000,,*26
$GPGSA,A,1,,,,,,,,,,,,,,,*1E
$BDGSA,A,1,,,,,,,,,,,,,,,*0F
$GPGSV,2,1,07,04,00,000,38,07,00,000,47,08,00,000,48,09,00,000,48*77
$GPGSV,2,2,07,16,00,000,43,21,00,000,26,27,00,000,47*4F
$LOGTIM,0,0.000000,0.000000,0.000000,0.000000,0.000*0A
EndT:        0
---00000010--- Acq_st=3 2019-5-22 03:15:4 
[00]  G04  f 37   -496.3 2046000.7  1.0  1.0  5  0 270921377
[01]  G07  f 47  -3341.9 2046004.3  1.0  1.0  5  0 270921379
[02]  G08  f 48   -787.1 2046001.0  1.0  1.0  5  0 270921386
[03]  G09  f 48    640.1 2045999.2  1.0  1.0  5  0 270921378
[04]  G16  f 43   1308.5 2045998.3  1.0  1.0  5  0 270921381
[05]  G21  7 26   2356.0 2045996.9 -1.0 -0.1 10  0         7
[06]  G27  7 47   1440.2 2045998.1  1.0  1.0  5  0         5
[16]  B07  7 18   -651.2 4092001.8 -0.1  0.0 20  0       495
[17]  B10  1  7   -745.8 4092003.2  0.0  0.0  1  0         0
$GNGGA,000000.000,,,,,0,00,,,M,,,,0000*2B
$GNRMC,000000.000,A,,,,,,,000000,,*26
$GPGSA,A,1,,,,,,,,,,,,,,,*1E
$BDGSA,A,1,,,,,,,,,,,,,,,*0F
$GPGSV,2,1,07,04,00,000,37,07,00,000,47,08,00,000,48,09,00,000,48*78
$GPGSV,2,2,07,16,00,000,43,21,00,000,26,27,00,000,47*4F
$BDGSV,1,1,01,07,00,000,18*57
$LOGTIM,0,0.000000,0.000000,0.000000,0.000000,0.000*0A
EndT:        0
---00000011--- Acq_st=3 2019-5-22 03:15:5 
[00]  G04  f 37   -495.4 2046000.7  1.0  1.0  5  0 270922377
[01]  G07  f 47  -3341.3 2046004.3  1.0  1.0  5  0 270922379
[02]  G08  f 47   -786.5 2046001.0  1.0  1.0  5  0 270922386
[03]  G09  f 48    640.5 2045999.2  1.0  1.0  5  0 270922378
[04]  G16  f 43   1308.5 2045998.3  1.0  1.0  5  0 270922381
[05]  G21  7 26   2356.2 2045996.9 -1.0 -0.0 10  0         7
[06]  G27  7 47   1440.6 2045998.1  1.0  1.0  5  0         5
[16]  B07  7 35   -644.0 4092001.7  0.7  1.0  5  0      1493
[17]  B10  7  7   -720.8 4092001.9  0.2  0.0 20  0       368
$GNGGA,000000.000,,,,,0,00,,,M,,,,0000*2B
$GNRMC,000000.000,A,,,,,,,000000,,*26
$GPGSA,A,1,,,,,,,,,,,,,,,*1E
$BDGSA,A,1,,,,,,,,,,,,,,,*0F
$GPGSV,2,1,07,04,00,000,37,07,00,000,47,08,00,000,47,09,00,000,48*77
$GPGSV,2,2,07,16,00,000,43,21,00,000,26,27,00,000,47*4F
$BDGSV,1,1,01,07,00,000,35*58
$LOGTIM,0,0.000000,0.000000,0.000000,0.000000,0.000*0A
EndT:        0
---00000012--- Acq_st=3 2019-5-22 03:15:6 
[00]  G04  f 38   -492.3 2046000.6  1.0  1.0  5  0 270923377
[01]  G07  f 47  -3338.8 2046004.3  1.0  1.0  5  0 270923379
[02]  G08  f 47   -783.6 2046001.0  1.0  1.0  5  0 270923386
[03]  G09  f 47    643.5 2045999.2  1.0  1.0  5  0 270923378
[04]  G16  f 43   1311.1 2045998.3  1.0  1.0  5  0 270923381
[05]  G21  7 26   2357.9 2045996.9 -0.9 -0.0 10  0         7
[06]  G27  7 48   1443.4 2045998.1  1.0  1.0  5  0         5
[16]  B07  7 36   -640.2 4092001.7  1.0  0.9  5  0      2493
[17]  B10  7 40   -718.5 4092001.8  0.9  1.0  5  0      1350
$GNGGA,000000.000,,,,,0,00,,,M,,,,0000*2B
$GNRMC,000000.000,A,,,,,,,000000,,*26
$GPGSA,A,1,,,,,,,,,,,,,,,*1E
$BDGSA,A,1,,,,,,,,,,,,,,,*0F
$GPGSV,2,1,07,04,00,000,38,07,00,000,47,08,00,000,47,09,00,000,47*77
$GPGSV,2,2,07,16,00,000,43,21,00,000,26,27,00,000,48*40
$BDGSV,1,1,02,07,00,000,36,10,00,000,40*6D
$LOGTIM,0,0.000000,0.000000,0.000000,0.000000,0.000*0A
EndT:        0
---00000013--- Acq_st=3 2019-5-22 03:15:7 
[00]  G04  f 37   -493.3 2046000.7  1.0  1.0  5  0 270924377
[01]  G07  f 47  -3340.0 2046004.3  1.0  1.0  5  0 270924379
[02]  G08  f 47   -784.4 2046001.0  1.0  1.0  5  0 270924386
[03]  G09  f 48    642.8 2045999.2  1.0  1.0  5  0 270924378
[04]  G16  f 42   1310.0 2045998.3  1.0  1.0  5  0 270924381
[05]  G21  7 26   2356.7 2045996.9 -0.9 -0.1 10  0         7
[06]  G27  f 47   1442.5 2045998.1  1.0  1.0  5  0         5
[16]  B07  7 36   -642.8 4092001.7  1.0  1.0  5  0      3493
[17]  B10  7 40   -719.4 4092001.9  1.0  1.0  5  0      2350
$GNGGA,000000.000,,,,,0,00,,,M,,,,0000*2B
$GNRMC,000000.000,A,,,,,,,000000,,*26
$GPGSA,A,1,,,,,,,,,,,,,,,*1E
$BDGSA,A,1,,,,,,,,,,,,,,,*0F
$GPGSV,2,1,07,04,00,000,37,07,00,000,47,08,00,000,47,09,00,000,48*77
$GPGSV,2,2,07,16,00,000,42,21,00,000,26,27,00,000,47*4E
$BDGSV,1,1,02,07,00,000,36,10,00,000,40*6D
$LOGTIM,0,0.000000,0.000000,0.000000,0.000000,0.000*0A
EndT:        0
---00000014--- Acq_st=3 2019-5-22 03:15:8 
[00]  G04  f 38   -496.6 2046000.6  1.0  1.0  5  0 270925377
[01]  G07  f 48  -3343.2 2046004.3  1.0  1.0  5  0 270925379
[02]  G08  f 48   -787.7 2046001.0  1.0  1.0  5  0 270925386
[03]  G09  f 47    639.4 2045999.1  1.0  1.0  5  0 270925378
[04]  G16  f 42   1306.6 2045998.4  1.0  1.0  5  0 270925381
[05]  G21  7 26   2353.2 2045996.9 -0.9 -0.0 10  0         7
[06]  G27  f 47   1439.2 2045998.1  1.0  1.0  5  0 270925385
[16]  B07  7 36   -646.6 4092001.7  1.0  1.0  5  0      4493
[17]  B10  7 40   -723.6 4092001.9  1.0  1.0  5  0      3350
$GNGGA,000000.000,,,,,0,00,,,M,,,,0000*2B
$GNRMC,000000.000,A,,,,,,,000000,,*26
$GPGSA,A,1,,,,,,,,,,,,,,,*1E
$BDGSA,A,1,,,,,,,,,,,,,,,*0F
$GPGSV,2,1,07,04,00,000,38,07,00,000,48,08,00,000,48,09,00,000,47*77
$GPGSV,2,2,07,16,00,000,42,21,00,000,26,27,00,000,47*4E
$BDGSV,1,1,02,07,00,000,36,10,00,000,40*6D
$LOGTIM,0,0.000000,0.000000,0.000000,0.000000,0.000*0A
EndT:        0
---00000015--- Acq_st=3 2019-5-22 03:15:9 
[00]  G04  f 38   -496.6 2046000.6  1.0  1.0  5  0 270926377
[01]  G07  f 48  -3344.1 2046004.3  1.0  1.0  5  0 270926379
[02]  G08  f 48   -787.9 2046001.0  1.0  1.0  5  0 270926386
[03]  G09  f 48    639.1 2045999.2  1.0  1.0  5  0 270926378
[04]  G16  f 42   1305.6 2045998.3  1.0  1.0  5  0 270926381
[05]  G21  7 26   2352.2 2045996.9 -1.0 -0.0 10  0         7
[06]  G27  f 48   1438.7 2045998.1  1.0  1.0  5  0 270926385
[16]  B07 1f 35   -647.4 4092001.8  1.0  1.0  5  0      5493
[17]  B10 1f 40   -724.7 4092001.9  1.0  1.0  5  0      4350
$GNGGA,000000.000,,,,,0,00,,,M,,,,0000*2B
$GNRMC,000000.000,A,,,,,,,000000,,*26
$GPGSA,A,1,,,,,,,,,,,,,,,*1E
$BDGSA,A,1,,,,,,,,,,,,,,,*0F
$GPGSV,2,1,07,04,00,000,38,07,00,000,48,08,00,000,48,09,00,000,48*78
$GPGSV,2,2,07,16,00,000,42,21,00,000,26,27,00,000,48*41
$BDGSV,1,1,02,07,00,000,35,10,00,000,40*6E
$LOGTIM,0,0.000000,0.000000,0.000000,0.000000,0.000*0A
EndT:        0
---00000016--- Acq_st=3 2019-5-22 03:15:10 
[00]  G04  f 37   -496.8 2046000.6  1.0  1.0  5  0 270927377
[01]  G07  f 48  -3344.9 2046004.3  1.0  1.0  5  0 270927379
[02]  G08  f 48   -788.8 2046001.0  1.0  1.0  5  0 270927386
[03]  G09  f 48    638.7 2045999.2  1.0  1.0  5  0 270927378
[04]  G16  f 42   1304.7 2045998.3  1.0  1.0  5  0 270927381
[05]  G21  7 26   2351.6 2045996.8 -1.0 -0.0 10  0         7
[06]  G27  f 47   1437.9 2045998.1  1.0  1.0  5  0 270927385
[16]  B07 1f 35   -649.3 4092001.7  1.0  0.9  5  0 270913333
[17]  B10 1f 40   -725.2 4092001.9  1.0  1.0  5  0 270913330
$GNGGA,000000.000,,,,,0,00,,,M,,,,0000*2B
$GNRMC,000000.000,A,,,,,,,000000,,*26
$GPGSA,A,1,,,,,,,,,,,,,,,*1E
$BDGSA,A,1,,,,,,,,,,,,,,,*0F
$GPGSV,2,1,07,04,00,000,37,07,00,000,48,08,00,000,48,09,00,000,48*77
$GPGSV,2,2,07,16,00,000,42,21,00,000,26,27,00,000,47*4E
$BDGSV,1,1,02,07,00,000,35,10,00,000,40*6E
$LOGTIM,0,0.000000,0.000000,0.000000,0.000000,0.000*0A
EndT:        0
---00000017--- Acq_st=3 2019-5-22 03:15:11 
[00]  G04  f 37   -495.0 2046000.7  1.0  1.0  5  0 270928377
[01]  G07  f 47  -3343.3 2046004.3  1.0  1.0  5  0 270928379
[02]  G08  f 48   -786.7 2046001.0  1.0  1.0  5  0 270928386
[03]  G09  f 47    640.6 2045999.2  1.0  1.0  5  0 270928378
[04]  G16  f 42   1305.7 2045998.3  1.0  1.0  5  0 270928381
[05]  G21  7 26   2353.0 2045996.9 -1.0 -0.0 10  0         7
[06]  G27  f 47   1439.8 2045998.1  1.0  1.0  5  0 270928385
[16]  B07 1f 35   -647.6 4092001.7  1.0  1.0  5  0 270914333
[17]  B10 1f 40   -724.1 4092001.9  1.0  1.0  5  0 270914330
[18]  B27  1 26   -552.1 4092002.7  0.1  0.0  1  0         0
[19]  B28  1  7   2176.7 4091994.1 -0.0  0.0  1  0         0
$GNGGA,000000.000,,,,,0,00,,,M,,,,0000*2B
$GNRMC,000000.000,A,,,,,,,000000,,*26
$GPGSA,A,1,,,,,,,,,,,,,,,*1E
$BDGSA,A,1,,,,,,,,,,,,,,,*0F
$GPGSV,2,1,07,04,00,000,37,07,00,000,47,08,00,000,48,09,00,000,47*77
$GPGSV,2,2,07,16,00,000,42,21,00,000,26,27,00,000,47*4E
$BDGSV,1,1,02,07,00,000,35,10,00,000,40*6E
$LOGTIM,0,0.000000,0.000000,0.000000,0.000000,0.000*0A
EndT:        0
---00000018--- Acq_st=7 2019-5-22 03:15:12 
[00]  G04  f 37   -495.1 2046000.6  1.0  1.0  5  0 270929377
[01]  G07  f 47  -3343.5 2046004.3  1.0  1.0  5  0 270929379
[02]  G08  f 48   -786.7 2046001.0  1.0  1.0  5  0 270929386
[03]  G09  f 47    640.6 2045999.2  1.0  1.0  5  0 270929378
[04]  G16  f 42   1305.7 2045998.3  1.0  1.0  5  0 270929381
[05]  G21  7 26   2353.1 2045996.9 -1.0 -0.0 10  0         7
[06]  G27  f 47   1439.8 2045998.1  1.0  1.0  5  0 270929385
[16]  B07 1f 36   -647.9 4092001.7  1.0  1.0  5  0 270915333
[17]  B10 1f 40   -724.8 4092001.9  1.0  1.0  5  0 270915330
[18]  B27  7 29   -536.3 4092001.4 -0.0  0.9  5  0       982
[19]  B28  7 24   2176.6 4091994.3  0.3  0.0 20  0       607
$GNGGA,000000.000,,,,,0,00,,,M,,,,0000*2B
$GNRMC,000000.000,A,,,,,,,000000,,*26
$GPGSA,A,1,,,,,,,,,,,,,,,*1E
$BDGSA,A,1,,,,,,,,,,,,,,,*0F
$GPGSV,2,1,07,04,00,000,37,07,00,000,47,08,00,000,48,09,00,000,47*77
$GPGSV,2,2,07,16,00,000,42,21,00,000,26,27,00,000,47*4E
$BDGSV,1,1,04,07,00,000,36,10,00,000,40,27,00,000,29,28,00,000,24*69
$LOGTIM,0,0.000000,0.000000,0.000000,0.000000,0.000*0A
EndT:        0
---00000019--- Acq_st=7 2019-5-22 03:15:13 
[00]  G04  f 38   -493.8 2046000.7  1.0  1.0  5  0 270930377
[01]  G07  f 47  -3342.6 2046004.3  1.0  1.0  5  0 270930379
[02]  G08  f 48   -785.7 2046001.0  1.0  1.0  5  0 270930386
[03]  G09  f 48    641.6 2045999.2  1.0  1.0  5  0 270930378
[04]  G16  f 42   1306.2 2045998.3  1.0  1.0  5  0 270930381
[05]  G21  7 26   2354.9 2045996.9 -1.0 -0.0 10  0         7
[06]  G27  f 47   1440.7 2045998.1  1.0  1.0  5  0 270930385
[16]  B07 1f 36   -648.0 4092001.7  1.0  1.0  5  0 270916333
[17]  B10 1f 40   -724.5 4092001.9  1.0  1.0  5  0 270916330
[18]  B27  7 34   -536.2 4092001.4  1.0  1.0  5  0      1982
[19]  B28  7 46   2177.1 4091994.3  1.0  1.0  5  0      1595
$GNGGA,000000.000,,,,,0,00,,,M,,,,0000*2B
$GNRMC,000000.000,A,,,,,,,000000,,*26
$GPGSA,A,1,,,,,,,,,,,,,,,*1E
$BDGSA,A,1,,,,,,,,,,,,,,,*0F
$GPGSV,2,1,07,04,00,000,38,07,00,000,47,08,00,000,48,09,00,000,48*77
$GPGSV,2,2,07,16,00,000,42,21,00,000,26,27,00,000,47*4E
$BDGSV,1,1,04,07,00,000,36,10,00,000,40,27,00,000,34,28,00,000,46*61
$LOGTIM,0,0.000000,0.000000,0.000000,0.000000,0.000*0A
EndT:        0
---00000020--- Acq_st=3 2019-5-22 03:15:14 
[00]  G04  f 38   -492.0 2046000.6  1.0  1.0  5  0 270931377
[01]  G07  f 47  -3341.2 2046004.3  1.0  1.0  5  0 270931379
[02]  G08  f 48   -783.9 2046001.0  1.0  1.0  5  0 270931386
[03]  G09  f 48    643.6 2045999.2  1.0  1.0  5  0 270931378
[04]  G16  f 42   1307.6 2045998.2  1.0  1.0  5  0 270931381
[05]  G21  7 26   2356.4 2045996.9 -1.0 -0.0 10  0         7
[06]  G27  f 47   1442.3 2045998.1  1.0  1.0  5  0 270931385
[16]  B07 1f 35   -646.7 4092001.6  1.0  1.0  5  0 270917333
[17]  B10 1f 40   -722.6 4092001.9  1.0  1.0  5  0 270917330
[18]  B27  7 35   -533.5 4092001.4  1.0  1.0  5  0      2982
[19]  B28  7 46   2178.8 4091994.3  1.0  1.0  5  0      2595
$GNGGA,000000.000,,,,,0,00,,,M,,,,0000*2B
$GNRMC,000000.000,A,,,,,,,000000,,*26
$GPGSA,A,1,,,,,,,,,,,,,,,*1E
$BDGSA,A,1,,,,,,,,,,,,,,,*0F
$GPGSV,2,1,07,04,00,000,38,07,00,000,47,08,00,000,48,09,00,000,48*77
$GPGSV,2,2,07,16,00,000,42,21,00,000,26,27,00,000,47*4E
$BDGSV,1,1,04,07,00,000,35,10,00,000,40,27,00,000,35,28,00,000,46*63
$LOGTIM,0,0.000000,0.000000,0.000000,0.000000,0.000*0A
EndT:        0
---00000021--- Acq_st=3 2019-5-22 03:15:15 
[00]  G04  f 38   -491.9 2046000.6  1.0  1.0  5  0 270932377
[01]  G07  f 47  -3341.3 2046004.4  1.0  1.0  5  0 270932379
[02]  G08  f 49   -783.5 2046001.0  1.0  1.0  5  0 270932386
[03]  G09  f 48    643.9 2045999.1  1.0  1.0  5  0 270932378
[04]  G16  f 42   1307.5 2045998.3  1.0  1.0  5  0 270932381
[05]  G21  7 26   2356.5 2045996.9 -1.0  0.0 10  0         7
[06]  G27  f 47   1442.6 2045998.1  1.0  1.0  5  0 270932385
[16]  B07 1f 35   -646.2 4092001.7  1.0  1.0  5  0 270918333
[17]  B10 1f 40   -722.9 4092001.9  1.0  1.0  5  0 270918330
[18]  B27 1f 35   -533.3 4092001.3  1.0  0.9  5  0      3982
[19]  B28 1f 46   2179.0 4091994.3  1.0  1.0  5  0      3595
$GNGGA,000000.000,,,,,0,00,,,M,,,,0000*2B
$GNRMC,000000.000,A,,,,,,,000000,,*26
$GPGSA,A,1,,,,,,,,,,,,,,,*1E
$BDGSA,A,1,,,,,,,,,,,,,,,*0F
$GPGSV,2,1,07,04,00,000,38,07,00,000,47,08,00,000,49,09,00,000,48*76
$GPGSV,2,2,07,16,00,000,42,21,00,000,26,27,00,000,47*4E
$BDGSV,1,1,04,07,00,000,35,10,00,000,40,27,00,000,35,28,00,000,46*63
$LOGTIM,0,0.000000,0.000000,0.000000,0.000000,0.000*0A
EndT:        0
---00000022--- Acq_st=3 2019-5-22 03:15:16 
[00]  G04  f 38   -490.0 2046000.6  1.0  1.0  5  0 270933377
[01]  G07  f 48  -3340.1 2046004.3  1.0  1.0  5  0 270933379
[02]  G08  f 49   -781.9 2046001.0  1.0  1.0  5  0 270933386
[03]  G09  f 48    645.2 2045999.2  1.0  1.0  5  0 270933378
[04]  G16  f 42   1308.7 2045998.3  1.0  1.0  5  0 270933381
[05]  G21  7 26   2357.6 2045996.9 -1.0 -0.1 10  0         7
[06]  G27  f 47   1443.8 2045998.1  1.0  1.0  5  0 270933385
[16]  B07 1f 35   -645.1 4092001.7  1.0  1.0  5  0 270919333
[17]  B10 1f 40   -722.4 4092001.9  1.0  1.0  5  0 270919330
[18]  B27 1f 35   -532.2 4092001.5  1.0  1.0  5  0 270919382
[19]  B28 1f 46   2179.9 4091994.3  1.0  1.0  5  0 270919375
$GNGGA,000000.000,,,,,0,00,,,M,,,,0000*2B
$GNRMC,000000.000,A,,,,,,,000000,,*26
$GPGSA,A,1,,,,,,,,,,,,,,,*1E
$BDGSA,A,1,,,,,,,,,,,,,,,*0F
$GPGSV,2,1,07,04,00,000,38,07,00,000,48,08,00,000,49,09,00,000,48*79
$GPGSV,2,2,07,16,00,000,42,21,00,000,26,27,00,000,47*4E
$BDGSV,1,1,04,07,00,000,35,10,00,000,40,27,00,000,35,28,00,000,46*63
$LOGTIM,0,0.000000,0.000000,0.000000,0.000000,0.000*0A
EndT:        0
---00000023--- Acq_st=3 2019-5-22 03:15:17 
[00]  G04  f 37   -488.7 2046000.6  1.0  1.0  5  0 270934377
[01]  G07  f 48  -3339.0 2046004.3  1.0  1.0  5  0 270934379
[02]  G08  f 49   -780.7 2046001.0  1.0  1.0  5  0 270934386
[03]  G09  f 48    646.5 2045999.2  1.0  1.0  5  0 270934378
[04]  G16  f 42   1309.4 2045998.3  1.0  1.0  5  0 270934381
[05]  G21  7 26   2358.8 2045996.9 -1.0  0.0 10  0         7
[06]  G27  f 47   1445.2 2045998.1  1.0  1.0  5  0 270934385
[16]  B07 1f 35   -645.0 4092001.7  1.0  0.9  5  0 270920333
[17]  B10 1f 40   -721.3 4092001.9  1.0  1.0  5  0 270920330
[18]  B27 1f 35   -531.3 4092001.3  1.0  1.0  5  0 270920382
[19]  B28 1f 45   2181.0 4091994.3  1.0  1.0  5  0 270920375
$GNGGA,000000.000,,,,,0,00,,,M,,,,0000*2B
$GNRMC,000000.000,A,,,,,,,000000,,*26
$GPGSA,A,1,,,,,,,,,,,,,,,*1E
$BDGSA,A,1,,,,,,,,,,,,,,,*0F
$GPGSV,2,1,07,04,00,000,37,07,00,000,48,08,00,000,49,09,00,000,48*76
$GPGSV,2,2,07,16,00,000,42,21,00,000,26,27,00,000,47*4E
$BDGSV,1,1,04,07,00,000,35,10,00,000,40,27,00,000,35,28,00,000,45*60
$LOGTIM,0,0.000000,0.000000,0.000000,0.000000,0.000*0A
EndT:        0
---00000024--- Acq_st=3 2019-5-22 03:15:18 
[00]  G04  f 37   -487.7 2046000.7  1.0  1.0  5  0 270935377
[01]  G07  f 48  -3338.8 2046004.3  1.0  1.0  5  0 270935379
[02]  G08  f 48   -780.2 2046001.0  1.0  1.0  5  0 270935386
[03]  G09  f 47    647.6 2045999.2  1.0  1.0  5  0 270935378
[04]  G16  f 42   1310.0 2045998.3  1.0  1.0  5  0 270935381
[05]  G21  7 26   2359.1 2045996.9 -1.0 -0.0 10  0         7
[06]  G27  f 47   1445.8 2045998.1  1.0  1.0  5  0 270935385
[07]  G30  1 27  -3829.4 2046005.8  0.2  0.0  1  0        12
[16]  B07 1f 35   -644.0 4092001.7  1.0  1.0  5  0 270921333
[17]  B10 1f 40   -721.4 4092001.9  1.0  1.0  5  0 270921330
[18]  B27 1f 35   -529.7 4092001.4  1.0  1.0  5  0 270921382
[19]  B28 1f 45   2181.7 4091994.2  1.0  1.0  5  0 270921375
$GNGGA,000000.000,,,,,0,00,,,M,,,,0000*2B
$GNRMC,000000.000,A,,,,,,,000000,,*26
$GPGSA,A,1,,,,,,,,,,,,,,,*1E
$BDGSA,A,1,,,,,,,,,,,,,,,*0F
$GPGSV,2,1,07,04,00,000,37,07,00,000,48,08,00,000,48,09,00,000,47*78
$GPGSV,2,2,07,16,00,000,42,21,00,000,26,27,00,000,47*4E
$BDGSV,1,1,04,07,00,000,35,10,00,000,40,27,00,000,35,28,00,000,45*60
$LOGTIM,0,0.000000,0.000000,0.000000,0.000000,0.000*0A
EndT:        0
---00000025--- Acq_st=3 2019-5-22 03:15:19 
[00]  G04  f 37   -485.0 2046000.6  1.0  1.0  5  0 270936377
[01]  G07  f 47  -3336.3 2046004.3  1.0  1.0  5  0 270936379
[02]  G08  f 48   -777.1 2046001.0  1.0  1.0  5  0 270936386
[03]  G09  f 47    650.4 2045999.1  1.0  1.0  5  0 270936378
[04]  G16  f 42   1312.1 2045998.3  1.0  1.0  5  0 270936381
[05]  G21  7 26   2360.7 2045996.9 -0.9 -0.0 10  0         7
[06]  G27  f 46   1448.6 2045998.1  1.0  1.0  5  0 270936385
[16]  B07 1f 35   -642.2 4092001.6  1.0  1.0  5  0 270922333
[17]  B10 1f 40   -718.9 4092001.9  1.0  1.0  5  0 270922330
[18]  B27 1f 35   -526.2 4092001.4  1.0  0.9  5  0 270922382
[19]  B28 1f 45   2184.3 4091994.3  1.0  1.0  5  0 270922375
$GNGGA,000000.000,,,,,0,00,,,M,,,,0000*2B
$GNRMC,000000.000,A,,,,,,,000000,,*26
$GPGSA,A,1,,,,,,,,,,,,,,,*1E
$BDGSA,A,1,,,,,,,,,,,,,,,*0F
$GPGSV,2,1,07,04,00,000,37,07,00,000,47,08,00,000,48,09,00,000,47*77
$GPGSV,2,2,07,16,00,000,42,21,00,000,26,27,00,000,46*4F
$BDGSV,1,1,04,07,00,000,35,10,00,000,40,27,00,000,35,28,00,000,45*60
$LOGTIM,0,0.000000,0.000000,0.000000,0.000000,0.000*0A
EndT:        0
---00000026--- Acq_st=3 2019-5-22 03:15:20 
[00]  G04  f 37   -483.7 2046000.6  1.0  1.0  5  0 270937377
[01]  G07  f 47  -3335.6 2046004.3  1.0  1.0  5  0 270937379
[02]  G08  f 48   -776.3 2046001.0  1.0  1.0  5  0 270937386
[03]  G09  f 48    651.0 2045999.1  1.0  1.0  5  0 270937378
[04]  G16  f 42   1312.6 2045998.3  1.0  1.0  5  0 270937381
[05]  G21  7 26   2361.1 2045996.9 -1.0 -0.0 10  0         7
[06]  G27  f 47   1449.2 2045998.1  1.0  1.0  5  0 270937385
[16]  B07 1f 35   -642.3 4092001.6  1.0  0.9  5  0 270923333
[17]  B10 1f 40   -719.2 4092001.9  1.0  1.0  5  0 270923330
[18]  B27 1f 35   -525.7 4092001.4  1.0  0.9  5  0 270923382
[19]  B28 1f 45   2184.4 4091994.3  1.0  1.0  5  0 270923375
$GNGGA,000000.000,,,,,0,00,,,M,,,,0000*2B
$GNRMC,000000.000,A,,,,,,,000000,,*26
$GPGSA,A,1,,,,,,,,,,,,,,,*1E
$BDGSA,A,1,,,,,,,,,,,,,,,*0F
$GPGSV,2,1,07,04,00,000,37,07,00,000,47,08,00,000,48,09,00,000,48*78
$GPGSV,2,2,07,16,00,000,42,21,00,000,26,27,00,000,47*4E
$BDGSV,1,1,04,07,00,000,35,10,00,000,40,27,00,000,35,28,00,000,45*60
$LOGTIM,0,0.000000,0.000000,0.000000,0.000000,0.000*0A
EndT:        0
---00000027--- Acq_st=3 2019-5-22 03:15:21 
[00]  G04  f 36   -484.2 2046000.6  1.0  1.0  5  0 270938377
[01]  G07  f 47  -3335.7 2046004.3  1.0  1.0  5  0 270938379
[02]  G08  f 48   -776.5 2046001.0  1.0  1.0  5  0 270938386
[03]  G09  f 47    651.2 2045999.2  1.0  1.0  5  0 270938378
[04]  G16  f 42   1312.3 2045998.3  1.0  1.0  5  0 270938381
[05]  G21  7 26   2360.7 2045996.9 -1.0 -0.0 10  0         7
[06]  G27  f 46   1448.9 2045998.1  1.0  1.0  5  0 270938385
[16]  B07 1f 35   -642.0 4092001.8  1.0  1.0  5  0 270924333
[17]  B10 1f 40   -719.6 4092001.9  1.0  1.0  5  0 270924330
[18]  B27 1f 35   -526.6 4092001.3  1.0  1.1  5  0 270924382
[19]  B28 1f 45   2184.6 4091994.3  1.0  1.0  5  0 270924375
$GNGGA,000000.000,,,,,0,00,,,M,,,,0000*2B
$GNRMC,000000.000,A,,,,,,,000000,,*26
$GPGSA,A,1,,,,,,,,,,,,,,,*1E
$BDGSA,A,1,,,,,,,,,,,,,,,*0F
$GPGSV,2,1,07,04,00,000,36,07,00,000,47,08,00,000,48,09,00,000,47*76
$GPGSV,2,2,07,16,00,000,42,21,00,000,26,27,00,000,46*4F
$BDGSV,1,1,04,07,00,000,35,10,00,000,40,27,00,000,35,28,00,000,45*60
$LOGTIM,0,0.000000,0.000000,0.000000,0.000000,0.000*0A
EndT:        0
---00000028--- Acq_st=3 2019-5-22 03:15:22 
[00]  G04  f 36   -479.1 2046000.6  1.0  1.0  5  0 270939377
[01]  G07  f 47  -3332.0 2046004.3  1.0  1.0  5  0 270939379
[02]  G08  f 49   -772.2 2046001.0  1.0  1.0  5  0 270939386
[03]  G09  f 47    655.2 2045999.1  1.0  1.0  5  0 270939378
[04]  G16  f 42   1316.1 2045998.3  1.0  1.0  5  0 270939381
[05]  G21  7 26   2364.8 2045996.9 -0.9  0.0 10  0         7
[06]  G27  f 47   1453.0 2045998.1  1.0  1.0  5  0 270939385
[16]  B07 1f 35   -639.0 4092001.6  1.0  0.9  5  0 270925333
[17]  B10 1f 40   -715.7 4092001.9  1.0  1.0  5  0 270925330
[18]  B27 1f 35   -521.2 4092001.5  1.0  0.9  5  0 270925382
[19]  B28 1f 45   2188.1 4091994.2  1.0  1.0  5  0 270925375
$GNGGA,000000.000,,,,,0,00,,,M,,,,0000*2B
$GNRMC,000000.000,A,,,,,,,000000,,*26
$GPGSA,A,1,,,,,,,,,,,,,,,*1E
$BDGSA,A,1,,,,,,,,,,,,,,,*0F
$GPGSV,2,1,07,04,00,000,36,07,00,000,47,08,00,000,49,09,00,000,47*77
$GPGSV,2,2,07,16,00,000,42,21,00,000,26,27,00,000,47*4E
$BDGSV,1,1,04,07,00,000,35,10,00,000,40,27,00,000,35,28,00,000,45*60
$LOGTIM,0,0.000000,0.000000,0.000000,0.000000,0.000*0A
EndT:        0
---00000029--- Acq_st=3 2019-5-22 03:15:23 
[00]  G04  f 36   -475.2 2046000.6  1.0  1.0  5  0 270940377
[01]  G07  f 48  -3328.1 2046004.3  1.0  1.0  5  0 270940379
[02]  G08  f 48   -768.0 2046001.0  1.0  1.0  5  0 270940386
[03]  G09  f 47    659.4 2045999.1  1.0  1.0  5  0 270940378
[04]  G16  f 42   1319.9 2045998.3  1.0  1.0  5  0 270940381
[05]  G21  7 26   2368.7 2045996.9 -0.9  0.0 10  0         7
[06]  G27  f 46   1456.9 2045998.1  1.0  1.0  5  0 270940385
[16]  B07 1f 35   -636.2 4092001.6  1.0  0.9  5  0 270926333
[17]  B10 1f 40   -712.3 4092001.9  1.0  1.0  5  0 270926330
[18]  B27 1f 35   -517.8 4092001.4  1.0  1.0  5  0 270926382
[19]  B28 1f 45   2191.8 4091994.2  1.0  1.0  5  0 270926375
$GNGGA,000000.000,,,,,0,00,,,M,,,,0000*2B
$GNRMC,000000.000,A,,,,,,,000000,,*26
$GPGSA,A,1,,,,,,,,,,,,,,,*1E
$BDGSA,A,1,,,,,,,,,,,,,,,*0F
$GPGSV,2,1,07,04,00,000,36,07,00,000,48,08,00,000,48,09,00,000,47*79
$GPGSV,2,2,07,16,00,000,42,21,00,000,26,27,00,000,46*4F
$BDGSV,1,1,04,07,00,000,35,10,00,000,40,27,00,000,35,28,00,000,45*60
$LOGTIM,0,0.000000,0.000000,0.000000,0.000000,0.000*0A
EndT:        1
---00000030--- Acq_st=3 2019-5-22 03:15:24 
[00]  G04  f 37   -473.8 2046000.6  1.0  1.0  5  0 270941377
[01]  G07  f 47  -3326.5 2046004.3  1.0  1.0  5  0 270941379
[02]  G08  f 49   -766.2 2046001.0  1.0  1.0  5  0 270941386
[03]  G09  f 47    660.9 2045999.1  1.0  1.0  5  0 270941378
[04]  G16  f 41   1321.3 2045998.3  1.0  1.0  5  0 270941381
[05]  G21  7 26   2370.2 2045996.8 -0.9 -0.0 10  0         7
[06]  G27  f 46   1458.7 2045998.1  1.0  1.0  5  0 270941385
[16]  B07 1f 34   -634.8 4092001.7  1.0  0.9  5  0 270927333
[17]  B10 1f 40   -711.4 4092001.8  1.0  1.0  5  0 270927330
[18]  B27 1f 35   -517.0 4092001.4  1.0  0.9  5  0 270927382
[19]  B28 1f 45   2193.2 4091994.2  1.0  1.0  5  0 270927375
$GNGGA,000000.000,,,,,0,00,,,M,,,,0000*2B
$GNRMC,000000.000,A,,,,,,,000000,,*26
$GPGSA,A,1,,,,,,,,,,,,,,,*1E
$BDGSA,A,1,,,,,,,,,,,,,,,*0F
$GPGSV,2,1,07,04,00,000,37,07,00,000,47,08,00,000,49,09,00,000,47*76
$GPGSV,2,2,07,16,00,000,41,21,00,000,26,27,00,000,46*4C
$BDGSV,1,1,04,07,00,000,34,10,00,000,40,27,00,000,35,28,00,000,45*61
$LOGTIM,0,0.000000,0.000000,0.000000,0.000000,0.000*0A
EndT:        0
---00000031--- Acq_st=3 2019-5-22 03:15:25 
[00]  G04  f 37   -475.0 2046000.6  1.0  1.0  5  0 270942377
[01]  G07  f 47  -3328.6 2046004.3  1.0  1.0  5  0 270942379
[02]  G08  f 49   -768.1 2046001.0  1.0  1.0  5  0 270942386
[03]  G09  f 48    659.5 2045999.1  1.0  1.0  5  0 270942378
[04]  G16  f 42   1319.2 2045998.3  1.0  1.0  5  0 270942381
[05]  G21  7 26   2367.8 2045996.9 -0.9 -0.0 10  0         7
[06]  G27  f 45   1456.9 2045998.1  1.0  1.0  5  0 270942385
[16]  B07 1f 35   -635.9 4092001.6  1.0  1.0  5  0 270928333
[17]  B10 1f 40   -713.8 4092001.9  1.0  0.9  5  0 270928330
[18]  B27 1f 35   -518.5 4092001.4  1.0  1.0  5  0 270928382
[19]  B28 1f 45   2191.4 4091994.2  1.0  1.0  5  0 270928375
$GNGGA,000000.000,,,,,0,00,,,M,,,,0000*2B
$GNRMC,000000.000,A,,,,,,,000000,,*26
$GPGSA,A,1,,,,,,,,,,,,,,,*1E
$BDGSA,A,1,,,,,,,,,,,,,,,*0F
$GPGSV,2,1,07,04,00,000,37,07,00,000,47,08,00,000,49,09,00,000,48*79
$GPGSV,2,2,07,16,00,000,42,21,00,000,26,27,00,000,45*4C
$BDGSV,1,1,04,07,00,000,35,10,00,000,40,27,00,000,35,28,00,000,45*60
$LOGTIM,0,0.000000,0.000000,0.000000,0.000000,0.000*0A
EndT:        0
---00000032--- Acq_st=3 2019-5-22 03:15:26 
[00]  G04  f 38   -476.9 2046000.6  1.0  1.0  5  0 270943377
[01]  G07  f 48  -3330.3 2046004.3  1.0  1.0  5  0 270943379
[02]  G08  f 49   -769.8 2046001.0  1.0  1.0  5  0 270943386
[03]  G09  f 48    657.6 2045999.1  1.0  1.0  5  0 270943378
[04]  G16  f 41   1316.4 2045998.3  1.0  1.0  5  0 270943381
[05]  G21  7 26   2367.5 2045996.9 -1.0 -0.0 10  0         7
[06]  G27  f 46   1455.0 2045998.1  1.0  1.0  5  0 270943385
[16]  B07 1f 35   -637.6 4092001.7  1.0  0.9  5  0 270929333
[17]  B10 1f 40   -715.4 4092001.8  1.0  1.0  5  0 270929330
[18]  B27 1f 35   -519.9 4092001.4  1.0  1.0  5  0 270929382
[19]  B28 1f 45   2190.0 4091994.2  1.0  1.0  5  0 270929375
$GNGGA,000000.000,,,,,0,00,,,M,,,,0000*2B
$GNRMC,000000.000,A,,,,,,,000000,,*26
$GPGSA,A,1,,,,,,,,,,,,,,,*1E
$BDGSA,A,1,,,,,,,,,,,,,,,*0F
$GPGSV,2,1,07,04,00,000,38,07,00,000,48,08,00,000,49,09,00,000,48*79
$GPGSV,2,2,07,16,00,000,41,21,00,000,26,27,00,000,46*4C
$BDGSV,1,1,04,07,00,000,35,10,00,000,40,27,00,000,35,28,00,000,45*60
$LOGTIM,0,0.000000,0.000000,0.000000,0.000000,0.000*0A
EndT:        0
---00000033--- Acq_st=3 2019-5-22 03:15:27 
[00]  G04  f 37   -479.7 2046000.7  1.0  1.0  5  0 270944377
[01]  G07  f 47  -3333.8 2046004.3  1.0  1.0  5  0 270944379
[02]  G08  f 49   -772.7 2046001.0  1.0  1.0  5  0 270944386
[03]  G09  f 48    654.8 2045999.1  1.0  1.0  5  0 270944378
[04]  G16  f 41   1313.4 2045998.3  1.0  1.0  5  0 270944381
[05]  G21  7 26   2363.6 2045996.9 -0.9 -0.0 10  0         7
[06]  G27  f 45   1452.2 2045998.1  1.0  1.0  5  0 270944385
[16]  B07 1f 34   -642.3 4092001.7  1.0  1.0  5  0 270930333
[17]  B10 1f 40   -720.1 4092001.9  1.0  1.0  5  0 270930330
[18]  B27 1f 34   -523.2 4092001.3  1.0  1.0  5  0 270930382
[19]  B28 1f 45   2186.2 4091994.2  1.0  1.0  5  0 270930375
$GNGGA,000000.000,,,,,0,00,,,M,,,,0000*2B
$GNRMC,000000.000,A,,,,,,,000000,,*26
$GPGSA,A,1,,,,,,,,,,,,,,,*1E
$BDGSA,A,1,,,,,,,,,,,,,,,*0F
$GPGSV,2,1,07,04,00,000,37,07,00,000,47,08,00,000,49,09,00,000,48*79
$GPGSV,2,2,07,16,00,000,41,21,00,000,26,27,00,000,45*4F
$BDGSV,1,1,04,07,00,000,34,10,00,000,40,27,00,000,34,28,00,000,45*60
$LOGTIM,0,0.000000,0.000000,0.000000,0.000000,0.000*0A
EndT:        0
---00000034--- Acq_st=3 2019-5-22 03:15:28 
[00]  G04  f 36   -482.2 2046000.7  1.0  1.0  5  0 270945377
[01]  G07  f 48  -3336.8 2046004.3  1.0  1.0  5  0 270945379
[02]  G08  f 49   -775.3 2046001.0  1.0  1.0  5  0 270945386
[03]  G09  f 48    652.2 2045999.2  1.0  1.0  5  0 270945378
[04]  G16  f 41   1310.6 2045998.3  1.0  1.0  5  0 270945381
[05]  G21  7 26   2360.8 2045996.9 -0.9  0.0 10  0         7
[06]  G27  f 45   1449.3 2045998.1  1.0  1.0  5  0 270945385
[16]  B07 1f 35   -644.9 4092001.7  1.0  0.9  5  0 270931333
[17]  B10 1f 40   -722.6 4092001.9  1.0  1.0  5  0 270931330
[18]  B27 1f 34   -525.1 4092001.4  1.0  1.0  5  0 270931382
[19]  B28 1f 45   2183.5 4091994.3  1.0  1.0  5  0 270931375
$GNGGA,000000.000,,,,,0,00,,,M,,,,0000*2B
$GNRMC,000000.000,A,,,,,,,000000,,*26
$GPGSA,A,1,,,,,,,,,,,,,,,*1E
$BDGSA,A,1,,,,,,,,,,,,,,,*0F
$GPGSV,2,1,07,04,00,000,36,07,00,000,48,08,00,000,49,09,00,000,48*77
$GPGSV,2,2,07,16,00,000,41,21,00,000,26,27,00,000,45*4F
$BDGSV,1,1,04,07,00,000,35,10,00,000,40,27,00,000,34,28,00,000,45*61
$LOGTIM,0,0.000000,0.000000,0.000000,0.000000,0.000*0A
EndT:        0
---00000035--- Acq_st=7 2019-5-22 03:15:29 
[00]  G04  f 37   -482.6 2046000.6  1.0  1.0  5  0 270946377
[01]  G07  f 47  -3337.7 2046004.3  1.0  1.0  5  0 270946379
[02]  G08  f 49   -776.1 2046001.0  1.0  1.0  5  0 270946386
[03]  G09  f 48    651.3 2045999.2  1.0  1.0  5  0 270946378
[04]  G16  f 41   1309.0 2045998.3  1.0  1.0  5  0 270946381
[05]  G21  7 26   2359.9 2045996.9 -0.9 -0.0 10  0         7
[06]  G27  f 45   1448.3 2045998.1  1.0  1.0  5  0 270946385
[16]  B07 1f 34   -645.7 4092001.7  1.0  1.0  5  0 270932333
[17]  B10 1f 40   -723.6 4092001.9  1.0  1.0  5  0 270932330
[18]  B27 1f 34   -525.9 4092001.4  1.0  0.9  5  0 270932382
[19]  B28 1f 46   2182.7 4091994.3  1.0  1.0  5  0 270932375
$GNGGA,000000.000,,,,,0,00,,,M,,,,0000*2B
$GNRMC,000000.000,A,,,,,,,000000,,*26
$GPGSA,A,1,,,,,,,,,,,,,,,*1E
$BDGSA,A,1,,,,,,,,,,,,,,,*0F
$GPGSV,2,1,07,04,00,000,37,07,00,000,47,08,00,000,49,09,00,000,48*79
$GPGSV,2,2,07,16,00,000,41,21,00,000,26,27,00,000,45*4F
$BDGSV,1,1,04,07,00,000,34,10,00,000,40,27,00,000,34,28,00,000,46*63
$LOGTIM,0,0.000000,0.000000,0.000000,0.000000,0.000*0A
EndT:        0
---00000036--- Acq_st=7 2019-5-22 03:15:30 
[00]  G04  f 38   -482.1 2046000.6  1.0  1.0  5 3f 270947377
[01]  G07  f 48  -3337.5 2046004.4  1.0  1.0  5  0 270947379
[02]  G08  f 49   -775.6 2046001.0  1.0  1.0  5  0 270947386
[03]  G09  f 48    651.9 2045999.1  1.0  1.0  5  0 270947378
[04]  G16  f 41   1309.3 2045998.3  1.0  1.0  5  0 270947381
[05]  G21  7 26   2360.8 2045996.9 -1.0 -0.0 10  0         7
[06]  G27  f 46   1448.7 2045998.1  1.0  1.0  5  0 270947385
[16]  B07 1f 34   -647.2 4092001.8  1.0  0.9  5  0 270933333
[17]  B10 1f 40   -723.7 4092001.9  1.0  1.0  5  0 270933330
[18]  B27 1f 34   -525.1 4092001.4  1.0  1.0  5  0 270933382
[19]  B28 1f 45   2182.9 4091994.2  1.0  1.0  5  0 270933375
lsq: nits= 4
$GNGGA,031530.455,3112.7187,N,12136.4359,E,1,05,2.3,51.8,M,,,,0000*2D
$GNRMC,031530.455,A,3112.7187,N,12136.4359,E,0.18,0.00,220519,,*1D
$GPGSA,A,3,07,08,09,16,27,,,,,,,,3.7,2.3,2.9*38
$BDGSA,A,3,,,,,,,,,,,,,3.7,2.3,2.9*2D
$GPGSV,2,1,07,04,00,000,38,07,00,000,48,08,00,000,49,09,00,000,48*79
$GPGSV,2,2,07,16,00,000,41,21,00,000,26,27,00,000,46*4C
$BDGSV,1,1,04,07,00,000,34,10,00,000,40,27,00,000,34,28,00,000,45*60
$LOGTIM,1,9595998.906846,0.000000,0.000000,0.000000,-64.621*1C
EndT:        1
---00000037--- Acq_st=7 2019-5-22 03:15:30 
[00]  G04  f 39   -479.5 2046000.6  1.0  1.0  5 3f 270948377
[01]  G07  f 48  -3334.7 2046004.3  1.0  1.0  5  0 270948379
[02]  G08  f 49   -772.6 2046001.0  1.0  1.0  5  0 270948386
[03]  G09  f 48    655.3 2045999.1  1.0  1.0  5  0 270948378
[04]  G16  f 41   1312.3 2045998.3  1.0  1.0  5  0 270948381
[05]  G21  7 26   2363.1 2045996.9 -0.9 -0.0 10  0         7
[06]  G27  f 46   1451.8 2045998.1  1.0  1.0  5  0 270948385
[16]  B07 1f 34   -644.6 4092001.7  1.0  1.0  5  0 270934333
[17]  B10 1f 40   -721.4 4092001.9  1.0  1.0  5  0 270934330
[18]  B27 1f 34   -521.6 4092001.5  1.0  1.0  5  0 270934382
[19]  B28 1f 46   2185.7 4091994.3  1.0  1.0  5  0 270934375
lsq: nits= 2
$GNGGA,031532.000,3112.7191,N,12136.4369,E,1,05,2.3,51.9,M,,,,0000*2E
$GNRMC,031532.000,A,3112.7191,N,12136.4369,E,0.33,0.00,220519,,*16
$GPGSA,A,3,07,08,09,16,27,,,,,,,,3.7,2.3,2.9*38
$BDGSA,A,3,,,,,,,,,,,,,3.7,2.3,2.9*2D
$GPGSV,2,1,07,04,00,000,39,07,00,000,48,08,00,000,49,09,00,000,48*78
$GPGSV,2,2,07,16,00,000,41,21,00,000,26,27,00,000,46*4C
$BDGSV,1,1,04,07,00,000,34,10,00,000,40,27,00,000,34,28,00,000,46*63
$LOGTIM,1,-100.097486,0.000000,0.000000,0.000000,-64.083*37
EndT:        2
---00000038--- Acq_st=3 2019-5-22 03:15:32 
[00]  G04  f 38   -477.2 2046000.6  1.0  1.0  5 3f 270949922
[01]  G07  f 48  -3333.3 2046004.3  1.0  1.0  5  0 270949924
[02]  G08  f 49   -770.8 2046001.0  1.0  1.0  5  0 270949932
[03]  G09  f 48    656.8 2045999.2  1.0  1.0  5  0 270949924
[04]  G16  f 41   1314.0 2045998.3  1.0  1.0  5  0 270949926
[05]  G21  7 26   2364.9 2045996.9 -0.9  0.0 10  0        12
[06]  G27  f 46   1453.5 2045998.1  1.0  1.0  5  0 270949931
[16]  B07 1f 34   -642.4 4092001.7  1.0  1.0  5  0 270935879
[17]  B10 1f 40   -719.8 4092001.9  1.0  1.0  5  0 270935875
[18]  B27 1f 34   -520.1 4092001.4  1.0  0.9  5  0 270935928
[19]  B28 1f 46   2186.8 4091994.3  1.0  1.0  5  0 270935920
lsq: nits= 2
$GNGGA,031533.000,3112.7192,N,12136.4383,E,1,05,2.3,50.5,M,,,,0000*25
$GNRMC,031533.000,A,3112.7192,N,12136.4383,E,0.14,0.00,220519,,*15
$GPGSA,A,3,07,08,09,16,27,,,,,,,,3.7,2.3,2.9*38
$BDGSA,A,3,,,,,,,,,,,,,3.7,2.3,2.9*2D
$GPGSV,2,1,07,04,00,000,38,07,35,317,48,08,72,268,49,09,29,266,48*7A
$GPGSV,2,2,07,16,39,057,41,21,00,000,26,27,61,026,46*47
$BDGSV,1,1,04,07,67,011,34,10,00,000,40,27,00,000,34,28,00,000,46*62
$LOGTIM,1,-166.212677,0.000000,0.000000,0.000000,-64.294*30
EndT:        2
---00000039--- Acq_st=3 2019-5-22 03:15:33 
[00]  G04  f 38   -479.2 2046000.6  1.0  1.0  5 3f 270950922
[01]  G07  f 48  -3335.2 2046004.3  1.0  1.0  5  0 270950924
[02]  G08  f 49   -772.7 2046001.0  1.0  1.0  5  0 270950932
[03]  G09  f 47    654.5 2045999.1  1.0  1.0  5  0 270950924
[04]  G16  f 41   1311.0 2045998.3  1.0  1.0  5  0 270950926
[05]  G21  7 26   2361.0 2045996.9 -0.9  0.0 10  0        12
[06]  G27  f 46   1451.2 2045998.1  1.0  1.0  5  0 270950931
[16]  B07 1f 34   -645.6 4092001.7  1.0  1.0  5  0 270936879
[17]  B10 1f 40   -722.7 4092001.9  1.0  1.0  5  0 270936875
[18]  B27 1f 34   -522.7 4092001.4  1.0  1.0  5  0 270936928
[19]  B28 1f 45   2184.9 4091994.3  1.0  1.0  5  0 270936920
lsq: nits= 2
$GNGGA,031534.000,3112.7191,N,12136.4381,E,1,05,2.3,50.2,M,,,,0000*24
$GNRMC,031534.000,A,3112.7191,N,12136.4381,E,0.09,0.00,220519,,*1F
$GPGSA,A,3,07,08,09,16,27,,,,,,,,3.7,2.3,2.9*38
$BDGSA,A,3,,,,,,,,,,,,,3.7,2.3,2.9*2D
$GPGSV,2,1,07,04,00,000,38,07,35,317,48,08,72,268,49,09,29,266,47*75
$GPGSV,2,2,07,16,39,057,41,21,00,000,26,27,61,026,46*47
$BDGSV,1,1,04,07,67,011,34,10,00,000,40,27,00,000,34,28,00,000,45*61
$LOGTIM,1,-230.592824,0.000000,0.000000,0.000000,-64.499*3C
EndT:        2
---00000040--- Acq_st=3 2019-5-22 03:15:34 
[00]  G04  f 38   -479.1 2046000.6  1.0  1.0  5 3f 270951922
[01]  G07  f 48  -3335.9 2046004.3  1.0  1.0  5  0 270951924
[02]  G08  f 49   -773.1 2046001.0  1.0  1.0  5  0 270951932
[03]  G09  f 48    654.6 2045999.1  1.0  1.0  5  0 270951924
[04]  G16  f 41   1310.6 2045998.3  1.0  1.0  5  0 270951926
[05]  G21  7 26   2360.7 2045997.0 -1.0 -0.0 10  0        12
[06]  G27  f 46   1451.0 2045998.1  1.0  1.0  5  0 270951931
[16]  B07 1f 34   -646.3 4092001.8  1.0  1.0  5  0 270937879
[17]  B10 1f 40   -722.9 4092001.9  1.0  1.0  5  0 270937875
[18]  B27 1f 34   -522.2 4092001.4  1.0  1.0  5  0 270937928
[19]  B28 1f 46   2184.7 4091994.3  1.0  1.0  5  0 270937920
lsq: nits= 2
$GNGGA,031535.000,3112.7190,N,12136.4381,E,1,05,2.3,50.4,M,,,,0000*22
$GNRMC,031535.000,A,3112.7190,N,12136.4381,E,0.10,0.00,220519,,*17
$GPGSA,A,3,07,08,09,16,27,,,,,,,,3.7,2.3,2.9*38
$BDGSA,A,3,,,,,,,,,,,,,3.7,2.3,2.9*2D
$GPGSV,2,1,07,04,00,000,38,07,35,317,48,08,72,268,49,09,29,266,48*7A
$GPGSV,2,2,07,16,39,057,41,21,00,000,26,27,61,026,46*47
$BDGSV,1,1,04,07,67,011,34,10,00,000,40,27,00,000,34,28,00,000,46*62
$LOGTIM,1,-295.215590,0.000000,0.000000,0.000000,-64.597*36
EndT:        2
---00000041--- Acq_st=3 2019-5-22 03:15:35 
[00]  G04  f 39   -480.0 2046000.6  1.0  1.0  5 3f 270952922
[01]  G07  f 48  -3337.5 2046004.3  1.0  1.0  5  0 270952924
[02]  G08  f 48   -774.0 2046001.0  1.0  1.0  5  0 270952932
[03]  G09  f 47    653.9 2045999.1  1.0  1.0  5  0 270952924
[04]  G16  f 41   1309.2 2045998.3  1.0  1.0  5  0 270952926
[05]  G21  7 26   2359.8 2045997.0 -1.0 -0.0 10  0        12
[06]  G27  f 46   1449.8 2045998.1  1.0  1.0  5  0 270952931
[16]  B07 1f 34   -646.5 4092001.7  1.0  1.0  5  0 270938879
[17]  B10 1f 40   -724.7 4092001.9  1.0  1.0  5  0 270938875
[18]  B27 1f 34   -523.5 4092001.5  1.0  1.0  5  0 270938928
[19]  B28 1f 45   2183.4 4091994.3  1.0  1.0  5  0 270938920
lsq: nits= 2
$GNGGA,031536.000,3112.7190,N,12136.4384,E,1,05,2.3,50.9,M,,,,0000*29
$GNRMC,031536.000,A,3112.7190,N,12136.4384,E,0.09,0.00,220519,,*19
$GPGSA,A,3,07,08,09,16,27,,,,,,,,3.7,2.3,2.9*38
$BDGSA,A,3,,,,,,,,,,,,,3.7,2.3,2.9*2D
$GPGSV,2,1,07,04,00,000,39,07,35,317,48,08,72,268,48,09,29,266,47*75
$GPGSV,2,2,07,16,39,057,41,21,00,000,26,27,61,026,46*47
$BDGSV,1,1,04,07,67,011,34,10,00,000,40,27,00,000,34,28,00,000,45*61
$LOGTIM,1,-360.272056,0.000000,0.000000,0.000000,-64.663*3B
EndT:        2
---00000042--- Acq_st=3 2019-5-22 03:15:36 
[00]  G04  f 38   -479.0 2046000.6  1.0  1.0  5 3f 270953922
[01]  G07  f 48  -3336.1 2046004.3  1.0  1.0  5  0 270953924
[02]  G08  f 48   -772.5 2046001.0  1.0  1.0  5  0 270953932
[03]  G09  f 48    655.0 2045999.1  1.0  1.0  5  0 270953924
[04]  G16  f 40   1310.4 2045998.3  1.0  1.0  5  0 270953926
[05]  G21  7 26   2360.8 2045996.9 -1.0  0.0 10  0        12
[06]  G27  f 45   1451.3 2045998.1  1.0  1.0  5  0 270953931
[07]  G30  1 15  -3771.4 2046006.1 -0.0  0.0  1  0         1
[16]  B07 1f 34   -646.1 4092001.7  1.0  1.0  5  0 270939879
[17]  B10 1f 40   -724.0 4092001.9  1.0  1.0  5  0 270939875
[18]  B27 1f 35   -521.6 4092001.4  1.0  1.0  5  0 270939928
[19]  B28 1f 45   2184.6 4091994.3  1.0  1.0  5  0 270939920
lsq: nits= 2
$GNGGA,031537.000,3112.7188,N,12136.4385,E,1,05,2.3,51.4,M,,,,0000*2C
$GNRMC,031537.000,A,3112.7188,N,12136.4385,E,0.14,0.00,220519,,*1C
$GPGSA,A,3,07,08,09,16,27,,,,,,,,3.7,2.3,2.9*38
$BDGSA,A,3,,,,,,,,,,,,,3.7,2.3,2.9*2D
$GPGSV,2,1,07,04,00,000,38,07,35,317,48,08,72,268,48,09,29,266,48*7B
$GPGSV,2,2,07,16,39,057,40,21,00,000,26,27,61,026,45*45
$BDGSV,1,1,04,07,67,011,34,10,00,000,40,27,00,000,35,28,00,000,45*60
$LOGTIM,1,-425.486451,0.000000,0.000000,0.000000,-64.511*35
EndT:        2
---00000043--- Acq_st=3 2019-5-22 03:15:37 
[00]  G04  f 38   -475.9 2046000.6  1.0  0.9  5 3f 270954922
[01]  G07  f 48  -3333.4 2046004.3  1.0  1.0  5  0 270954924
[02]  G08  f 48   -769.6 2046001.0  1.0  1.0  5  0 270954932
[03]  G09  f 48    658.1 2045999.1  1.0  1.0  5  0 270954924
[04]  G16  f 41   1312.9 2045998.3  1.0  1.0  5  0 270954926
[05]  G21  7 26   2363.0 2045996.8 -1.0 -0.0 10  0        12
[06]  G27  f 46   1453.8 2045998.1  1.0  1.0  5  0 270954931
[16]  B07 1f 34   -644.6 4092001.7  1.0  1.0  5  0 270940879
[17]  B10 1f 40   -722.1 4092001.9  1.0  1.0  5  0 270940875
[18]  B27 1f 35   -519.9 4092001.3  1.0  1.0  5  0 270940928
[19]  B28 1f 46   2186.8 4091994.2  1.0  1.0  5  0 270940920
lsq: nits= 2
$GNGGA,031538.000,3112.7181,N,12136.4386,E,1,05,2.3,51.0,M,,,,0000*2D
$GNRMC,031538.000,A,3112.7181,N,12136.4386,E,0.37,0.00,220519,,*18
$GPGSA,A,3,07,08,09,16,27,,,,,,,,3.7,2.3,2.9*38
$BDGSA,A,3,,,,,,,,,,,,,3.7,2.3,2.9*2D
$GPGSV,2,1,07,04,00,000,38,07,35,317,48,08,72,268,48,09,29,266,48*7B
$GPGSV,2,2,07,16,39,057,41,21,00,000,26,27,61,026,46*47
$BDGSV,1,1,04,07,67,011,34,10,00,000,40,27,00,000,35,28,00,000,46*63
$LOGTIM,1,-490.852422,0.000000,0.000000,0.000000,-64.225*3A
EndT:        2
---00000044--- Acq_st=3 2019-5-22 03:15:38 
[00]  G04  f 38   -473.3 2046000.6  1.0  1.0  5 3f 270955922
[01]  G07  f 48  -3331.1 2046004.3  1.0  1.0  5  0 270955924
[02]  G08  f 48   -767.0 2046001.0  1.0  1.0  5  0 270955932
[03]  G09  f 47    660.4 2045999.1  1.0  1.0  5  0 270955924
[04]  G16  f 41   1314.8 2045998.3  1.0  1.0  5  0 270955926
[05]  G21  7 26   2365.5 2045996.9 -0.9 -0.0 10  0        12
[06]  G27  f 47   1456.4 2045998.1  1.0  1.0  5  0 270955931
[16]  B07 1f 34   -642.1 4092001.7  1.0  1.1  5  0 270941879
[17]  B10 1f 40   -719.3 4092001.9  1.0  1.0  5  0 270941875
[18]  B27 1f 35   -516.9 4092001.3  1.0  1.0  5  0 270941928
[19]  B28 1f 45   2189.4 4091994.3  1.0  1.0  5  0 270941920
lsq: nits= 2
$GNGGA,031539.000,3112.7173,N,12136.4387,E,1,05,2.3,50.4,M,,,,0000*25
$GNRMC,031539.000,A,3112.7173,N,12136.4387,E,0.39,0.00,220519,,*1B
$GPGSA,A,3,07,08,09,16,27,,,,,,,,3.7,2.3,2.9*38
$BDGSA,A,3,,,,,,,,,,,,,3.7,2.3,2.9*2D
$GPGSV,2,1,07,04,00,000,38,07,35,317,48,08,72,268,48,09,29,266,47*74
$GPGSV,2,2,07,16,39,057,41,21,00,000,26,27,61,026,47*46
$BDGSV,1,1,04,07,67,011,34,10,00,000,40,27,00,000,35,28,00,000,45*60
$LOGTIM,1,-556.156746,0.000000,0.000000,0.000000,-64.163*3C
EndT:        2
---00000045--- Acq_st=3 2019-5-22 03:15:39 
[00]  G04  f 38   -474.1 2046000.6  1.0  1.0  5 3f 270956922
[01]  G07  f 48  -3332.6 2046004.3  1.0  1.0  5  0 270956924
[02]  G08  f 48   -768.1 2046001.0  1.0  1.0  5  0 270956932
[03]  G09  f 47    659.7 2045999.2  1.0  1.0  5  0 270956924
[04]  G16  f 41   1313.5 2045998.3  1.0  1.0  5  0 270956926
[05]  G21  7 26   2365.6 2045996.9 -0.9 -0.1 10  0        12
[06]  G27  f 47   1455.3 2045998.1  1.0  1.0  5  0 270956931
[16]  B07 1f 34   -642.9 4092001.7  1.0  1.0  5  0 270942879
[17]  B10 1f 40   -721.1 4092001.9  1.0  1.0  5  0 270942875
[18]  B27 1f 35   -516.9 4092001.4  1.0  1.0  5  0 270942928
[19]  B28 1f 45   2188.2 4091994.2  1.0  1.0  5  0 270942920
lsq: nits= 2
$GNGGA,031540.000,3112.7165,N,12136.4387,E,1,05,2.3,49.8,M,,,,0000*28
$GNRMC,031540.000,A,3112.7165,N,12136.4387,E,0.47,0.00,220519,,*1B
$GPGSA,A,3,07,08,09,16,27,,,,,,,,3.7,2.3,2.9*38
$BDGSA,A,3,,,,,,,,,,,,,3.7,2.3,2.9*2D
$GPGSV,2,1,07,04,00,000,38,07,35,317,48,08,72,268,48,09,29,266,47*74
$GPGSV,2,2,07,16,39,057,41,21,00,000,26,27,61,026,47*46
$BDGSV,1,1,04,07,67,011,34,10,00,000,40,27,00,000,35,28,00,000,45*60
$LOGTIM,1,-621.083023,0.000000,0.000000,0.000000,-64.048*3A
EndT:        2
---00000046--- Acq_st=3 2019-5-22 03:15:40 
[00]  G04  f 39   -471.4 2046000.6  1.0  1.0  5 3f 270957922
[01]  G07  f 48  -3330.3 2046004.3  1.0  1.0  5  0 270957924
[02]  G08  f 48   -765.5 2046001.0  1.0  1.0  5  0 270957932
[03]  G09  f 48    661.8 2045999.1  1.0  1.0  5  0 270957924
[04]  G16  f 41   1315.8 2045998.3  1.0  1.0  5  0 270957926
[05]  G21  7 26   2367.5 2045996.9 -1.0 -0.0 10  0        12
[06]  G27  f 47   1457.6 2045998.1  1.0  1.0  5  0 270957931
[16]  B07 1f 34   -642.0 4092001.6  1.0  1.0  5  0 270943879
[17]  B10 1f 40   -719.7 4092001.9  1.0  1.0  5  0 270943875
[18]  B27 1f 36   -515.8 4092001.2  1.0  1.0  5  0 270943928
[19]  B28 1f 45   2190.1 4091994.3  1.0  1.0  5  0 270943920
lsq: nits= 2
$GNGGA,031541.000,3112.7156,N,12136.4386,E,1,05,2.3,49.3,M,,,,0000*23
$GNRMC,031541.000,A,3112.7156,N,12136.4386,E,0.56,0.00,220519,,*1B
$GPGSA,A,3,07,08,09,16,27,,,,,,,,3.7,2.3,2.9*38
$BDGSA,A,3,,,,,,,,,,,,,3.7,2.3,2.9*2D
$GPGSV,2,1,07,04,00,000,39,07,35,317,48,08,72,268,48,09,29,266,48*7A
$GPGSV,2,2,07,16,39,057,41,21,00,000,26,27,61,026,47*46
$BDGSV,1,1,04,07,67,011,34,10,00,000,40,27,00,000,36,28,00,000,45*63
$LOGTIM,1,-685.507486,0.000000,0.000000,0.000000,-63.878*3A
EndT:        2
---00000047--- Acq_st=3 2019-5-22 03:15:41 
[00]  G04  f 38   -469.8 2046000.6  1.0  1.0  5 3f 270958922
[01]  G07  f 47  -3328.9 2046004.3  1.0  1.0  5  0 270958924
[02]  G08  f 47   -764.0 2046001.0  1.0  1.0  5  0 270958932
[03]  G09  f 47    663.8 2045999.1  1.0  1.0  5  0 270958924
[04]  G16  f 41   1316.8 2045998.3  1.0  1.0  5  0 270958926
[05]  G21  7 26   2369.0 2045996.8 -1.0 -0.0 10  0        12
[06]  G27  f 47   1459.3 2045998.1  1.0  1.0  5  0 270958931
[16]  B07 1f 34   -641.3 4092001.7  1.0  0.9  5  0 270944879
[17]  B10 1f 40   -718.7 4092001.9  1.0  1.0  5  0 270944875
[18]  B27 1f 36   -513.4 4092001.3  1.0  1.0  5  0 270944928
[19]  B28 1f 45   2191.7 4091994.2  1.0  1.0  5  0 270944920
lsq: nits= 2
$GNGGA,031542.000,3112.7148,N,12136.4384,E,1,05,2.3,49.0,M,,,,0000*2E
$GNRMC,031542.000,A,3112.7148,N,12136.4384,E,0.42,0.00,220519,,*10
$GPGSA,A,3,07,08,09,16,27,,,,,,,,3.7,2.3,2.9*38
$BDGSA,A,3,,,,,,,,,,,,,3.7,2.3,2.9*2D
$GPGSV,2,1,07,04,00,000,38,07,35,317,47,08,72,268,47,09,29,266,47*74
$GPGSV,2,2,07,16,39,057,41,21,00,000,26,27,61,026,47*46
$BDGSV,1,1,04,07,67,011,34,10,00,000,40,27,00,000,36,28,00,000,45*63
$LOGTIM,1,-749.576653,0.000000,0.000000,0.000000,-63.852*3F
EndT:        2
---00000048--- Acq_st=3 2019-5-22 03:15:42 
[00]  G04  f 37   -471.0 2046000.6  1.0  0.9  5 3f 270959922
[01]  G07  f 48  -3330.8 2046004.3  1.0  1.0  5  0 270959924
[02]  G08  f 48   -765.3 2046001.0  1.0  1.0  5  0 270959932
[03]  G09  f 48    662.6 2045999.2  1.0  1.0  5  0 270959924
[04]  G16  f 40   1315.0 2045998.3  1.0  1.0  5  0 270959926
[05]  G21  7 26   2367.2 2045996.9 -0.9  0.0 10  0        12
[06]  G27  f 48   1457.8 2045998.1  1.0  1.0  5  0 270959931
[16]  B07 1f 34   -643.1 4092001.7  1.0  0.9  5  0 270945879
[17]  B10 1f 40   -720.5 4092001.9  1.0  1.0  5  0 270945875
[18]  B27 1f 36   -515.6 4092001.3  1.0  1.0  5  0 270945928
[19]  B28 1f 45   2189.9 4091994.2  1.0  1.0  5  0 270945920
lsq: nits= 2
$GNGGA,031543.000,3112.7141,N,12136.4380,E,1,05,2.3,48.6,M,,,,0000*25
$GNRMC,031543.000,A,3112.7141,N,12136.4380,E,0.12,0.00,220519,,*19
$GPGSA,A,3,07,08,09,16,27,,,,,,,,3.7,2.3,2.9*38
$BDGSA,A,3,,,,,,,,,,,,,3.7,2.3,2.9*2D
$GPGSV,2,1,07,04,00,000,37,07,35,317,48,08,72,268,48,09,29,266,48*74
$GPGSV,2,2,07,16,39,057,40,21,00,000,26,27,61,026,48*48
$BDGSV,1,1,04,07,67,011,34,10,00,000,40,27,00,000,36,28,00,000,45*63
$LOGTIM,1,-813.925258,0.000000,0.000000,0.000000,-64.304*35
EndT:        2
---00000049--- Acq_st=3 2019-5-22 03:15:43 
[00]  G04  f 37   -473.1 2046000.6  1.0  0.9  5 3f 270960922
[01]  G07  f 48  -3333.3 2046004.3  1.0  1.0  5  0 270960924
[02]  G08  f 48   -767.7 2046001.0  1.0  1.0  5  0 270960932
[03]  G09  f 48    659.9 2045999.1  1.0  1.0  5  0 270960924
[04]  G16  f 41   1312.0 2045998.3  1.0  1.0  5  0 270960926
[05]  G21  7 26   2364.7 2045996.9 -0.9  0.0 10  0        12
[06]  G27  f 48   1455.1 2045998.1  1.0  1.0  5  0 270960931
[16]  B07 1f 33   -645.4 4092001.7  1.0  0.9  5  0 270946879
[17]  B10 1f 40   -723.5 4092001.9  1.0  1.0  5  0 270946875
[18]  B27 1f 36   -517.8 4092001.4  1.0  1.0  5  0 270946928
[19]  B28 1f 45   2187.2 4091994.2  1.0  1.0  5  0 270946920
lsq: nits= 2
$GNGGA,031544.000,3112.7134,N,12136.4376,E,1,05,2.3,48.4,M,,,,0000*2B
$GNRMC,031544.000,A,3112.7134,N,12136.4376,E,0.13,0.00,220519,,*14
$GPGSA,A,3,07,08,09,16,27,,,,,,,,3.7,2.3,2.9*38
$BDGSA,A,3,,,,,,,,,,,,,3.7,2.3,2.9*2D
$GPGSV,2,1,07,04,00,000,37,07,35,317,48,08,72,268,48,09,29,266,48*74
$GPGSV,2,2,07,16,39,057,41,21,00,000,26,27,61,026,48*49
$BDGSV,1,1,04,07,67,011,33,10,00,000,40,27,00,000,36,28,00,000,45*64
$LOGTIM,1,-878.332196,0.000000,0.000000,0.000000,-64.382*3B
EndT:        2
---00000050--- Acq_st=3 2019-5-22 03:15:44 
[00]  G04  f 37   -472.4 2046000.6  1.0  1.0  5 3f 270961922
[01]  G07  f 48  -3332.0 2046004.3  1.0  1.0  5  0 270961924
[02]  G08  f 48   -766.1 2046001.0  1.0  1.0  5  0 270961932
[03]  G09  f 48    661.7 2045999.1  1.0  1.0  5  0 270961924
[04]  G16  f 41   1313.2 2045998.2  1.0  1.0  5  0 270961926
[05]  G21  7 26   2366.1 2045996.9 -1.0  0.0 10  0        12
[06]  G27  f 48   1456.6 2045998.1  1.0  1.0  5  0 270961931
[16]  B07 1f 34   -644.4 4092001.7  1.0  0.9  5  0 270947879
[17]  B10 1f 40   -721.9 4092001.8  1.0  1.0  5  0 270947875
[18]  B27 1f 36   -516.9 4092001.3  1.0  1.0  5  0 270947928
[19]  B28 1f 46   2188.6 4091994.3  1.0  1.0  5  0 270947920
lsq: nits= 2
$GNGGA,031545.000,3112.7130,N,12136.4370,E,1,09,2.3,48.7,M,,,,0000*27
$GNRMC,031545.000,A,3112.7130,N,12136.4370,E,0.10,0.00,220519,,*14
$GPGSA,A,3,07,08,09,16,27,,,,,,,,3.7,2.3,2.9*38
$BDGSA,A,3,07,10,27,28,,,,,,,,,3.7,2.3,2.9*24
$GPGSV,2,1,07,04,00,000,37,07,35,317,48,08,72,268,48,09,29,266,48*74
$GPGSV,2,2,07,16,39,057,41,21,00,000,26,27,61,026,48*49
$BDGSV,1,1,04,07,67,011,34,10,00,000,40,27,00,000,36,28,00,000,46*60
$LOGTIM,3,-942.173356,-1202.596121,0.000000,0.000000,-64.326*22
EndT:        3
---00000051--- Acq_st=3 2019-5-22 03:15:45 
[00]  G04  f 37   -473.0 2046000.6  1.0  1.0  5 3f 270962922
[01]  G07  f 48  -3333.5 2046004.3  1.0  1.0  5  0 270962924
[02]  G08  f 48   -767.5 2046001.0  1.0  1.0  5  0 270962932
[03]  G09  f 48    660.4 2045999.1  1.0  1.0  5  0 270962924
[04]  G16  f 41   1311.9 2045998.3  1.0  1.0  5  0 270962926
[05]  G21  7 26   2364.3 2045996.8 -0.9  0.0 10  0        12
[06]  G27  f 48   1455.4 2045998.1  1.0  1.0  5  0 270962931
[16]  B07 1f 34   -645.3 4092001.8  1.0  1.0  5  0 270948879
[17]  B10 1f 40   -724.0 4092001.8  1.0  1.0  5  0 270948875
[18]  B27 1f 36   -517.8 4092001.3  1.0  1.0  5  0 270948928
[19]  B28 1f 45   2187.2 4091994.3  1.0  1.0  5  0 270948920
lsq: nits= 2
$GNGGA,031546.000,3112.7113,N,12136.4371,E,1,08,1.6,43.7,M,,,,0000*28
$GNRMC,031546.000,A,3112.7113,N,12136.4371,E,0.50,0.00,220519,,*13
$GPGSA,A,3,07,08,09,16,27,,,,,,,,1.7,1.6,0.7*30
$BDGSA,A,3,07,10,27,,,,,,,,,,1.7,1.6,0.7*26
$GPGSV,2,1,07,04,00,000,37,07,35,317,48,08,72,268,48,09,29,266,48*74
$GPGSV,2,2,07,16,39,057,41,21,00,000,26,27,61,026,48*49
$BDGSV,1,1,04,07,67,011,34,10,52,318,40,27,85,136,36,28,34,042,45*66
$LOGTIM,3,-1010.372354,-1209.796097,0.000000,0.000000,-64.457*18
EndT:        3
---00000052--- Acq_st=3 2019-5-22 03:15:46 
[00]  G04  f 37   -476.2 2046000.7  1.0  1.0  5 3f 270963922
[01]  G07  f 48  -3336.9 2046004.3  1.0  1.0  5  0 270963924
[02]  G08  f 47   -770.6 2046001.0  1.0  1.0  5  0 270963932
[03]  G09  f 48    657.1 2045999.2  1.0  1.0  5  0 270963924
[04]  G16  f 42   1308.2 2045998.3  1.0  1.0  5  0 270963926
[05]  G21  7 26   2359.7 2045996.9 -0.9 -0.0 10  0        12
[06]  G27  f 48   1452.1 2045998.1  1.0  1.0  5  0 270963931
[16]  B07 1f 34   -649.6 4092001.7  1.0  0.9  5  0 270949879
[17]  B10 1f 40   -727.5 4092001.9  1.0  1.0  5  0 270949875
[18]  B27 1f 36   -520.5 4092001.3  1.0  1.0  5  0 270949928
[19]  B28 1f 45   2183.8 4091994.2  1.0  1.0  5  0 270949920
lsq: nits= 2
$GNGGA,031547.000,3112.7106,N,12136.4353,E,1,09,1.5,48.0,M,,,,0000*23
$GNRMC,031547.000,A,3112.7106,N,12136.4353,E,0.95,0.00,220519,,*1F
$GPGSA,A,3,07,08,09,16,27,,,,,,,,1.6,1.5,0.7*32
$BDGSA,A,3,07,10,27,28,,,,,,,,,1.6,1.5,0.7*2E
$GPGSV,2,1,07,04,00,000,37,07,35,317,48,08,72,268,47,09,29,266,48*7B
$GPGSV,2,2,07,16,39,057,42,21,00,000,26,27,61,026,48*4A
$BDGSV,1,1,04,07,67,011,34,10,52,318,40,27,85,136,36,28,34,042,45*66
$LOGTIM,3,-1071.973652,-1236.326201,0.000000,0.000000,-64.512*19
EndT:        3
---00000053--- Acq_st=7 2019-5-22 03:15:47 
[00]  G04  f 37   -475.9 2046000.6  1.0  1.0  5 3f 270964922
[01]  G07  f 48  -3338.1 2046004.3  1.0  1.0  5  0 270964924
[02]  G08  f 48   -771.3 2046001.0  1.0  1.0  5  0 270964932
[03]  G09  f 48    656.6 2045999.2  1.0  1.0  5  0 270964924
[04]  G16  f 41   1307.0 2045998.3  1.0  1.0  5  0 270964926
[05]  G21  7 26   2358.8 2045996.9 -0.9  0.0 10  0        12
[06]  G27  f 48   1451.1 2045998.1  1.0  1.0  5  0 270964931
[16]  B07 1f 34   -650.3 4092001.7  1.0  0.9  5  0 270950879
[17]  B10 1f 40   -729.3 4092001.9  1.0  1.0  5  0 270950875
[18]  B27 1f 36   -520.3 4092001.4  1.0  1.0  5  0 270950928
[19]  B28 1f 45   2182.9 4091994.3  1.0  1.0  5  0 270950920
lsq: nits= 2
$GNGGA,031548.000,3112.7109,N,12136.4347,E,1,09,1.5,49.5,M,,,,0000*22
$GNRMC,031548.000,A,3112.7109,N,12136.4347,E,0.79,0.00,220519,,*18
$GPGSA,A,3,07,08,09,16,27,,,,,,,,1.6,1.5,0.7*32
$BDGSA,A,3,07,10,27,28,,,,,,,,,1.6,1.5,0.7*2E
$GPGSV,2,1,07,04,00,000,37,07,35,317,48,08,72,268,48,09,29,266,48*74
$GPGSV,2,2,07,16,39,057,41,21,00,000,26,27,61,026,48*49
$BDGSV,1,1,04,07,67,011,34,10,52,318,40,27,85,136,36,28,34,042,45*66
$LOGTIM,3,-1136.219611,-1299.238275,0.000000,0.000000,-64.584*1C
EndT:        3
---00000054--- Acq_st=7 2019-5-22 03:15:48 
[00]  G04  f 37   -476.2 2046000.6  1.0  0.9  5 3f 270965922
[01]  G07  f 48  -3337.3 2046004.4  1.0  1.0  5  0 270965924
[02]  G08  f 48   -770.8 2046001.0  1.0  1.0  5  0 270965932
[03]  G09  f 47    657.0 2045999.2  1.0  1.0  5  0 270965924
[04]  G16  f 40   1307.3 2045998.3  1.0  1.0  5  0 270965926
