FlashID=0x1 0x20 0x18
BBram_blkflag1: 2c94: d36b
FW Ver: 1.30  
GPS00 Init Dop:   5000, 40
GPS01 Init Dop:   5000, 40
GPS02 Init Dop:   5000, 40
GPS03 Init Dop:   5000, 40
GPS04 Init Dop:   5000, 40
GPS05 Init Dop:   5000, 40
GPS06 Init Dop:   5000, 40
GPS07 Init Dop:   5000, 40
GPS08 Init Dop:   5000, 40
GPS09 Init Dop:   5000, 40
GPS10 Init Dop:   5000, 40
GPS11 Init Dop:   5000, 40
GPS12 Init Dop:   5000, 40
GPS13 Init Dop:   5000, 40
GPS14 Init Dop:   5000, 40
GPS15 Init Dop:   5000, 40
GPS16 Init Dop:   5000, 40
GPS17 Init Dop:   5000, 40
GPS18 Init Dop:   5000, 40
GPS19 Init Dop:   5000, 40
GPS20 Init Dop:   5000, 40
GPS21 Init Dop:   5000, 40
GPS22 Init Dop:   5000, 40
GPS23 Init Dop:   5000, 40
GPS24 Init Dop:   5000, 40
GPS25 Init Dop:   5000, 40
GPS26 Init Dop:   5000, 40
GPS27 Init Dop:   5000, 40
GPS28 Init Dop:   5000, 40
GPS29 Init Dop:   5000, 40
GPS30 Init Dop:   5000, 40
GPS31 Init Dop:   5000, 40
BDS00 Init Dop:   5000, 40
BDS01 Init Dop:   5000, 40
BDS02 Init Dop:   5000, 40
BDS03 Init Dop:   5000, 40
BDS04 Init Dop:   5000, 40
BDS05 Init Dop:   5000, 40
BDS06 Init Dop:   5000, 40
BDS07 Init Dop:   5000, 40
BDS08 Init Dop:   5000, 40
BDS09 Init Dop:   5000, 40
BDS10 Init Dop:   5000, 40
BDS11 Init Dop:   5000, 40
BDS12 Init Dop:   5000, 40
BDS13 Init Dop:   5000, 40
BDS14 Init Dop:   5000, 40
BDS15 Init Dop:   5000, 40
BDS16 Init Dop:   5000, 40
BDS17 Init Dop:   5000, 40
BDS18 Init Dop:   5000, 40
BDS19 Init Dop:   5000, 40
BDS20 Init Dop:   5000, 40
BDS21 Init Dop:   5000, 40
BDS22 Init Dop:   5000, 40
BDS23 Init Dop:   5000, 40
BDS24 Init Dop:   5000, 40
BDS25 Init Dop:   5000, 40
BDS26 Init Dop:   5000, 40
BDS27 Init Dop:   5000, 40
BDS28 Init Dop:   5000, 40
BDS29 Init Dop:   5000, 40
BDS30 Init Dop:   5000, 40
BDS31 Init Dop:   5000, 40
good luck!
---00000001--- Acq_st=3 2019-5-22 06:22:48 
[00]  G01  1 22    551.1 2046000.9  0.0  0.0  1  0         0
$GNGGA,000000.000,,,,,0,00,,,M,,,,0000*2B
$GNRMC,000000.000,A,,,,,,,000000,,*26
$GPGSA,A,1,,,,,,,,,,,,,,,*1E
$BDGSA,A,1,,,,,,,,,,,,,,,*0F
$LOGTIM,0,0.000000,0.000000,0.000000,0.000000,0.000*0A
EndT:        0
---00000002--- Acq_st=3 2019-5-22 06:22:49 
[00]  G01  7 27    570.5 2045999.1  0.2  0.9 10  0         5
$GNGGA,000000.000,,,,,0,00,,,M,,,,0000*2B
$GNRMC,000000.000,A,,,,,,,000000,,*26
$GPGSA,A,1,,,,,,,,,,,,,,,*1E
$BDGSA,A,1,,,,,,,,,,,,,,,*0F
$GPGSV,1,1,01,01,00,000,27*4C
$LOGTIM,0,0.000000,0.000000,0.000000,0.000000,0.000*0A
EndT:        0
---00000003--- Acq_st=3 2019-5-22 06:22:50 
[00]  G01  7 35    570.7 2045999.1  0.9  1.0  5  0        13
[01]  G11  1 28   1056.9 2045999.0  0.0  0.0  1  0         0
$GNGGA,000000.000,,,,,0,00,,,M,,,,0000*2B
$GNRMC,000000.000,A,,,,,,,000000,,*26
$GPGSA,A,1,,,,,,,,,,,,,,,*1E
$BDGSA,A,1,,,,,,,,,,,,,,,*0F
$GPGSV,1,1,01,01,00,000,35*4F
$LOGTIM,0,0.000000,0.000000,0.000000,0.000000,0.000*0A
EndT:        0
---00000004--- Acq_st=3 2019-5-22 06:22:51 
[00]  G01  7 35    571.2 2045999.2  1.0  1.0  5  0        13
[01]  G11  7 31   1058.6 2045998.5  0.5  1.0  5  0         8
[02]  G17  1 24  -2036.9 2046004.7  0.1  0.0  1  0         0
[03]  G19  1  7  -2913.6 2046005.8  0.0  0.0  1  0         0
$GNGGA,000000.000,,,,,0,00,,,M,,,,0000*2B
$GNRMC,000000.000,A,,,,,,,000000,,*26
$GPGSA,A,1,,,,,,,,,,,,,,,*1E
$BDGSA,A,1,,,,,,,,,,,,,,,*0F
$GPGSV,1,1,02,01,00,000,35,11,00,000,31*7E
$LOGTIM,0,0.000000,0.000000,0.000000,0.000000,0.000*0A
EndT:        0
---00000005--- Acq_st=3 2019-5-22 06:22:52 
[00]  G01  7 36    571.7 2045999.2  1.0  1.0  5  0        13
[01]  G11  7 41   1058.5 2045998.6  1.0  1.0  5  0        12
[02]  G17  7 29  -2046.6 2046002.6  0.5  1.0 10  0        13
[03]  G19  7 20  -2849.8 2046003.6  0.1  0.0 20  0         1
$GNGGA,000000.000,,,,,0,00,,,M,,,,0000*2B
$GNRMC,000000.000,A,,,,,,,000000,,*26
$GPGSA,A,1,,,,,,,,,,,,,,,*1E
$BDGSA,A,1,,,,,,,,,,,,,,,*0F
$GPGSV,1,1,04,01,00,000,36,11,00,000,41,17,00,000,29,19,00,000,20*7B
$LOGTIM,0,0.000000,0.000000,0.000000,0.000000,0.000*0A
EndT:        0
---00000006--- Acq_st=3 2019-5-22 06:22:53 
[00]  G01  7 37    572.4 2045999.2  1.0  1.0  5  0        13
[01]  G11  7 42   1058.6 2045998.6  1.0  1.0  5  0        12
[02]  G17  7 42  -2046.8 2046002.6  1.0  1.0  5  0         2
[03]  G19  7 43  -2849.1 2046003.6  0.7  1.0  5  0        16
[04]  G28  1 23  -2693.0 2046005.4  0.1  0.0  1  0         0
[05]  G30  1  7    900.0 2045999.9 -0.1  0.0  1  0         0
$GNGGA,000000.000,,,,,0,00,,,M,,,,0000*2B
$GNRMC,000000.000,A,,,,,,,000000,,*26
$GPGSA,A,1,,,,,,,,,,,,,,,*1E
$BDGSA,A,1,,,,,,,,,,,,,,,*0F
$GPGSV,1,1,04,01,00,000,37,11,00,000,42,17,00,000,42,19,00,000,43*71
$LOGTIM,0,0.000000,0.000000,0.000000,0.000000,0.000*0A
EndT:        0
---00000007--- Acq_st=3 2019-5-22 06:22:54 
[00]  G01  7 37    578.3 2045999.3  1.0  1.0  5  0        13
[01]  G11  7 42   1064.9 2045998.6  1.0  1.0  5  0        12
[02]  G17  7 42  -2041.4 2046002.7  1.0  1.0  5  0         2
[03]  G19  7 43  -2844.2 2046003.7  1.0  1.0  5  0        16
[04]  G28  7 28  -2684.5 2046003.4 -0.0  1.0 10  0         9
[05]  G30  7 14    954.3 2045998.6  0.2  0.0 20  0        17
$GNGGA,000000.000,,,,,0,00,,,M,,,,0000*2B
$GNRMC,000000.000,A,,,,,,,000000,,*26
$GPGSA,A,1,,,,,,,,,,,,,,,*1E
$BDGSA,A,1,,,,,,,,,,,,,,,*0F
$GPGSV,2,1,06,01,00,000,37,11,00,000,42,17,00,000,42,19,00,000,43*70
$GPGSV,2,2,06,28,00,000,28,30,00,000,14*79
$LOGTIM,0,0.000000,0.000000,0.000000,0.000000,0.000*0A
EndT:        0
---00000008--- Acq_st=3 2019-5-22 06:22:55 
[00]  G01  f 37    581.8 2045999.2  1.0  1.0  5  0        13
[01]  G11  f 42   1068.1 2045998.6  1.0  1.0  5  0        12
[02]  G17  f 42  -2038.0 2046002.6  1.0  1.0  5  0         2
[03]  G19  f 42  -2840.8 2046003.7  1.0  1.0  5  0        16
[04]  G28  f 40  -2681.8 2046003.4  0.8  1.0  5  0         7
[05]  G30  7 40    958.5 2045998.6  0.5  1.0  5  0         9
$GNGGA,000000.000,,,,,0,00,,,M,,,,0000*2B
$GNRMC,000000.000,A,,,,,,,000000,,*26
$GPGSA,A,1,,,,,,,,,,,,,,,*1E
$BDGSA,A,1,,,,,,,,,,,,,,,*0F
$GPGSV,2,1,06,01,00,000,37,11,00,000,42,17,00,000,42,19,00,000,42*71
$GPGSV,2,2,06,28,00,000,40,30,00,000,40*76
$LOGTIM,0,0.000000,0.000000,0.000000,0.000000,0.000*0A
EndT:        0
---00000009--- Acq_st=3 2019-5-22 06:22:56 
[00]  G01  f 38    581.2 2045999.2  1.0  1.0  5  0 282193233
[01]  G11  f 42   1067.2 2045998.6  1.0  1.0  5  0 282193232
[02]  G17  f 43  -2039.1 2046002.6  1.0  1.0  5  0 282193222
[03]  G19  f 42  -2841.7 2046003.7  1.0  1.0  5  0 282193216
[04]  G28  f 40  -2682.8 2046003.5  1.0  1.0  5  0 282193227
[05]  G30  7 40    957.8 2045998.7  1.0  1.0  5  0         9
$GNGGA,000000.000,,,,,0,00,,,M,,,,0000*2B
$GNRMC,000000.000,A,,,,,,,000000,,*26
$GPGSA,A,1,,,,,,,,,,,,,,,*1E
$BDGSA,A,1,,,,,,,,,,,,,,,*0F
$GPGSV,2,1,06,01,00,000,38,11,00,000,42,17,00,000,43,19,00,000,42*7F
$GPGSV,2,2,06,28,00,000,40,30,00,000,40*76
$LOGTIM,0,0.000000,0.000000,0.000000,0.000000,0.000*0A
EndT:        0
---00000010--- Acq_st=3 2019-5-22 06:22:57 
[00]  G01  f 39    580.1 2045999.3  1.0  1.0  5  0 282194233
[01]  G11  f 42   1066.4 2045998.6  1.0  1.0  5  0 282194232
[02]  G17  f 42  -2040.4 2046002.6  1.0  1.0  5  0 282194222
[03]  G19  f 42  -2842.7 2046003.7  1.0  1.0  5  0 282194216
[04]  G28  f 40  -2684.1 2046003.5  1.0  1.0  5  0 282194227
[05]  G30  7 40    957.2 2045998.7  1.0  1.0  5  0         9
[16]  B08  1  7   -413.5 4092001.2 -0.1  0.0  1  0         0
[17]  B10  1  7   -773.8 4092002.5 -0.0  0.0  1  0         0
$GNGGA,000000.000,,,,,0,00,,,M,,,,0000*2B
$GNRMC,000000.000,A,,,,,,,000000,,*26
$GPGSA,A,1,,,,,,,,,,,,,,,*1E
$BDGSA,A,1,,,,,,,,,,,,,,,*0F
$GPGSV,2,1,06,01,00,000,39,11,00,000,42,17,00,000,42,19,00,000,42*7F
$GPGSV,2,2,06,28,00,000,40,30,00,000,40*76
$LOGTIM,0,0.000000,0.000000,0.000000,0.000000,0.000*0A
EndT:        0
---00000011--- Acq_st=3 2019-5-22 06:22:58 
[00]  G01  f 39    579.9 2045999.2  1.0  1.0  5  0 282195233
[01]  G11  f 43   1065.1 2045998.6  1.0  1.0  5  0 282195232
[02]  G17  f 43  -2042.2 2046002.6  1.0  1.0  5  0 282195222
[03]  G19  f 42  -2845.2 2046003.7  1.0  1.0  5  0 282195216
[04]  G28  f 39  -2685.5 2046003.5  1.0  1.0  5  0 282195227
[05]  G30  7 39    955.6 2045998.7  1.0  1.0  5  0         9
[16]  B08  7 30   -415.5 4092001.0  0.5  1.0  5  0       999
[17]  B10  1  8   -666.2 4092002.8 -0.0  0.0  1  0       238
$GNGGA,000000.000,,,,,0,00,,,M,,,,0000*2B
$GNRMC,000000.000,A,,,,,,,000000,,*26
$GPGSA,A,1,,,,,,,,,,,,,,,*1E
$BDGSA,A,1,,,,,,,,,,,,,,,*0F
$GPGSV,2,1,06,01,00,000,39,11,00,000,43,17,00,000,43,19,00,000,42*7F
$GPGSV,2,2,06,28,00,000,39,30,00,000,39*76
$BDGSV,1,1,01,08,00,000,30*52
$LOGTIM,0,0.000000,0.000000,0.000000,0.000000,0.000*0A
EndT:        0
---00000012--- Acq_st=3 2019-5-22 06:22:59 
[00]  G01  f 39    579.5 2045999.2  1.0  1.0  5  0 282196233
[01]  G11  f 42   1064.5 2045998.6  1.0  1.0  5  0 282196232
[02]  G17  f 42  -2042.4 2046002.6  1.0  1.0  5  0 282196222
[03]  G19  f 42  -2845.2 2046003.7  1.0  1.0  5  0 282196216
[04]  G28  f 39  -2685.8 2046003.5  1.0  1.0  5  0 282196227
[05]  G30  7 40    955.8 2045998.7  1.0  1.0  5  0         9
[16]  B08  7 36   -415.2 4092001.0  1.0  1.0  5  0      1980
[17]  B10  7 33   -666.1 4092001.8  0.7  1.0  5  0      1238
$GNGGA,000000.000,,,,,0,00,,,M,,,,0000*2B
$GNRMC,000000.000,A,,,,,,,000000,,*26
$GPGSA,A,1,,,,,,,,,,,,,,,*1E
$BDGSA,A,1,,,,,,,,,,,,,,,*0F
$GPGSV,2,1,06,01,00,000,39,11,00,000,42,17,00,000,42,19,00,000,42*7F
$GPGSV,2,2,06,28,00,000,39,30,00,000,40*78
$BDGSV,1,1,02,08,00,000,36,10,00,000,33*66
$LOGTIM,0,0.000000,0.000000,0.000000,0.000000,0.000*0A
EndT:        0
---00000013--- Acq_st=3 2019-5-22 06:23:0 
[00]  G01  f 40    580.4 2045999.2  1.0  1.0  5  0 282197233
[01]  G11  f 43   1065.7 2045998.6  1.0  1.0  5  0 282197232
[02]  G17  f 43  -2041.9 2046002.7  1.0  1.0  5  0 282197222
[03]  G19  f 42  -2844.7 2046003.7  1.0  1.0  5  0 282197216
[04]  G28  f 39  -2685.2 2046003.5  1.0  1.0  5  0 282197227
[05]  G30  7 39    957.2 2045998.7  1.0  1.0  5  0         9
[16]  B08  7 36   -414.3 4092001.1  1.0  0.9  5  0      2980
[17]  B10  7 35   -665.7 4092001.8  1.0  1.0  5  0      2220
$GNGGA,000000.000,,,,,0,00,,,M,,,,0000*2B
$GNRMC,000000.000,A,,,,,,,000000,,*26
$GPGSA,A,1,,,,,,,,,,,,,,,*1E
$BDGSA,A,1,,,,,,,,,,,,,,,*0F
$GPGSV,2,1,06,01,00,000,40,11,00,000,43,17,00,000,43,19,00,000,42*71
$GPGSV,2,2,06,28,00,000,39,30,00,000,39*76
$BDGSV,1,1,02,08,00,000,36,10,00,000,35*60
$LOGTIM,0,0.000000,0.000000,0.000000,0.000000,0.000*0A
EndT:        0
---00000014--- Acq_st=3 2019-5-22 06:23:1 
[00]  G01  f 40    579.9 2045999.2  1.0  1.0  5  0 282198233
[01]  G11  f 43   1064.8 2045998.6  1.0  1.0  5  0 282198232
[02]  G17  f 43  -2042.6 2046002.6  1.0  1.0  5  0 282198222
[03]  G19  f 42  -2845.8 2046003.7  1.0  1.0  5  0 282198216
[04]  G28  f 40  -2686.5 2046003.5  1.0  1.0  5  0 282198227
[05]  G30  f 40    956.2 2045998.8  1.0  1.0  5  0         9
[16]  B08  7 36   -414.8 4092001.0  1.0  1.0  5  0      3980
[17]  B10  7 35   -666.7 4092001.8  1.0  1.0  5  0      3220
$GNGGA,000000.000,,,,,0,00,,,M,,,,0000*2B
$GNRMC,000000.000,A,,,,,,,000000,,*26
$GPGSA,A,1,,,,,,,,,,,,,,,*1E
$BDGSA,A,1,,,,,,,,,,,,,,,*0F
$GPGSV,2,1,06,01,00,000,40,11,00,000,43,17,00,000,43,19,00,000,42*71
$GPGSV,2,2,06,28,00,000,40,30,00,000,40*76
$BDGSV,1,1,02,08,00,000,36,10,00,000,35*60
$LOGTIM,0,0.000000,0.000000,0.000000,0.000000,0.000*0A
EndT:        0
---00000015--- Acq_st=3 2019-5-22 06:23:2 
[00]  G01  f 40    580.5 2045999.2  1.0  1.0  5  0 282199233
[01]  G11  f 43   1064.9 2045998.6  1.0  1.0  5  0 282199232
[02]  G17  f 44  -2043.0 2046002.7  1.0  1.0  5  0 282199222
[03]  G19  f 42  -2845.6 2046003.7  1.0  1.0  5  0 282199216
[04]  G28  f 40  -2686.2 2046003.5  1.0  1.0  5  0 282199227
[05]  G30  f 40    957.1 2045998.8  1.0  1.0  5  0 282199229
[16]  B08  7 36   -415.6 4092001.1  1.0  1.0  5  0      4980
[17]  B10  7 35   -666.9 4092001.7  1.0  1.0  5  0      4220
$GNGGA,000000.000,,,,,0,00,,,M,,,,0000*2B
$GNRMC,000000.000,A,,,,,,,000000,,*26
$GPGSA,A,1,,,,,,,,,,,,,,,*1E
$BDGSA,A,1,,,,,,,,,,,,,,,*0F
$GPGSV,2,1,06,01,00,000,40,11,00,000,43,17,00,000,44,19,00,000,42*76
$GPGSV,2,2,06,28,00,000,40,30,00,000,40*76
$BDGSV,1,1,02,08,00,000,36,10,00,000,35*60
$LOGTIM,0,0.000000,0.000000,0.000000,0.000000,0.000*0A
EndT:        0
---00000016--- Acq_st=3 2019-5-22 06:23:3 
[00]  G01  f 41    582.2 2045999.2  1.0  1.0  5  0 282200233
[01]  G11  f 43   1066.6 2045998.6  1.0  1.0  5  0 282200232
[02]  G17  f 44  -2041.7 2046002.6  1.0  1.0  5  0 282200222
[03]  G19  f 42  -2844.8 2046003.7  1.0  1.0  5  0 282200216
[04]  G28  f 40  -2684.7 2046003.5  1.0  1.0  5  0 282200227
[05]  G30  f 39    958.5 2045998.8  1.0  1.0  5  0 282200229
[16]  B08  7 36   -414.3 4092001.1  1.0  1.0  5  0      5980
[17]  B10  7 35   -665.7 4092001.7  1.0  1.0  5  0      5220
$GNGGA,000000.000,,,,,0,00,,,M,,,,0000*2B
$GNRMC,000000.000,A,,,,,,,000000,,*26
$GPGSA,A,1,,,,,,,,,,,,,,,*1E
$BDGSA,A,1,,,,,,,,,,,,,,,*0F
$GPGSV,2,1,06,01,00,000,41,11,00,000,43,17,00,000,44,19,00,000,42*77
$GPGSV,2,2,06,28,00,000,40,30,00,000,39*78
$BDGSV,1,1,02,08,00,000,36,10,00,000,35*60
$LOGTIM,0,0.000000,0.000000,0.000000,0.000000,0.000*0A
EndT:        0
---00000017--- Acq_st=3 2019-5-22 06:23:4 
[00]  G01  f 41    583.3 2045999.3  1.0  1.0  5  0 282201233
[01]  G11  f 44   1067.8 2045998.6  1.0  1.0  5  0 282201232
[02]  G17  f 44  -2040.2 2046002.7  1.0  1.0  5  0 282201222
[03]  G19  f 42  -2843.5 2046003.7  1.0  1.0  5  0 282201216
[04]  G28  f 40  -2683.6 2046003.5  1.0  1.0  5  0 282201227
[05]  G30  f 39    960.7 2045998.7  1.0  1.0  5  0 282201229
[16]  B08 1f 37   -412.4 4092001.1  1.0  1.0  5  0      6980
[17]  B10 1f 36   -663.9 4092001.6  1.0  1.0  5  0      6220
$GNGGA,000000.000,,,,,0,00,,,M,,,,0000*2B
$GNRMC,000000.000,A,,,,,,,000000,,*26
$GPGSA,A,1,,,,,,,,,,,,,,,*1E
$BDGSA,A,1,,,,,,,,,,,,,,,*0F
$GPGSV,2,1,06,01,00,000,41,11,00,000,44,17,00,000,44,19,00,000,42*70
$GPGSV,2,2,06,28,00,000,40,30,00,000,39*78
$BDGSV,1,1,02,08,00,000,37,10,00,000,36*62
$LOGTIM,0,0.000000,0.000000,0.000000,0.000000,0.000*0A
EndT:        0
---00000018--- Acq_st=3 2019-5-22 06:23:5 
[00]  G01  f 41    583.0 2045999.2  1.0  1.0  5  0 282202233
[01]  G11  f 43   1067.1 2045998.6  1.0  1.0  5  0 282202232
[02]  G17  f 44  -2041.8 2046002.7  1.0  1.0  5  0 282202222
[03]  G19  f 42  -2844.8 2046003.7  1.0  1.0  5  0 282202216
[04]  G28  f 41  -2684.9 2046003.5  1.0  1.0  5  0 282202227
[05]  G30  f 39    959.2 2045998.8  1.0  1.0  5  0 282202229
[16]  B08 1f 36   -413.9 4092001.1  1.0  1.0  5  0 282188180
[17]  B10 1f 36   -665.1 4092001.8  1.0  1.0  5  0 282188180
[18]  B29  1  7  -1730.5 4092004.5  0.1  0.0  1  0         6
[19]  B30  1  7    394.5 4092000.0  0.2  0.0  1  0         0
$GNGGA,000000.000,,,,,0,00,,,M,,,,0000*2B
$GNRMC,000000.000,A,,,,,,,000000,,*26
$GPGSA,A,1,,,,,,,,,,,,,,,*1E
$BDGSA,A,1,,,,,,,,,,,,,,,*0F
$GPGSV,2,1,06,01,00,000,41,11,00,000,43,17,00,000,44,19,00,000,42*77
$GPGSV,2,2,06,28,00,000,41,30,00,000,39*79
$BDGSV,1,1,02,08,00,000,36,10,00,000,36*63
$LOGTIM,0,0.000000,0.000000,0.000000,0.000000,0.000*0A
EndT:        0
---00000019--- Acq_st=7 2019-5-22 06:23:6 
[00]  G01  f 41    589.5 2045999.2  1.0  1.0  5  0 282203233
[01]  G11  f 43   1073.1 2045998.6  1.0  1.0  5  0 282203232
[02]  G17  f 45  -2035.8 2046002.6  1.0  1.0  5  0 282203222
[03]  G19  f 42  -2838.8 2046003.7  1.0  1.0  5  0 282203216
[04]  G28  f 40  -2678.8 2046003.5  1.0  1.0  5  0 282203227
[05]  G30  f 39    965.9 2045998.7  1.0  1.0  5  0 282203229
[16]  B08 1f 36   -408.6 4092001.1  1.0  1.0  5  0 282189180
[17]  B10 1f 36   -659.4 4092001.7  1.0  1.0  5  0 282189180
[18]  B29  7 32  -1724.2 4092004.5  0.3  1.0  5  0      1006
[19]  B30  7 24    370.6 4091998.9  0.4  0.0 20  0       626
$GNGGA,000000.000,,,,,0,00,,,M,,,,0000*2B
$GNRMC,000000.000,A,,,,,,,000000,,*26
$GPGSA,A,1,,,,,,,,,,,,,,,*1E
$BDGSA,A,1,,,,,,,,,,,,,,,*0F
$GPGSV,2,1,06,01,00,000,41,11,00,000,43,17,00,000,45,19,00,000,42*76
$GPGSV,2,2,06,28,00,000,40,30,00,000,39*78
$BDGSV,1,1,04,08,00,000,36,10,00,000,36,29,00,000,32,30,00,000,24*6A
$LOGTIM,0,0.000000,0.000000,0.000000,0.000000,0.000*0A
EndT:        0
---00000020--- Acq_st=3 2019-5-22 06:23:7 
[00]  G01  f 41    590.3 2045999.2  1.0  1.0  5  0 282204233
[01]  G11  f 44   1074.1 2045998.6  1.0  1.0  5  0 282204232
[02]  G17  f 45  -2035.3 2046002.7  1.0  1.0  5  0 282204222
[03]  G19  f 42  -2838.2 2046003.7  1.0  1.0  5  0 282204216
[04]  G28  f 40  -2678.5 2046003.5  1.0  1.0  5  0 282204227
[05]  G30  f 39    966.9 2045998.8  1.0  1.0  5  0 282204229
[16]  B08 1f 36   -408.4 4092001.0  1.0  0.9  5  0 282190180
[17]  B10 1f 35   -659.8 4092001.7  1.0  0.9  5  0 282190180
[18]  B29  7 45  -1723.7 4092004.6  1.0  1.0  5  0      2002
[19]  B30  7 38    371.7 4091999.0  0.7  1.0  5  0      1607
$GNGGA,000000.000,,,,,0,00,,,M,,,,0000*2B
$GNRMC,000000.000,A,,,,,,,000000,,*26
$GPGSA,A,1,,,,,,,,,,,,,,,*1E
$BDGSA,A,1,,,,,,,,,,,,,,,*0F
$GPGSV,2,1,06,01,00,000,41,11,00,000,44,17,00,000,45,19,00,000,42*71
$GPGSV,2,2,06,28,00,000,40,30,00,000,39*78
$BDGSV,1,1,04,08,00,000,36,10,00,000,35,29,00,000,45,30,00,000,38*64
$LOGTIM,0,0.000000,0.000000,0.000000,0.000000,0.000*0A
EndT:        0
---00000021--- Acq_st=3 2019-5-22 06:23:8 
[00]  G01  f 41    586.9 2045999.2  1.0  1.0  5  0 282205233
[01]  G11  f 44   1069.8 2045998.6  1.0  1.0  5  0 282205232
[02]  G17  f 45  -2039.6 2046002.7  1.0  1.0  5  0 282205222
[03]  G19  f 42  -2842.5 2046003.7  1.0  1.0  5  0 282205216
[04]  G28  f 39  -2682.8 2046003.5  1.0  1.0  5  0 282205227
[05]  G30  f 39    963.0 2045998.8  1.0  1.0  5  0 282205229
[06]  G08  1 25   1690.7 2045998.0  0.1  0.0  1  0         0
[16]  B08 1f 37   -411.6 4092001.1  1.0  1.0  5  0 282191180
[17]  B10 1f 36   -663.7 4092001.8  1.0  1.0  5  0 282191180
[18]  B29  7 45  -1727.8 4092004.5  1.0  1.0  5  0      3002
[19]  B30  7 38    367.9 4091999.0  1.0  1.0  5  0      2607
$GNGGA,000000.000,,,,,0,00,,,M,,,,0000*2B
$GNRMC,000000.000,A,,,,,,,000000,,*26
$GPGSA,A,1,,,,,,,,,,,,,,,*1E
$BDGSA,A,1,,,,,,,,,,,,,,,*0F
$GPGSV,2,1,06,01,00,000,41,11,00,000,44,17,00,000,45,19,00,000,42*71
$GPGSV,2,2,06,28,00,000,39,30,00,000,39*76
$BDGSV,1,1,04,08,00,000,37,10,00,000,36,29,00,000,45,30,00,000,38*66
$LOGTIM,0,0.000000,0.000000,0.000000,0.000000,0.000*0A
EndT:        0
---00000022--- Acq_st=3 2019-5-22 06:23:9 
[00]  G01  f 41    584.8 2045999.2  1.0  1.0  5  0 282206233
[01]  G11  f 44   1067.8 2045998.6  1.0  1.0  5  0 282206232
[02]  G17  f 45  -2042.1 2046002.7  1.0  1.0  5  0 282206222
[03]  G19  f 42  -2845.2 2046003.7  1.0  1.0  5  0 282206216
[04]  G28  f 39  -2685.0 2046003.5  1.0  1.0  5  0 282206227
[05]  G30  f 38    960.9 2045998.7  1.0  1.0  5  0 282206229
[06]  G08  7 26   1680.3 2045997.8  0.4  0.0 20  0         4
[07]  G18  1  7   2189.3 2045998.5 -0.0  0.0  1  0         0
[16]  B08 1f 37   -413.6 4092001.1  1.0  1.0  5  0 282192180
[17]  B10 1f 35   -666.2 4092001.7  1.0  1.0  5  0 282192180
[18]  B29  7 46  -1730.3 4092004.5  1.0  1.0  5  0      4002
[19]  B30  7 38    365.2 4091999.0  1.0  1.0  5  0      3607
$GNGGA,000000.000,,,,,0,00,,,M,,,,0000*2B
$GNRMC,000000.000,A,,,,,,,000000,,*26
$GPGSA,A,1,,,,,,,,,,,,,,,*1E
$BDGSA,A,1,,,,,,,,,,,,,,,*0F
$GPGSV,2,1,07,01,00,000,41,11,00,000,44,17,00,000,45,19,00,000,42*70
$GPGSV,2,2,07,28,00,000,39,30,00,000,38,08,00,000,26*4A
$BDGSV,1,1,04,08,00,000,37,10,00,000,35,29,00,000,46,30,00,000,38*66
$LOGTIM,0,0.000000,0.000000,0.000000,0.000000,0.000*0A
EndT:        0
---00000023--- Acq_st=3 2019-5-22 06:23:10 
[00]  G01  f 40    586.4 2045999.3  1.0  1.0  5  0 282207233
[01]  G11  f 44   1069.3 2045998.6  1.0  1.0  5  0 282207232
[02]  G17  f 45  -2040.6 2046002.7  1.0  1.0  5  0 282207222
[03]  G19  f 42  -2844.2 2046003.7  1.0  1.0  5  0 282207216
[04]  G28  f 39  -2683.4 2046003.5  1.0  1.0  5  0 282207227
[05]  G30  f 39    963.0 2045998.8  1.0  1.0  5  0 282207229
[06]  G08  7 35   1682.0 2045997.7  1.0  1.0  5  0         3
[07]  G18  1 28   2109.7 2045997.3 -0.1  0.0  1  0        18
[16]  B08 1f 36   -412.6 4092001.0  1.0  1.0  5  0 282193180
[17]  B10 1f 36   -664.2 4092001.7  1.0  1.0  5  0 282193180
[18]  B29 1f 45  -1728.8 4092004.5  1.0  1.0  5  0 282193222
[19]  B30 1f 39    366.6 4091999.0  1.0  1.0  5  0 282193227
$GNGGA,000000.000,,,,,0,00,,,M,,,,0000*2B
$GNRMC,000000.000,A,,,,,,,000000,,*26
$GPGSA,A,1,,,,,,,,,,,,,,,*1E
$BDGSA,A,1,,,,,,,,,,,,,,,*0F
$GPGSV,2,1,07,01,00,000,40,11,00,000,44,17,00,000,45,19,00,000,42*71
$GPGSV,2,2,07,28,00,000,39,30,00,000,39,08,00,000,35*49
$BDGSV,1,1,04,08,00,000,36,10,00,000,36,29,00,000,45,30,00,000,39*66
$LOGTIM,0,0.000000,0.000000,0.000000,0.000000,0.000*0A
EndT:        0
---00000024--- Acq_st=3 2019-5-22 06:23:11 
[00]  G01  f 40    586.8 2045999.2  1.0  1.0  5  0 282208233
[01]  G11  f 44   1069.5 2045998.6  1.0  1.0  5  0 282208232
[02]  G17  f 45  -2040.8 2046002.6  1.0  1.0  5  0 282208222
[03]  G19  f 41  -2844.1 2046003.7  1.0  1.0  5  0 282208216
[04]  G28  f 40  -2683.9 2046003.5  1.0  1.0  5  0 282208227
[05]  G30  f 38    963.5 2045998.8  1.0  1.0  5  0 282208229
[06]  G08  7 35   1681.5 2045997.8  1.0  1.0  5  0         3
[07]  G18  7 35   2109.6 2045997.2  0.8  1.0  5  0        18
[16]  B08 1f 36   -413.2 4092001.1  1.0  1.0  5  0 282194180
[17]  B10 1f 36   -664.0 4092001.8  1.0  0.9  5  0 282194180
[18]  B29 1f 46  -1728.5 4092004.5  1.0  1.0  5  0 282194222
[19]  B30 1f 39    366.9 4091999.0  1.0  1.0  5  0 282194227
$GNGGA,000000.000,,,,,0,00,,,M,,,,0000*2B
$GNRMC,000000.000,A,,,,,,,000000,,*26
$GPGSA,A,1,,,,,,,,,,,,,,,*1E
$BDGSA,A,1,,,,,,,,,,,,,,,*0F
$GPGSV,2,1,08,01,00,000,40,11,00,000,44,17,00,000,45,19,00,000,41*7D
$GPGSV,2,2,08,28,00,000,40,30,00,000,38,08,00,000,35,18,00,000,35*76
$BDGSV,1,1,04,08,00,000,36,10,00,000,36,29,00,000,46,30,00,000,39*65
$LOGTIM,0,0.000000,0.000000,0.000000,0.000000,0.000*0A
EndT:        0
---00000025--- Acq_st=3 2019-5-22 06:23:12 
[00]  G01  f 40    587.4 2045999.2  1.0  1.0  5  0 282209233
[01]  G11  f 45   1069.8 2045998.6  1.0  1.0  5  0 282209232
[02]  G17  f 45  -2041.0 2046002.6  1.0  1.0  5  0 282209222
[03]  G19  f 41  -2844.2 2046003.7  1.0  1.0  5  0 282209216
[04]  G28  f 40  -2683.6 2046003.5  1.0  1.0  5  0 282209227
[05]  G30  f 39    964.1 2045998.7  1.0  1.0  5  0 282209229
[06]  G08  7 35   1680.9 2045997.8  1.0  0.9  5  0         3
[07]  G18  7 38   2109.9 2045997.2  1.0  0.9  5  0        10
[16]  B08 1f 37   -413.1 4092001.0  1.0  0.9  5  0 282195180
[17]  B10 1f 36   -664.8 4092001.7  1.0  0.9  5  0 282195180
[18]  B29 1f 45  -1728.7 4092004.5  1.0  1.0  5  0 282195222
[19]  B30 1f 39    366.9 4091999.0  1.0  1.0  5  0 282195227
$GNGGA,000000.000,,,,,0,00,,,M,,,,0000*2B
$GNRMC,000000.000,A,,,,,,,000000,,*26
$GPGSA,A,1,,,,,,,,,,,,,,,*1E
$BDGSA,A,1,,,,,,,,,,,,,,,*0F
$GPGSV,2,1,08,01,00,000,40,11,00,000,45,17,00,000,45,19,00,000,41*7C
$GPGSV,2,2,08,28,00,000,40,30,00,000,39,08,00,000,35,18,00,000,38*7A
$BDGSV,1,1,04,08,00,000,37,10,00,000,36,29,00,000,45,30,00,000,39*67
$LOGTIM,0,0.000000,0.000000,0.000000,0.000000,0.000*0A
EndT:        0
---00000026--- Acq_st=3 2019-5-22 06:23:13 
[00]  G01  f 40    590.1 2045999.3  1.0  1.0  5  0 282210233
[01]  G11  f 45   1072.1 2045998.6  1.0  1.0  5  0 282210232
[02]  G17  f 46  -2038.9 2046002.6  1.0  1.0  5  0 282210222
[03]  G19  f 41  -2842.0 2046003.7  1.0  1.0  5  0 282210216
[04]  G28  f 41  -2681.2 2046003.4  1.0  1.0  5  0 282210227
[05]  G30  f 38    966.0 2045998.8  1.0  1.0  5  0 282210229
[06]  G08  7 37   1683.1 2045997.7  1.0  1.0  5  0         3
[07]  G18  7 38   2111.9 2045997.2  1.0  0.9  5  0        10
[16]  B08 1f 37   -411.2 4092001.1  1.0  1.0  5  0 282196180
[17]  B10 1f 36   -662.2 4092001.7  1.0  1.0  5  0 282196180
[18]  B29 1f 46  -1726.7 4092004.5  1.0  1.0  5  0 282196222
[19]  B30 1f 40    369.1 4091999.0  1.0  1.0  5  0 282196227
[20]  B05  1 29   -449.7 4092002.9 -0.0  0.0  1  0         0
$GNGGA,000000.000,,,,,0,00,,,M,,,,0000*2B
$GNRMC,000000.000,A,,,,,,,000000,,*26
$GPGSA,A,1,,,,,,,,,,,,,,,*1E
$BDGSA,A,1,,,,,,,,,,,,,,,*0F
$GPGSV,2,1,08,01,00,000,40,11,00,000,45,17,00,000,46,19,00,000,41*7F
$GPGSV,2,2,08,28,00,000,41,30,00,000,38,08,00,000,37,18,00,000,38*78
$BDGSV,1,1,04,08,00,000,37,10,00,000,36,29,00,000,46,30,00,000,40*6A
$LOGTIM,0,0.000000,0.000000,0.000000,0.000000,0.000*0A
EndT:        0
---00000027--- Acq_st=3 2019-5-22 06:23:14 
[00]  G01  f 39    590.5 2045999.2  1.0  1.0  5  0 282211233
[01]  G11  f 45   1072.3 2045998.6  1.0  1.0  5  0 282211232
[02]  G17  f 46  -2039.0 2046002.6  1.0  1.0  5  0 282211222
[03]  G19  f 42  -2842.1 2046003.7  1.0  1.0  5  0 282211216
[04]  G28  f 41  -2681.9 2046003.5  1.0  1.0  5  0 282211227
[05]  G30  f 38    966.9 2045998.7  1.0  1.0  5  0 282211229
[06]  G08  f 37   1683.1 2045997.8  1.0  1.0  5  0 282211223
[07]  G18  f 39   2112.0 2045997.2  1.0  1.0  5  0 282211230
[16]  B08 1f 36   -410.6 4092001.1  1.0  1.0  5  0 282197180
[17]  B10 1f 36   -662.7 4092001.7  1.0  1.0  5  0 282197180
[18]  B29 1f 45  -1726.5 4092004.5  1.0  1.0  5  0 282197222
[19]  B30 1f 40    368.3 4091999.0  1.0  1.0  5  0 282197227
[20]  B05  1 10   -388.2 4092001.8 -0.0  0.0  1  0       290
$GNGGA,000000.000,,,,,0,00,,,M,,,,0000*2B
$GNRMC,000000.000,A,,,,,,,000000,,*26
$GPGSA,A,1,,,,,,,,,,,,,,,*1E
$BDGSA,A,1,,,,,,,,,,,,,,,*0F
$GPGSV,2,1,08,01,00,000,39,11,00,000,45,17,00,000,46,19,00,000,42*72
$GPGSV,2,2,08,28,00,000,41,30,00,000,38,08,00,000,37,18,00,000,39*79
$BDGSV,1,1,04,08,00,000,36,10,00,000,36,29,00,000,45,30,00,000,40*68
$LOGTIM,0,0.000000,0.000000,0.000000,0.000000,0.000*0A
EndT:        0
---00000028--- Acq_st=3 2019-5-22 06:23:15 
[00]  G01  f 39    592.4 2045999.2  1.0  1.0  5  0 282212233
[01]  G11  f 45   1073.6 2045998.6  1.0  1.0  5  0 282212232
[02]  G17  f 46  -2037.7 2046002.6  1.0  1.0  5  0 282212222
[03]  G19  f 42  -2840.8 2046003.7  1.0  1.0  5  0 282212216
[04]  G28  f 41  -2680.5 2046003.5  1.0  1.0  5  0 282212227
[05]  G30  f 39    968.3 2045998.7  1.0  1.0  5  0 282212229
[06]  G08  f 36   1684.1 2045997.8  1.0  1.0  5  0 282212223
[07]  G18  f 39   2113.7 2045997.3  1.0  1.0  5  0 282212230
[16]  B08 1f 37   -410.2 4092001.1  1.0  1.0  5  0 282198180
[17]  B10 1f 36   -661.2 4092001.7  1.0  1.0  5  0 282198180
[18]  B29 1f 45  -1725.4 4092004.5  1.0  1.0  5  0 282198222
[19]  B30 1f 40    369.9 4091999.0  1.0  1.0  5  0 282198227
[20]  B05  7 30   -354.0 4092000.9  0.9  0.0  2  0      1290
$GNGGA,000000.000,,,,,0,00,,,M,,,,0000*2B
$GNRMC,000000.000,A,,,,,,,000000,,*26
$GPGSA,A,1,,,,,,,,,,,,,,,*1E
$BDGSA,A,1,,,,,,,,,,,,,,,*0F
$GPGSV,2,1,08,01,00,000,39,11,00,000,45,17,00,000,46,19,00,000,42*72
$GPGSV,2,2,08,28,00,000,41,30,00,000,39,08,00,000,36,18,00,000,39*79
$BDGSV,2,1,05,08,00,000,37,10,00,000,36,29,00,000,45,30,00,000,40*6B
$BDGSV,2,2,05,05,00,000,30*5B
$LOGTIM,0,0.000000,0.000000,0.000000,0.000000,0.000*0A
EndT:        0
---00000029--- Acq_st=3 2019-5-22 06:23:16 
[00]  G01  f 40    595.4 2045999.3  1.0  1.0  5  0 282213233
[01]  G11  f 45   1076.8 2045998.6  1.0  1.0  5  0 282213232
[02]  G17  f 45  -2035.3 2046002.6  1.0  1.0  5  0 282213222
[03]  G19  f 41  -2838.4 2046003.7  1.0  1.0  5  0 282213216
[04]  G28  f 41  -2677.9 2046003.5  1.0  1.0  5  0 282213227
[05]  G30  f 40    971.3 2045998.7  1.0  1.0  5  0 282213229
[06]  G08  f 36   1686.8 2045997.8  1.0  1.0  5  0 282213223
[07]  G18  f 39   2117.1 2045997.3  1.0  1.0  5  0 282213230
[16]  B08 1f 37   -407.6 4092001.1  1.0  1.0  5  0 282199180
[17]  B10 1f 36   -659.1 4092001.6  1.0  1.0  5  0 282199180
[18]  B29 1f 46  -1723.0 4092004.5  1.0  1.0  5  0 282199222
[19]  B30 1f 40    372.4 4091999.0  1.0  1.0  5  0 282199227
[20]  B05  f 28   -351.7 4092000.7  0.9  0.0  2  0       567
$GNGGA,000000.000,,,,,0,00,,,M,,,,0000*2B
$GNRMC,000000.000,A,,,,,,,000000,,*26
$GPGSA,A,1,,,,,,,,,,,,,,,*1E
$BDGSA,A,1,,,,,,,,,,,,,,,*0F
$GPGSV,2,1,08,01,00,000,40,11,00,000,45,17,00,000,45,19,00,000,41*7C
$GPGSV,2,2,08,28,00,000,41,30,00,000,40,08,00,000,36,18,00,000,39*77
$BDGSV,2,1,05,08,00,000,37,10,00,000,36,29,00,000,46,30,00,000,40*68
$BDGSV,2,2,05,05,00,000,28*52
$LOGTIM,0,0.000000,0.000000,0.000000,0.000000,0.000*0A
EndT:        0
---00000030--- Acq_st=3 2019-5-22 06:23:17 
[00]  G01  f 40    594.4 2045999.2  1.0  1.0  5  0 282214233
[01]  G11  f 45   1075.9 2045998.6  1.0  1.0  5  0 282214232
[02]  G17  f 45  -2036.3 2046002.6  1.0  1.0  5  0 282214222
[03]  G19  f 42  -2839.4 2046003.7  1.0  1.0  5  0 282214216
[04]  G28  f 41  -2678.5 2046003.4  1.0  1.0  5  0 282214227
[05]  G30  f 40    970.6 2045998.7  1.0  1.0  5  0 282214229
[06]  G08  f 36   1685.8 2045997.8  1.0  1.0  5  0 282214223
[07]  G18  f 39   2116.1 2045997.3  1.0  1.0  5  0 282214230
[16]  B08 1f 36   -407.4 4092001.1  1.0  1.0  5  0 282200180
[17]  B10 1f 36   -660.2 4092001.6  1.0  1.0  5  0 282200180
[18]  B29 1f 45  -1723.7 4092004.5  1.0  1.0  5  0 282200222
[19]  B30 1f 40    371.7 4091999.0  1.0  1.0  5  0 282200227
[20]  B05  f 29   -352.6 4092001.1  0.9  0.0  2  0 282200767
$GNGGA,000000.000,,,,,0,00,,,M,,,,0000*2B
$GNRMC,000000.000,A,,,,,,,000000,,*26
$GPGSA,A,1,,,,,,,,,,,,,,,*1E
$BDGSA,A,1,,,,,,,,,,,,,,,*0F
$GPGSV,2,1,08,01,00,000,40,11,00,000,45,17,00,000,45,19,00,000,42*7F
$GPGSV,2,2,08,28,00,000,41,30,00,000,40,08,00,000,36,18,00,000,39*77
$BDGSV,2,1,05,08,00,000,36,10,00,000,36,29,00,000,45,30,00,000,40*6A
$BDGSV,2,2,05,05,00,000,29*53
$LOGTIM,0,0.000000,0.000000,0.000000,0.000000,0.000*0A
EndT:        0
---00000031--- Acq_st=3 2019-5-22 06:23:18 
[00]  G01  f 40    597.9 2045999.2  1.0  1.0  5  0 282215233
[01]  G11  f 45   1079.2 2045998.6  1.0  1.0  5  0 282215232
[02]  G17  f 45  -2033.2 2046002.6  1.0  1.0  5  0 282215222
[03]  G19  f 42  -2836.4 2046003.6  1.0  1.0  5  0 282215216
[04]  G28  f 41  -2675.5 2046003.5  1.0  1.0  5  0 282215227
[05]  G30  f 39    974.7 2045998.7  1.0  1.0  5  0 282215229
[06]  G08  f 37   1688.6 2045997.8  1.0  1.0  5  0 282215223
[07]  G18  f 38   2119.0 2045997.3  1.0  1.0  5  0 282215230
[16]  B08 1f 37   -405.1 4092001.1  1.0  1.0  5  0 282201180
[17]  B10 1f 36   -656.2 4092001.7  1.0  1.0  5  0 282201180
[18]  B29 1f 45  -1720.6 4092004.5  1.0  1.0  5  0 282201222
[19]  B30 1f 40    374.7 4091999.0  1.0  1.0  5  0 282201227
[20]  B05 1f 28   -349.7 4092000.7  0.9  0.0  2  0 282201767
$GNGGA,000000.000,,,,,0,00,,,M,,,,0000*2B
$GNRMC,000000.000,A,,,,,,,000000,,*26
$GPGSA,A,1,,,,,,,,,,,,,,,*1E
$BDGSA,A,1,,,,,,,,,,,,,,,*0F
$GPGSV,2,1,08,01,00,000,40,11,00,000,45,17,00,000,45,19,00,000,42*7F
$GPGSV,2,2,08,28,00,000,41,30,00,000,39,08,00,000,37,18,00,000,38*79
$BDGSV,2,1,05,08,00,000,37,10,00,000,36,29,00,000,45,30,00,000,40*6B
$BDGSV,2,2,05,05,00,000,28*52
$LOGTIM,0,0.000000,0.000000,0.000000,0.000000,0.000*0A
EndT:        0
---00000032--- Acq_st=3 2019-5-22 06:23:19 
[00]  G01  f 39    603.1 2045999.3  1.0  1.0  5  0 282216233
[01]  G11  f 45   1083.5 2045998.6  1.0  1.0  5  0 282216232
[02]  G17  f 45  -2029.2 2046002.6  1.0  1.0  5  0 282216222
[03]  G19  f 42  -2832.7 2046003.7  1.0  1.0  5  0 282216216
[04]  G28  f 41  -2672.1 2046003.5  1.0  1.0  5  0 282216227
[05]  G30  f 39    978.7 2045998.7  1.0  1.0  5  0 282216229
[06]  G08  f 36   1692.0 2045997.9  1.0  1.0  5  0 282216223
[07]  G18  f 37   2123.3 2045997.2  1.0  1.0  5  0 282216230
[16]  B08 1f 37   -400.6 4092001.1  1.0  1.0  5  0 282202180
[17]  B10 1f 36   -653.1 4092001.7  1.0  1.0  5  0 282202180
[18]  B29 1f 45  -1716.7 4092004.5  1.0  1.0  5  0 282202222
[19]  B30 1f 41    378.4 4091999.0  1.0  1.0  5  0 282202227
[20]  B05 1f 30   -346.0 4092001.0  0.8  0.0  2  0 282202167
$GNGGA,000000.000,,,,,0,00,,,M,,,,0000*2B
$GNRMC,000000.000,A,,,,,,,000000,,*26
$GPGSA,A,1,,,,,,,,,,,,,,,*1E
$BDGSA,A,1,,,,,,,,,,,,,,,*0F
$GPGSV,2,1,08,01,00,000,39,11,00,000,45,17,00,000,45,19,00,000,42*71
$GPGSV,2,2,08,28,00,000,41,30,00,000,39,08,00,000,36,18,00,000,37*77
$BDGSV,2,1,05,08,00,000,37,10,00,000,36,29,00,000,45,30,00,000,41*6A
$BDGSV,2,2,05,05,00,000,30*5B
$LOGTIM,0,0.000000,0.000000,0.000000,0.000000,0.000*0A
EndT:        0
---00000033--- Acq_st=3 2019-5-22 06:23:20 
[00]  G01  f 38    599.6 2045999.2  1.0  1.0  5  0 282217233
[01]  G11  f 45   1079.9 2045998.6  1.0  1.0  5  0 282217232
[02]  G17  f 45  -2032.9 2046002.6  1.0  1.0  5  0 282217222
[03]  G19  f 42  -2836.3 2046003.7  1.0  1.0  5  0 282217216
[04]  G28  f 42  -2675.4 2046003.5  1.0  1.0  5  0 282217227
[05]  G30  f 40    975.7 2045998.7  1.0  1.0  5  0 282217229
[06]  G08  f 36   1688.2 2045997.8  1.0  0.9  5  0 282217223
[07]  G18  f 36   2120.7 2045997.3  1.0  1.0  5  0 282217230
[16]  B08 1f 36   -405.0 4092001.1  1.0  1.0  5  0 282203180
[17]  B10 1f 36   -656.7 4092001.7  1.0  1.0  5  0 282203180
[18]  B29 1f 45  -1720.2 4092004.5  1.0  1.0  5  0 282203222
[19]  B30 1f 41    374.9 4091999.0  1.0  1.0  5  0 282203227
[20]  B05 1f 29   -350.1 4092001.0  0.8  0.0  2  0 282203167
$GNGGA,000000.000,,,,,0,00,,,M,,,,0000*2B
$GNRMC,000000.000,A,,,,,,,000000,,*26
$GPGSA,A,1,,,,,,,,,,,,,,,*1E
$BDGSA,A,1,,,,,,,,,,,,,,,*0F
$GPGSV,2,1,08,01,00,000,38,11,00,000,45,17,00,000,45,19,00,000,42*70
$GPGSV,2,2,08,28,00,000,42,30,00,000,40,08,00,000,36,18,00,000,36*7B
$BDGSV,2,1,05,08,00,000,36,10,00,000,36,29,00,000,45,30,00,000,41*6B
$BDGSV,2,2,05,05,00,000,29*53
$LOGTIM,0,0.000000,0.000000,0.000000,0.000000,0.000*0A
EndT:        0
---00000034--- Acq_st=3 2019-5-22 06:23:21 
[00]  G01  f 38    594.8 2045999.3  1.0  1.0  5  0 282218233
[01]  G11  f 45   1075.2 2045998.6  1.0  1.0  5  0 282218232
[02]  G17  f 45  -2037.8 2046002.6  1.0  1.0  5  0 282218222
[03]  G19  f 43  -2841.3 2046003.7  1.0  1.0  5  0 282218216
[04]  G28  f 42  -2680.5 2046003.5  1.0  1.0  5  0 282218227
[05]  G30  f 40    971.2 2045998.8  1.0  1.0  5  0 282218229
[06]  G08  f 37   1683.6 2045997.9  1.0  1.0  5  0 282218223
[07]  G18  f 35   2115.6 2045997.3  1.0  0.9  5  0 282218230
[16]  B08 1f 36   -409.6 4092001.0  1.0  1.0  5  0 282204180
[17]  B10 1f 36   -661.3 4092001.8  1.0  1.0  5  0 282204180
[18]  B29 1f 45  -1725.1 4092004.5  1.0  1.0  5  0 282204222
[19]  B30 1f 41    370.1 4091999.0  1.0  1.0  5  0 282204227
[20]  B05 1f 29   -354.8 4092000.9  0.9  0.0  2  0 282204167
$GNGGA,000000.000,,,,,0,00,,,M,,,,0000*2B
$GNRMC,000000.000,A,,,,,,,000000,,*26
$GPGSA,A,1,,,,,,,,,,,,,,,*1E
$BDGSA,A,1,,,,,,,,,,,,,,,*0F
$GPGSV,2,1,08,01,00,000,38,11,00,000,45,17,00,000,45,19,00,000,43*71
$GPGSV,2,2,08,28,00,000,42,30,00,000,40,08,00,000,37,18,00,000,35*79
$BDGSV,2,1,05,08,00,000,36,10,00,000,36,29,00,000,45,30,00,000,41*6B
$BDGSV,2,2,05,05,00,000,29*53
$LOGTIM,0,0.000000,0.000000,0.000000,0.000000,0.000*0A
EndT:        0
---00000035--- Acq_st=7 2019-5-22 06:23:22 
[00]  G01  f 39    593.7 2045999.2  1.0  1.0  5  0 282219233
[01]  G11  f 44   1073.5 2045998.6  1.0  1.0  5  0 282219232
[02]  G17  f 44  -2040.1 2046002.6  1.0  1.0  5  0 282219222
[03]  G19  f 43  -2843.3 2046003.7  1.0  1.0  5  0 282219216
[04]  G28  f 42  -2682.2 2046003.5  1.0  1.0  5  0 282219227
[05]  G30  f 40    969.2 2045998.8  1.0  1.0  5  0 282219229
[06]  G08  f 36   1681.5 2045997.8  1.0  1.0  5  0 282219223
[07]  G18  f 35   2113.7 2045997.3  1.0  0.9  5  0 282219230
[16]  B08 1f 37   -411.5 4092001.0  1.0  1.0  5  0 282205180
[17]  B10 1f 37   -663.0 4092001.7  1.0  1.0  5  0 282205180
[18]  B29 1f 46  -1726.8 4092004.5  1.0  1.0  5  0 282205222
[19]  B30 1f 41    368.2 4091999.0  1.0  1.0  5  0 282205227
[20]  B05 1f 29   -357.1 4092001.0  0.8  0.0  2  0 282205167
$GNGGA,000000.000,,,,,0,00,,,M,,,,0000*2B
$GNRMC,000000.000,A,,,,,,,000000,,*26
$GPGSA,A,1,,,,,,,,,,,,,,,*1E
$BDGSA,A,1,,,,,,,,,,,,,,,*0F
$GPGSV,2,1,08,01,00,000,39,11,00,000,44,17,00,000,44,19,00,000,43*70
$GPGSV,2,2,08,28,00,000,42,30,00,000,40,08,00,000,36,18,00,000,35*78
$BDGSV,2,1,05,08,00,000,37,10,00,000,37,29,00,000,46,30,00,000,41*68
$BDGSV,2,2,05,05,00,000,29*53
$LOGTIM,0,0.000000,0.000000,0.000000,0.000000,0.000*0A
EndT:        0
---00000036--- Acq_st=7 2019-5-22 06:23:23 
[00]  G01  f 39    594.6 2045999.2  1.0  1.0  5  0 282220233
[01]  G11  f 45   1074.2 2045998.6  1.0  1.0  5  0 282220232
[02]  G17  f 44  -2039.1 2046002.7  1.0  1.0  5  0 282220222
[03]  G19  f 43  -2842.8 2046003.7  1.0  1.0  5  0 282220216
[04]  G28  f 42  -2681.6 2046003.5  1.0  1.0  5  0 282220227
[05]  G30  f 39    970.5 2045998.8  1.0  1.0  5  0 282220229
[06]  G08  f 37   1682.1 2045997.8  1.0  1.0  5  0 282220223
[07]  G18  f 36   2114.1 2045997.3  1.0  0.9  5  0 282220230
[16]  B08 1f 37   -411.0 4092001.0  1.0  1.0  5  0 282206180
[17]  B10 1f 37   -663.6 4092001.7  1.0  1.0  5  0 282206180
[18]  B29 1f 45  -1726.7 4092004.5  1.0  1.0  5  0 282206222
[19]  B30 1f 41    368.4 4091999.0  1.0  1.0  5  0 282206227
[20]  B05 1f 30   -356.1 4092000.7  0.9  0.0  2  0 282206167
$GNGGA,000000.000,,,,,0,00,,,M,,,,0000*2B
$GNRMC,000000.000,A,,,,,,,000000,,*26
$GPGSA,A,1,,,,,,,,,,,,,,,*1E
$BDGSA,A,1,,,,,,,,,,,,,,,*0F
$GPGSV,2,1,08,01,00,000,39,11,00,000,45,17,00,000,44,19,00,000,43*71
$GPGSV,2,2,08,28,00,000,42,30,00,000,39,08,00,000,37,18,00,000,36*74
$BDGSV,2,1,05,08,00,000,37,10,00,000,37,29,00,000,45,30,00,000,41*6B
$BDGSV,2,2,05,05,00,000,30*5B
$LOGTIM,0,0.000000,0.000000,0.000000,0.000000,0.000*0A
EndT:        0
---00000037--- Acq_st=7 2019-5-22 06:23:24 
[00]  G01  f 39    595.2 2045999.2  1.0  1.0  5  0 282221233
[01]  G11  f 45   1075.3 2045998.6  1.0  1.0  5  0 282221232
[02]  G17  f 44  -2038.9 2046002.6  1.0  1.0  5  0 282221222
[03]  G19  f 42  -2842.2 2046003.7  1.0  1.0  5  0 282221216
[04]  G28  f 41  -2681.1 2046003.5  1.0  1.0  5  0 282221227
[05]  G30  f 40    971.1 2045998.8  1.0  1.0  5  0 282221229
[06]  G08  f 37   1682.8 2045997.8  1.0  1.0  5  0 282221223
[07]  G18  f 36   2115.8 2045997.2  1.0  1.0  5  0 282221230
[16]  B08 1f 36   -410.1 4092001.1  1.0  1.0  5  0 282207180
[17]  B10 1f 37   -662.4 4092001.7  1.0  1.0  5  0 282207180
[18]  B29 1f 45  -1725.7 4092004.5  1.0  1.0  5  0 282207222
[19]  B30 1f 41    369.6 4091999.0  1.0  1.0  5  0 282207227
[20]  B05 1f 31   -355.6 4092000.8  0.8  0.0  2  0 282207167
lsq: nits= 4
$GNGGA,062324.301,3112.7171,N,12136.4171,E,1,05,4.0,116.9,M,,,,0000*19
$GNRMC,062324.301,A,3112.7171,N,12136.4171,E,0.04,0.00,220519,,*12
$GPGSA,A,3,01,11,17,19,28,,,,,,,,6.3,4.0,4.9*3B
$BDGSA,A,3,,,,,,,,,,,,,6.3,4.0,4.9*2F
$GPGSV,2,1,08,01,00,000,39,11,00,000,45,17,00,000,44,19,00,000,42*70
$GPGSV,2,2,08,28,00,000,41,30,00,000,40,08,00,000,37,18,00,000,36*79
$BDGSV,2,1,05,08,00,000,36,10,00,000,37,29,00,000,45,30,00,000,41*6A
$BDGSV,2,2,05,05,00,000,31*5A
$LOGTIM,1,9868103.554928,0.000000,0.000000,0.000000,-63.132*19
EndT:        1
---00000038--- Acq_st=3 2019-5-22 06:23:24 
[00]  G01  f 38    597.2 2045999.3  1.0  1.0  5  0 282222233
[01]  G11  f 45   1076.2 2045998.6  1.0  1.0  5  0 282222232
[02]  G17  f 44  -2038.2 2046002.6  1.0  1.0  5  0 282222222
[03]  G19  f 43  -2841.4 2046003.7  1.0  1.0  5  0 282222216
[04]  G28  f 41  -2680.4 2046003.5  1.0  1.0  5  0 282222227
[05]  G30  f 39    972.7 2045998.8  1.0  1.0  5  0 282222229
[06]  G08  f 36   1683.4 2045997.8  1.0  1.0  5  0 282222223
[07]  G18  f 36   2116.6 2045997.3  1.0  1.0  5  0 282222230
[16]  B08 1f 36   -409.9 4092001.1  1.0  1.0  5  0 282208180
[17]  B10 1f 37   -662.1 4092001.8  1.0  1.0  5  0 282208180
[18]  B29 1f 45  -1724.8 4092004.5  1.0  1.0  5  0 282208222
[19]  B30 1f 41    369.8 4091999.0  1.0  1.0  5  0 282208227
[20]  B05 1f 30   -355.5 4092001.0  0.9  0.0  2  0 282208167
lsq: nits= 2
$GNGGA,062326.000,3112.7007,N,12136.4131,E,1,05,4.0,148.0,M,,,,0000*1F
$GNRMC,062326.000,A,3112.7007,N,12136.4131,E,1.98,213.17,220519,,*14
$GPGSA,A,3,01,11,17,19,28,,,,,,,,6.3,4.0,4.9*3B
$BDGSA,A,3,,,,,,,,,,,,,6.3,4.0,4.9*2F
$GPGSV,2,1,08,01,00,000,38,11,00,000,45,17,00,000,44,19,00,000,43*70
$GPGSV,2,2,08,28,00,000,41,30,00,000,39,08,00,000,36,18,00,000,36*76
$BDGSV,2,1,05,08,00,000,36,10,00,000,37,29,00,000,45,30,00,000,41*6A
$BDGSV,2,2,05,05,00,000,30*5B
$LOGTIM,1,-96.789651,0.000000,0.000000,0.000000,-61.856*0C
EndT:        2
---00000039--- Acq_st=3 2019-5-22 06:23:26 
[00]  G01  f 37    597.8 2045999.2  1.0  0.9  5  0 282223932
[01]  G11  f 45   1076.6 2045998.6  1.0  1.0  5  0 282223931
[02]  G17  f 44  -2037.9 2046002.6  1.0  1.0  5  0 282223921
[03]  G19  f 42  -2841.4 2046003.7  1.0  1.0  5  0 282223915
[04]  G28  f 42  -2679.9 2046003.5  1.0  1.0  5  0 282223926
[05]  G30  f 39    973.7 2045998.8  1.0  1.0  5  0 282223928
[06]  G08  f 37   1683.9 2045997.8  1.0  1.0  5  0 282223922
[07]  G18  f 35   2117.8 2045997.3  1.0  1.0  5  0 282223929
[16]  B08 1f 36   -409.4 4092001.1  1.0  1.0  5  0 282209879
[17]  B10 1f 36   -661.4 4092001.8  1.0  1.0  5  0 282209879
[18]  B29 1f 45  -1724.8 4092004.5  1.0  1.0  5  0 282209921
[19]  B30 1f 41    370.7 4091999.0  1.0  1.0  5  0 282209926
[20]  B05 1f 30   -355.1 4092001.0  0.9  0.0  2  0 282209866
lsq: nits= 2
$GNGGA,062327.000,3112.6988,N,12136.4110,E,1,05,4.0,153.7,M,,,,0000*1F
$GNRMC,062327.000,A,3112.6988,N,12136.4110,E,2.11,217.66,220519,,*19
$GPGSA,A,3,01,11,17,19,28,,,,,,,,6.3,4.0,4.9*3B
$BDGSA,A,3,,,,,,,,,,,,,6.3,4.0,4.9*2F
$GPGSV,2,1,08,01,75,040,37,11,60,029,45,17,23,281,44,19,04,268,42*77
$GPGSV,2,2,08,28,44,324,42,30,00,000,39,08,00,000,37,18,00,000,35*72
$BDGSV,2,1,05,08,00,000,36,10,00,000,36,29,00,000,45,30,00,000,41*6B
$BDGSV,2,2,05,05,00,000,30*5B
$LOGTIM,1,-155.458333,0.000000,0.000000,0.000000,-61.963*3B
EndT:        2
---00000040--- Acq_st=3 2019-5-22 06:23:27 
[00]  G01  f 38    597.9 2045999.2  1.0  1.0  5  0 282224932
[01]  G11  f 45   1076.8 2045998.6  1.0  1.0  5  0 282224931
[02]  G17  f 43  -2038.0 2046002.6  1.0  1.0  5  0 282224921
[03]  G19  f 42  -2841.3 2046003.7  1.0  1.0  5  0 282224915
[04]  G28  f 42  -2680.1 2046003.5  1.0  1.0  5  0 282224926
[05]  G30  f 39    974.0 2045998.6  1.0  1.0  5  0 282224928
[06]  G08  f 36   1683.2 2045997.8  1.0  1.0  5  0 282224922
[07]  G18  f 35   2117.8 2045997.2  1.0  1.0  5  0 282224929
[16]  B08 1f 36   -409.3 4092001.1  1.0  1.0  5  0 282210879
[17]  B10 1f 36   -661.5 4092001.7  1.0  1.0  5  0 282210879
[18]  B29 1f 45  -1724.6 4092004.5  1.0  1.0  5  0 282210921
[19]  B30 1f 41    370.0 4091999.0  1.0  1.0  5  0 282210926
[20]  B05 1f 31   -355.4 4092000.7  0.9  0.0  2  0 282210866
lsq: nits= 2
$GNGGA,062328.000,3112.6975,N,12136.4093,E,1,05,4.0,157.5,M,,,,0000*1E
$GNRMC,062328.000,A,3112.6975,N,12136.4093,E,2.08,218.95,220519,,*15
$GPGSA,A,3,01,11,17,19,28,,,,,,,,6.3,4.0,4.9*3B
$BDGSA,A,3,,,,,,,,,,,,,6.3,4.0,4.9*2F
$GPGSV,2,1,08,01,75,040,38,11,60,029,45,17,23,281,43,19,04,268,42*7F
$GPGSV,2,2,08,28,44,324,42,30,00,000,39,08,00,000,36,18,00,000,35*73
$BDGSV,2,1,05,08,00,000,36,10,00,000,36,29,00,000,45,30,00,000,41*6B
$BDGSV,2,2,05,05,00,000,31*5A
$LOGTIM,1,-215.399603,0.000000,0.000000,0.000000,-61.961*32
EndT:        2
---00000041--- Acq_st=3 2019-5-22 06:23:28 
[00]  G01  f 38    597.9 2045999.2  1.0  1.0  5  0 282225932
[01]  G11  f 46   1076.6 2045998.6  1.0  1.0  5  0 282225931
[02]  G17  f 44  -2038.5 2046002.6  1.0  1.0  5  0 282225921
[03]  G19  f 43  -2841.6 2046003.7  1.0  1.0  5  0 282225915
[04]  G28  f 41  -2680.8 2046003.5  1.0  1.0  5  0 282225926
[05]  G30  f 40    973.9 2045998.7  1.0  1.0  5  0 282225928
[06]  G08  f 38   1683.4 2045997.8  1.0  1.0  5  0 282225922
[07]  G18  f 34   2117.2 2045997.2  1.0  1.0  5  0 282225929
[16]  B08 1f 37   -409.7 4092001.1  1.0  1.0  5  0 282211879
[17]  B10 1f 36   -661.9 4092001.8  1.0  0.9  5  0 282211879
[18]  B29 1f 46  -1724.7 4092004.5  1.0  1.0  5  0 282211921
[19]  B30 1f 40    369.8 4091999.0  1.0  1.0  5  0 282211926
[20]  B05 1f 30   -355.6 4092001.0  0.9  0.0  2  0 282211866
lsq: nits= 2
$GNGGA,062329.000,3112.6956,N,12136.4063,E,1,05,4.0,164.1,M,,,,0000*15
$GNRMC,062329.000,A,3112.6956,N,12136.4063,E,2.48,211.97,220519,,*15
$GPGSA,A,3,01,11,17,19,28,,,,,,,,6.3,4.0,4.9*3B
$BDGSA,A,3,,,,,,,,,,,,,6.3,4.0,4.9*2F
$GPGSV,2,1,08,01,75,040,38,11,60,029,46,17,23,281,44,19,04,268,43*7A
$GPGSV,2,2,08,28,44,324,41,30,00,000,40,08,00,000,38,18,00,000,34*71
$BDGSV,2,1,05,08,00,000,37,10,00,000,36,29,00,000,46,30,00,000,40*68
$BDGSV,2,2,05,05,00,000,30*5B
$LOGTIM,1,-273.423941,0.000000,0.000000,0.000000,-61.825*3C
EndT:        2
---00000042--- Acq_st=3 2019-5-22 06:23:29 
[00]  G01  f 38    598.7 2045999.2  1.0  1.0  5  0 282226932
[01]  G11  f 46   1076.4 2045998.6  1.0  1.0  5  0 282226931
[02]  G17  f 43  -2038.7 2046002.7  1.0  1.0  5  0 282226921
[03]  G19  f 42  -2842.7 2046003.7  1.0  1.0  5  0 282226915
[04]  G28  f 41  -2681.1 2046003.5  1.0  1.0  5  0 282226926
[05]  G30  f 40    974.1 2045998.7  1.0  1.0  5  0 282226928
[06]  G08  f 37   1682.7 2045997.8  1.0  0.9  5  0 282226922
[07]  G18  f 34   2117.1 2045997.2  1.0  0.9  5  0 282226929
[16]  B08 1f 36   -410.7 4092001.1  1.0  1.0  5  0 282212879
[17]  B10 1f 36   -663.2 4092001.7  1.0  0.9  5  0 282212879
[18]  B29 1f 45  -1725.3 4092004.5  1.0  1.0  5  0 282212921
[19]  B30 1f 41    369.7 4091999.1  1.0  1.0  5  0 282212926
[20]  B05 1f 30   -356.1 4092001.0  0.9  0.0  2  0 282212866
lsq: nits= 2
$GNGGA,062330.000,3112.6935,N,12136.4032,E,1,05,4.0,170.4,M,,,,0000*1C
$GNRMC,062330.000,A,3112.6935,N,12136.4032,E,2.89,213.12,220519,,*1E
$GPGSA,A,3,01,11,17,19,28,,,,,,,,6.3,4.0,4.9*3B
$BDGSA,A,3,,,,,,,,,,,,,6.3,4.0,4.9*2F
$GPGSV,2,1,08,01,75,040,38,11,60,029,46,17,23,281,43,19,04,268,42*7C
$GPGSV,2,2,08,28,44,324,41,30,00,000,40,08,00,000,37,18,00,000,34*7E
$BDGSV,2,1,05,08,00,000,36,10,00,000,36,29,00,000,45,30,00,000,41*6B
$BDGSV,2,2,05,05,00,000,30*5B
$LOGTIM,1,-331.922231,0.000000,0.000000,0.000000,-61.648*3E
EndT:        2
---00000043--- Acq_st=3 2019-5-22 06:23:30 
[00]  G01  f 38    598.3 2045999.1  1.0  1.0  5  0 282227932
[01]  G11  f 46   1076.5 2045998.6  1.0  1.0  5  0 282227931
[02]  G17  f 44  -2038.8 2046002.6  1.0  1.0  5  0 282227921
[03]  G19  f 42  -2842.4 2046003.7  1.0  1.0  5  0 282227915
[04]  G28  f 41  -2680.9 2046003.5  1.0  1.0  5  0 282227926
[05]  G30  f 40    974.5 2045998.8  1.0  1.0  5  0 282227928
[06]  G08  f 37   1682.4 2045997.7  1.0  1.0  5  0 282227922
[07]  G18  f 35   2117.5 2045997.2  1.0  1.0  5  0 282227929
[16]  B08 1f 36   -410.5 4092001.1  1.0  0.9  5  0 282213879
[17]  B10 1f 36   -662.4 4092001.7  1.0  1.0  5  0 282213879
[18]  B29 1f 45  -1725.4 4092004.5  1.0  1.0  5  0 282213921
[19]  B30 1f 41    369.6 4091999.0  1.0  1.0  5  0 282213926
[20]  B05 1f 30   -357.1 4092000.8  0.9  0.0  2  0 282213866
lsq: nits= 2
$GNGGA,062331.000,3112.7048,N,12136.4085,E,1,08,1.7,141.5,M,,,,0000*1F
$GNRMC,062331.000,A,3112.7048,N,12136.4085,E,0.69,213.12,220519,,*1D
$GPGSA,A,3,01,08,11,17,18,19,28,30,,,,,2.3,1.7,1.5*36
$BDGSA,A,3,,,,,,,,,,,,,2.3,1.7,1.5*20
$GPGSV,2,1,08,01,75,040,38,11,60,029,46,17,23,281,44,19,04,268,42*7B
$GPGSV,2,2,08,28,44,324,41,30,00,000,40,08,00,000,37,18,00,000,35*7F
$BDGSV,2,1,05,08,00,000,36,10,00,000,36,29,00,000,45,30,00,000,41*6B
$BDGSV,2,2,05,05,00,000,30*5B
$LOGTIM,1,-408.949824,0.000000,0.000000,0.000000,-63.240*3E
EndT:        3
---00000044--- Acq_st=3 2019-5-22 06:23:31 
[00]  G01  f 39    599.7 2045999.2  1.0  1.0  5  0 282228932
[01]  G11  f 46   1077.5 2045998.6  1.0  1.0  5  0 282228931
[02]  G17  f 43  -2038.4 2046002.7  1.0  1.0  5  0 282228921
[03]  G19  f 42  -2841.9 2046003.7  1.0  1.0  5  0 282228915
[04]  G28  f 40  -2680.4 2046003.5  1.0  1.0  5  0 282228926
[05]  G30  f 40    975.2 2045998.8  1.0  1.0  5  0 282228928
[06]  G08  f 37   1682.4 2045997.7  1.0  1.0  5  0 282228922
[07]  G18  f 35   2118.2 2045997.2  1.0  0.9  5  0 282228929
[16]  B08 1f 36   -410.2 4092001.1  1.0  1.0  5  0 282214879
[17]  B10 1f 36   -662.2 4092001.7  1.0  1.0  5  0 282214879
[18]  B29 1f 45  -1724.8 4092004.5  1.0  1.0  5  0 282214921
[19]  B30 1f 40    370.2 4091999.0  1.0  1.0  5  0 282214926
[20]  B05 1f 31   -356.1 4092001.0  0.8  0.0  2  0 282214866
lsq: nits= 2
$GNGGA,062332.000,3112.7092,N,12136.4098,E,1,08,1.7,129.1,M,,,,0000*1D
$GNRMC,062332.000,A,3112.7092,N,12136.4098,E,0.60,213.12,220519,,*1C
$GPGSA,A,3,01,08,11,17,18,19,28,30,,,,,2.3,1.7,1.5*36
$BDGSA,A,3,,,,,,,,,,,,,2.3,1.7,1.5*20
$GPGSV,2,1,08,01,75,040,39,11,60,029,46,17,23,281,43,19,04,268,42*7D
$GPGSV,2,2,08,28,44,324,40,30,45,244,40,08,27,063,37,18,47,041,35*7B
$BDGSV,2,1,05,08,00,000,36,10,00,000,36,29,00,000,45,30,00,000,40*6A
$BDGSV,2,2,05,05,00,000,31*5A
$LOGTIM,1,-477.609524,0.000000,0.000000,0.000000,-63.311*35
EndT:        3
---00000045--- Acq_st=3 2019-5-22 06:23:32 
[00]  G01  f 39    602.7 2045999.2  1.0  1.0  5  0 282229932
[01]  G11  f 46   1080.1 2045998.6  1.0  1.0  5  0 282229931
[02]  G17  f 43  -2036.0 2046002.7  1.0  1.0  5  0 282229921
[03]  G19  f 42  -2839.5 2046003.7  1.0  1.0  5  0 282229915
[04]  G28  f 40  -2677.6 2046003.5  1.0  1.0  5  0 282229926
[05]  G30  f 39    977.9 2045998.7  1.0  1.0  5  0 282229928
[06]  G08  f 37   1684.6 2045997.9  1.0  1.0  5  0 282229922
[07]  G18  f 34   2121.7 2045997.3  1.0  0.9  5  0 282229929
[16]  B08 1f 36   -407.5 4092001.1  1.0  1.0  5  0 282215879
[17]  B10 1f 36   -659.4 4092001.7  1.0  1.0  5  0 282215879
[18]  B29 1f 45  -1722.2 4092004.5  1.0  1.0  5  0 282215921
[19]  B30 1f 41    372.7 4091999.1  1.0  1.0  5  0 282215926
[20]  B05 1f 30   -354.0 4092000.8  0.9  0.0  2  0 282215866
lsq: nits= 2
$GNGGA,062333.000,3112.7118,N,12136.4097,E,1,08,1.7,121.7,M,,,,0000*1E
$GNRMC,062333.000,A,3112.7118,N,12136.4097,E,0.52,213.12,220519,,*10
$GPGSA,A,3,01,08,11,17,18,19,28,30,,,,,2.3,1.7,1.5*36
$BDGSA,A,3,,,,,,,,,,,,,2.3,1.7,1.5*20
$GPGSV,2,1,08,01,75,040,39,11,60,029,46,17,23,281,43,19,04,268,42*7D
$GPGSV,2,2,08,28,44,324,40,30,45,244,39,08,27,063,37,18,47,041,34*74
$BDGSV,2,1,05,08,00,000,36,10,00,000,36,29,00,000,45,30,00,000,41*6B
$BDGSV,2,2,05,05,00,000,30*5B
$LOGTIM,1,-542.549275,0.000000,0.000000,0.000000,-62.999*3D
EndT:        3
---00000046--- Acq_st=3 2019-5-22 06:23:33 
[00]  G01  f 40    605.2 2045999.2  1.0  1.0  5  0 282230932
[01]  G11  f 45   1082.5 2045998.6  1.0  1.0  5  0 282230931
[02]  G17  f 44  -2033.8 2046002.6  1.0  1.0  5  0 282230921
[03]  G19  f 42  -2837.3 2046003.7  1.0  1.0  5  0 282230915
[04]  G28  f 41  -2675.4 2046003.5  1.0  1.0  5  0 282230926
[05]  G30  f 40    980.7 2045998.7  1.0  1.0  5  0 282230928
[06]  G08  f 36   1687.3 2045997.9  1.0  1.0  5  0 282230922
[07]  G18  f 32   2124.1 2045997.3  1.0  0.9  5  0 282230929
[16]  B08 1f 36   -405.5 4092001.0  1.0  0.9  5  0 282216879
[17]  B10 1f 36   -657.1 4092001.7  1.0  1.0  5  0 282216879
[18]  B29 1f 45  -1719.9 4092004.5  1.0  1.0  5  0 282216921
[19]  B30 1f 41    375.1 4091999.0  1.0  1.0  5  0 282216926
[20]  B05 1f 30   -351.8 4092000.7  0.8  0.0  2  0 282216866
lsq: nits= 2
$GNGGA,062334.000,3112.7136,N,12136.4101,E,1,08,1.7,116.7,M,,,,0000*1F
$GNRMC,062334.000,A,3112.7136,N,12136.4101,E,0.51,213.12,220519,,*16
$GPGSA,A,3,01,08,11,17,18,19,28,30,,,,,2.3,1.7,1.5*36
$BDGSA,A,3,,,,,,,,,,,,,2.3,1.7,1.5*20
$GPGSV,2,1,08,01,75,040,40,11,60,029,45,17,23,281,44,19,04,268,42*77
$GPGSV,2,2,08,28,44,324,41,30,45,244,40,08,27,063,36,18,47,041,32*7C
$BDGSV,2,1,05,08,00,000,36,10,00,000,36,29,00,000,45,30,00,000,41*6B
$BDGSV,2,2,05,05,00,000,30*5B
$LOGTIM,1,-606.768668,0.000000,0.000000,0.000000,-63.006*39
EndT:        3
---00000047--- Acq_st=3 2019-5-22 06:23:34 
[00]  G01  f 40    604.9 2045999.2  1.0  1.0  5  0 282231932
[01]  G11  f 45   1081.8 2045998.6  1.0  1.0  5  0 282231931
[02]  G17  f 44  -2035.2 2046002.7  1.0  1.0  5  0 282231921
[03]  G19  f 42  -2838.5 2046003.7  1.0  1.0  5  0 282231915
[04]  G28  f 41  -2676.9 2046003.5  1.0  1.0  5  0 282231926
[05]  G30  f 41    980.3 2045998.7  1.0  1.0  5  0 282231928
[06]  G08  f 36   1686.2 2045997.9  1.0  1.0  5  0 282231922
[07]  G18  f 31   2122.9 2045997.2  0.9  0.9  5  0 282231929
[16]  B08 1f 36   -406.6 4092001.0  1.0  1.0  5  0 282217879
[17]  B10 1f 36   -659.1 4092001.7  1.0  1.0  5  0 282217879
[18]  B29 1f 45  -1720.9 4092004.5  1.0  1.0  5  0 282217921
[19]  B30 1f 41    374.2 4091999.0  1.0  1.0  5  0 282217926
[20]  B05 1f 30   -352.8 4092001.1  0.9  0.0  2  0 282217866
lsq: nits= 2
$GNGGA,062335.000,3112.7182,N,12136.4116,E,1,08,1.7,108.5,M,,,,0000*1A
$GNRMC,062335.000,A,3112.7182,N,12136.4116,E,0.88,213.12,220519,,*1A
$GPGSA,A,3,01,08,11,17,18,19,28,30,,,,,2.3,1.7,1.5*36
$BDGSA,A,3,,,,,,,,,,,,,2.3,1.7,1.5*20
$GPGSV,2,1,08,01,75,040,40,11,60,029,45,17,23,281,44,19,04,268,42*77
$GPGSV,2,2,08,28,44,324,41,30,45,244,41,08,27,063,36,18,47,041,31*7E
$BDGSV,2,1,05,08,00,000,36,10,00,000,36,29,00,000,45,30,00,000,41*6B
$BDGSV,2,2,05,05,00,000,30*5B
$LOGTIM,1,-672.540509,0.000000,0.000000,0.000000,-63.258*3F
EndT:        3
---00000048--- Acq_st=3 2019-5-22 06:23:35 
[00]  G01  f 40    603.6 2045999.2  1.0  1.0  5  0 282232932
[01]  G11  f 45   1080.3 2045998.6  1.0  1.0  5  0 282232931
[02]  G17  f 43  -2036.7 2046002.7  1.0  1.0  5  0 282232921
[03]  G19  f 42  -2840.3 2046003.7  1.0  1.0  5  0 282232915
[04]  G28  f 41  -2678.4 2046003.5  1.0  1.0  5  0 282232926
[05]  G30  f 41    979.0 2045998.7  1.0  1.0  5  0 282232928
[06]  G08  f 36   1684.5 2045997.8  1.0  1.0  5  0 282232922
[07]  G18  f 33   2121.1 2045997.2  1.0  0.9  5  0 282232929
[16]  B08 1f 36   -407.3 4092001.0  1.0  1.0  5  0 282218879
[17]  B10 1f 36   -660.2 4092001.8  1.0  1.0  5  0 282218879
[18]  B29 1f 45  -1722.8 4092004.5  1.0  1.0  5  0 282218921
[19]  B30 1f 41    371.9 4091999.0  1.0  1.0  5  0 282218926
[20]  B05 1f 29   -354.9 4092000.8  0.9  0.0  2  0 282218866
lsq: nits= 2
$GNGGA,062336.000,3112.7208,N,12136.4113,E,1,08,1.7,107.5,M,,,,0000*12
$GNRMC,062336.000,A,3112.7208,N,12136.4113,E,0.93,213.12,220519,,*17
$GPGSA,A,3,01,08,11,17,18,19,28,30,,,,,2.3,1.7,1.5*36
$BDGSA,A,3,,,,,,,,,,,,,2.3,1.7,1.5*20
$GPGSV,2,1,08,01,75,040,40,11,60,029,45,17,23,281,43,19,04,268,42*70
$GPGSV,2,2,08,28,44,324,41,30,45,244,41,08,27,063,36,18,47,041,33*7C
$BDGSV,2,1,05,08,00,000,36,10,00,000,36,29,00,000,45,30,00,000,41*6B
$BDGSV,2,2,05,05,00,000,30*5B
$LOGTIM,1,-736.785737,0.000000,0.000000,0.000000,-63.200*37
EndT:        3
---00000049--- Acq_st=3 2019-5-22 06:23:36 
[00]  G01  f 41    606.2 2045999.2  1.0  1.0  5  0 282233932
[01]  G11  f 44   1083.1 2045998.6  1.0  1.0  5  0 282233931
[02]  G17  f 44  -2034.2 2046002.7  1.0  1.0  5  0 282233921
[03]  G19  f 41  -2838.2 2046003.7  1.0  1.0  5  0 282233915
[04]  G28  f 40  -2676.1 2046003.5  1.0  1.0  5  0 282233926
[05]  G30  f 40    981.6 2045998.7  1.0  1.0  5  0 282233928
[06]  G08  f 36   1686.9 2045997.8  1.0  1.0  5  0 282233922
[07]  G18  f 34   2123.7 2045997.2  1.0  0.9  5  0 282233929
[16]  B08 1f 36   -405.3 4092001.0  1.0  1.0  5  0 282219879
[17]  B10 1f 36   -657.7 4092001.7  1.0  0.9  5  0 282219879
[18]  B29 1f 45  -1719.7 4092004.5  1.0  1.0  5  0 282219921
[19]  B30 1f 41    374.3 4091999.0  1.0  0.9  5  0 282219926
[20]  B05 1f 30   -351.8 4092000.9  0.9  0.0  2  0 282219866
lsq: nits= 2
$GNGGA,062337.000,3112.7222,N,12136.4110,E,1,08,1.7,108.0,M,,,,0000*12
$GNRMC,062337.000,A,3112.7222,N,12136.4110,E,0.71,213.12,220519,,*11
$GPGSA,A,3,01,08,11,17,18,19,28,30,,,,,2.3,1.7,1.5*36
$BDGSA,A,3,,,,,,,,,,,,,2.3,1.7,1.5*20
$GPGSV,2,1,08,01,75,040,41,11,60,029,44,17,23,281,44,19,04,268,41*74
$GPGSV,2,2,08,28,44,324,40,30,45,244,40,08,27,063,36,18,47,041,34*7B
$BDGSV,2,1,05,08,00,000,36,10,00,000,36,29,00,000,45,30,00,000,41*6B
$BDGSV,2,2,05,05,00,000,30*5B
$LOGTIM,1,-800.357487,0.000000,0.000000,0.000000,-62.801*34
EndT:        3
---00000050--- Acq_st=3 2019-5-22 06:23:37 
[00]  G01  f 42    609.5 2045999.1  1.0  1.0  5  0 282234932
[01]  G11  f 44   1085.8 2045998.6  1.0  1.0  5  0 282234931
[02]  G17  f 44  -2031.8 2046002.6  1.0  1.0  5  0 282234921
[03]  G19  f 41  -2835.2 2046003.7  1.0  1.0  5  0 282234915
[04]  G28  f 40  -2673.5 2046003.5  1.0  1.0  5  0 282234926
[05]  G30  f 40    984.7 2045998.7  1.0  1.0  5  0 282234928
[06]  G08  f 35   1688.9 2045997.9  1.0  1.0  5  0 282234922
[07]  G18  f 35   2127.5 2045997.2  1.0  1.0  5  0 282234929
[16]  B08 1f 36   -402.5 4092001.1  1.0  1.0  5  0 282220879
[17]  B10 1f 36   -655.1 4092001.7  1.0  1.0  5  0 282220879
[18]  B29 1f 45  -1717.3 4092004.5  1.0  1.0  5  0 282220921
[19]  B30 1f 41    377.4 4091999.0  1.0  1.0  5  0 282220926
[20]  B05 1f 32   -349.8 4092001.0  0.9  0.0  2  0 282220866
lsq: nits= 2
$GNGGA,062338.000,3112.7238,N,12136.4120,E,1,08,1.7,105.5,M,,,,0000*1D
$GNRMC,062338.000,A,3112.7238,N,12136.4120,E,0.78,213.12,220519,,*1F
$GPGSA,A,3,01,08,11,17,18,19,28,30,,,,,2.3,1.7,1.5*36
$BDGSA,A,3,,,,,,,,,,,,,2.3,1.7,1.5*20
$GPGSV,2,1,08,01,75,040,42,11,60,029,44,17,23,281,44,19,04,268,41*77
$GPGSV,2,2,08,28,44,324,40,30,45,244,40,08,27,063,35,18,47,041,35*79
$BDGSV,2,1,05,08,00,000,36,10,00,000,36,29,00,000,45,30,00,000,41*6B
$BDGSV,2,2,05,05,00,000,32*59
$LOGTIM,1,-864.673927,0.000000,0.000000,0.000000,-62.759*30
EndT:        3
---00000051--- Acq_st=3 2019-5-22 06:23:38 
[00]  G01  f 42    609.7 2045999.2  1.0  1.0  5  0 282235932
[01]  G11  f 44   1085.8 2045998.6  1.0  1.0  5  0 282235931
[02]  G17  f 45  -2032.3 2046002.6  1.0  1.0  5  0 282235921
[03]  G19  f 42  -2835.6 2046003.7  1.0  1.0  5  0 282235915
[04]  G28  f 41  -2673.5 2046003.5  1.0  1.0  5  0 282235926
[05]  G30  f 41    985.2 2045998.7  1.0  1.0  5  0 282235928
[06]  G08  f 36   1688.1 2045997.8  1.0  0.9  5  0 282235922
[07]  G18  f 33   2126.8 2045997.3  1.0  0.9  5  0 282235929
[16]  B08 1f 36   -403.2 4092001.0  1.0  0.9  5  0 282221879
[17]  B10 1f 37   -656.0 4092001.7  1.0  1.0  5  0 282221879
[18]  B29 1f 45  -1717.8 4092004.5  1.0  1.0  5  0 282221921
[19]  B30 1f 41    376.9 4091999.0  1.0  1.0  5  0 282221926
[20]  B05 1f 31   -350.3 4092001.0  0.9  0.0  2  0 282221866
lsq: nits= 2
$GNGGA,062339.000,3112.7259,N,12136.4134,E,1,08,1.7,101.5,M,,,,0000*1A
$GNRMC,062339.000,A,3112.7259,N,12136.4134,E,0.87,213.12,220519,,*1C
$GPGSA,A,3,01,08,11,17,18,19,28,30,,,,,2.3,1.7,1.5*36
$BDGSA,A,3,,,,,,,,,,,,,2.3,1.7,1.5*20
$GPGSV,2,1,08,01,75,040,42,11,60,029,44,17,23,281,45,19,04,268,42*75
$GPGSV,2,2,08,28,44,324,41,30,45,244,41,08,27,063,36,18,47,041,33*7C
$BDGSV,2,1,05,08,00,000,36,10,00,000,37,29,00,000,45,30,00,000,41*6A
$BDGSV,2,2,05,05,00,000,31*5A
$LOGTIM,1,-929.577222,0.000000,0.000000,0.000000,-62.954*32
EndT:        3
---00000052--- Acq_st=7 2019-5-22 06:23:39 
[00]  G01  f 42    608.6 2045999.2  1.0  1.0  5  0 282236932
[01]  G11  f 43   1084.5 2045998.6  1.0  1.0  5  0 282236931
[02]  G17  f 45  -2033.9 2046002.6  1.0  1.0  5  0 282236921
[03]  G19  f 42  -2837.3 2046003.7  1.0  1.0  5  0 282236915
[04]  G28  f 41  -2675.4 2046003.5  1.0  1.0  5  0 282236926
[05]  G30  f 40    984.1 2045998.7  1.0  1.0  5  0 282236928
[06]  G08  f 35   1686.7 2045997.9  1.0  1.0  5  0 282236922
[07]  G18  f 35   2125.4 2045997.2  1.0  0.9  5  0 282236929
[16]  B08 1f 36   -404.7 4092001.0  1.0  1.0  5  0 282222879
