FlashID=0x1 0x20 0x18
BBram_blkflag1: 1d36: e2c9
FW Ver: 1.30  
GPS00 Init Dop:   5000, 40
GPS01 Init Dop:   5000, 40
GPS02 Init Dop:   5000, 40
GPS03 Init Dop:   5000, 40
GPS04 Init Dop:   5000, 40
GPS05 Init Dop:   5000, 40
GPS06 Init Dop:   5000, 40
GPS07 Init Dop:   5000, 40
GPS08 Init Dop:   5000, 40
GPS09 Init Dop:   5000, 40
GPS10 Init Dop:   5000, 40
GPS11 Init Dop:   5000, 40
GPS12 Init Dop:   5000, 40
GPS13 Init Dop:   5000, 40
GPS14 Init Dop:   5000, 40
GPS15 Init Dop:   5000, 40
GPS16 Init Dop:   5000, 40
GPS17 Init Dop:   5000, 40
GPS18 Init Dop:   5000, 40
GPS19 Init Dop:   5000, 40
GPS20 Init Dop:   5000, 40
GPS21 Init Dop:   5000, 40
GPS22 Init Dop:   5000, 40
GPS23 Init Dop:   5000, 40
GPS24 Init Dop:   5000, 40
GPS25 Init Dop:   5000, 40
GPS26 Init Dop:   5000, 40
GPS27 Init Dop:   5000, 40
GPS28 Init Dop:   5000, 40
GPS29 Init Dop:   5000, 40
GPS30 Init Dop:   5000, 40
GPS31 Init Dop:   5000, 40
BDS00 Init Dop:   5000, 40
BDS01 Init Dop:   5000, 40
BDS02 Init Dop:   5000, 40
BDS03 Init Dop:   5000, 40
BDS04 Init Dop:   5000, 40
BDS05 Init Dop:   5000, 40
BDS06 Init Dop:   5000, 40
BDS07 Init Dop:   5000, 40
BDS08 Init Dop:   5000, 40
BDS09 Init Dop:   5000, 40
BDS10 Init Dop:   5000, 40
BDS11 Init Dop:   5000, 40
BDS12 Init Dop:   5000, 40
BDS13 Init Dop:   5000, 40
BDS14 Init Dop:   5000, 40
BDS15 Init Dop:   5000, 40
BDS16 Init Dop:   5000, 40
BDS17 Init Dop:   5000, 40
BDS18 Init Dop:   5000, 40
BDS19 Init Dop:   5000, 40
BDS20 Init Dop:   5000, 40
BDS21 Init Dop:   5000, 40
BDS22 Init Dop:   5000, 40
BDS23 Init Dop:   5000, 40
BDS24 Init Dop:   5000, 40
BDS25 Init Dop:   5000, 40
BDS26 Init Dop:   5000, 40
BDS27 Init Dop:   5000, 40
BDS28 Init Dop:   5000, 40
BDS29 Init Dop:   5000, 40
BDS30 Init Dop:   5000, 40
BDS31 Init Dop:   5000, 40
good luck!
---00000001--- Acq_st=3 2019-5-22 06:28:47 
[00]  G01  1 26    797.5 2045999.6 -0.2  0.0  1  0         0
$GNGGA,000000.000,,,,,0,00,,,M,,,,0000*2B
$GNRMC,000000.000,A,,,,,,,000000,,*26
$GPGSA,A,1,,,,,,,,,,,,,,,*1E
$BDGSA,A,1,,,,,,,,,,,,,,,*0F
$LOGTIM,0,0.000000,0.000000,0.000000,0.000000,0.000*0A
EndT:        0
---00000002--- Acq_st=3 2019-5-22 06:28:48 
[00]  G01  7 28    786.9 2045998.8  0.0  1.0 10  0         3
[01]  G08  1 19   1707.9 2045999.5  0.0  0.0  1  0         0
$GNGGA,000000.000,,,,,0,00,,,M,,,,0000*2B
$GNRMC,000000.000,A,,,,,,,000000,,*26
$GPGSA,A,1,,,,,,,,,,,,,,,*1E
$BDGSA,A,1,,,,,,,,,,,,,,,*0F
$GPGSV,1,1,01,01,00,000,28*43
$LOGTIM,0,0.000000,0.000000,0.000000,0.000000,0.000*0A
EndT:        0
---00000003--- Acq_st=3 2019-5-22 06:28:49 
[00]  G01  7 38    787.3 2045998.9  0.8  1.0  5  0        12
[01]  G08  7 20   1695.1 2045997.7  0.2  0.0 20  0         5
[02]  G11  1 27   1187.4 2045998.4  0.1  0.0  1  0         0
$GNGGA,000000.000,,,,,0,00,,,M,,,,0000*2B
$GNRMC,000000.000,A,,,,,,,000000,,*26
$GPGSA,A,1,,,,,,,,,,,,,,,*1E
$BDGSA,A,1,,,,,,,,,,,,,,,*0F
$GPGSV,1,1,02,01,00,000,38,08,00,000,20*7B
$LOGTIM,0,0.000000,0.000000,0.000000,0.000000,0.000*0A
EndT:        0
---00000004--- Acq_st=3 2019-5-22 06:28:50 
[00]  G01  7 38    787.9 2045998.9  1.0  1.0  5  0        12
[01]  G08  7 38   1695.2 2045997.8  0.9  1.0  5  0         2
[02]  G11  7 30   1191.6 2045998.4  0.7  1.0  5  0         0
[03]  G17  1 28  -2010.6 2046003.4 -0.0  0.0  1  0         0
[04]  G18  1 23   2246.0 2045998.3 -0.1  0.0  1  0         0
[05]  G19  1  7  -2698.7 2046003.9  0.0  0.0  1  0         0
$GNGGA,000000.000,,,,,0,00,,,M,,,,0000*2B
$GNRMC,000000.000,A,,,,,,,000000,,*26
$GPGSA,A,1,,,,,,,,,,,,,,,*1E
$BDGSA,A,1,,,,,,,,,,,,,,,*0F
$GPGSV,1,1,03,01,00,000,38,08,00,000,38,11,00,000,30*40
$LOGTIM,0,0.000000,0.000000,0.000000,0.000000,0.000*0A
EndT:        0
---00000005--- Acq_st=3 2019-5-22 06:28:51 
[00]  G01  7 38    788.8 2045999.0  1.0  1.0  5  0        12
[01]  G08  7 37   1695.3 2045997.7  1.0  1.0  5  0         2
[02]  G11  7 43   1191.8 2045998.4  1.0  1.0  5  0        10
[03]  G17  7 28  -2011.1 2046002.6  0.5  1.0 10  0        10
[04]  G18  7 23   2247.8 2045997.0  0.1  0.0 20  0         2
[05]  G19  1  7  -2594.1 2046004.2 -0.2  0.0  1  0        14
$GNGGA,000000.000,,,,,0,00,,,M,,,,0000*2B
$GNRMC,000000.000,A,,,,,,,000000,,*26
$GPGSA,A,1,,,,,,,,,,,,,,,*1E
$BDGSA,A,1,,,,,,,,,,,,,,,*0F
$GPGSV,2,1,05,01,00,000,38,08,00,000,37,11,00,000,43,17,00,000,28*72
$GPGSV,2,2,05,18,00,000,23*44
$LOGTIM,0,0.000000,0.000000,0.000000,0.000000,0.000*0A
EndT:        0
---00000006--- Acq_st=3 2019-5-22 06:28:52 
[00]  G01  7 37    791.5 2045999.0  1.0  1.0  5  0        12
[01]  G08  7 37   1697.7 2045997.8  1.0  1.0  5  0         2
[02]  G11  7 43   1194.4 2045998.4  1.0  1.0  5  0        10
[03]  G17  7 44  -2009.4 2046002.6  0.9  1.0  5  0         1
[04]  G18  7 37   2250.1 2045996.9  0.5  1.0  5  0         9
[05]  G19  1  7  -2349.7 2046005.8  0.1  0.0  1  0        14
[06]  G28  1 17  -2616.9 2046005.5  0.0  0.0  1  0         0
[07]  G30  1  7   1210.8 2046000.2 -0.0  0.0  1  0         0
$GNGGA,000000.000,,,,,0,00,,,M,,,,0000*2B
$GNRMC,000000.000,A,,,,,,,000000,,*26
$GPGSA,A,1,,,,,,,,,,,,,,,*1E
$BDGSA,A,1,,,,,,,,,,,,,,,*0F
$GPGSV,2,1,05,01,00,000,37,08,00,000,37,11,00,000,43,17,00,000,44*77
$GPGSV,2,2,05,18,00,000,37*41
$LOGTIM,0,0.000000,0.000000,0.000000,0.000000,0.000*0A
EndT:        0
---00000007--- Acq_st=3 2019-5-22 06:28:53 
[00]  G01  7 36    789.8 2045998.9  1.0  1.0  5  0        12
[01]  G08  7 38   1695.7 2045997.7  1.0  1.0  5  0         2
[02]  G11  7 43   1192.7 2045998.4  1.0  1.0  5  0        10
[03]  G17  7 44  -2011.2 2046002.6  1.0  1.0  5  0         1
[04]  G18  7 36   2248.6 2045997.0  1.0  1.0  5  0         9
[06]  G28  7 26  -2631.3 2046003.3  0.5  0.0 20  0        19
[07]  G30  7  7   1155.6 2045998.4 -0.0  0.0  5  0         2
$GNGGA,000000.000,,,,,0,00,,,M,,,,0000*2B
$GNRMC,000000.000,A,,,,,,,000000,,*26
$GPGSA,A,1,,,,,,,,,,,,,,,*1E
$BDGSA,A,1,,,,,,,,,,,,,,,*0F
$GPGSV,2,1,06,01,00,000,36,08,00,000,38,11,00,000,43,17,00,000,44*7A
$GPGSV,2,2,06,18,00,000,36,28,00,000,26*7D
$LOGTIM,0,0.000000,0.000000,0.000000,0.000000,0.000*0A
EndT:        0
---00000008--- Acq_st=3 2019-5-22 06:28:54 
[00]  G01  7 36    790.0 2045999.0  1.0  1.0  5  0        12
[01]  G08  7 37   1695.7 2045997.8  1.0  1.0  5  0         2
[02]  G11  7 44   1193.0 2045998.4  1.0  1.0  5  0        10
[03]  G17  7 44  -2011.2 2046002.6  1.0  1.0  5  0         1
[04]  G18  7 37   2248.6 2045997.1  1.0  1.0  5  0         9
[06]  G28  7 42  -2631.0 2046003.4  1.0  1.0  5  0         7
[07]  G30  7 35   1155.5 2045998.5  1.0  0.9  5  0         7
[16]  B05  1 10   5661.8 4092001.4  0.1  0.0  1  0         0
$GNGGA,000000.000,,,,,0,00,,,M,,,,0000*2B
$GNRMC,000000.000,A,,,,,,,000000,,*26
$GPGSA,A,1,,,,,,,,,,,,,,,*1E
$BDGSA,A,1,,,,,,,,,,,,,,,*0F
$GPGSV,2,1,07,01,00,000,36,08,00,000,37,11,00,000,44,17,00,000,44*73
$GPGSV,2,2,07,18,00,000,37,28,00,000,42,30,00,000,35*4A
$LOGTIM,0,0.000000,0.000000,0.000000,0.000000,0.000*0A
EndT:        0
---00000009--- Acq_st=3 2019-5-22 06:28:55 
[00]  G01  f 36    791.2 2045999.0  1.0  1.0  5  0        12
[01]  G08  f 37   1695.5 2045997.8  1.0  1.0  5  0         2
[02]  G11  f 43   1193.7 2045998.4  1.0  1.0  5  0        10
[03]  G17  f 44  -2010.8 2046002.6  1.0  1.0  5  0         1
[04]  G18  f 37   2250.5 2045997.0  1.0  1.0  5  0         9
[06]  G28  f 42  -2630.9 2046003.4  1.0  1.0  5  0         7
[07]  G30  f 36   1157.1 2045998.4  1.0  1.0  5  0         7
[16]  B05  1 10   -322.0 4092001.3  0.2  0.0  1  0        37
$GNGGA,000000.000,,,,,0,00,,,M,,,,0000*2B
$GNRMC,000000.000,A,,,,,,,000000,,*26
$GPGSA,A,1,,,,,,,,,,,,,,,*1E
$BDGSA,A,1,,,,,,,,,,,,,,,*0F
$GPGSV,2,1,07,01,00,000,36,08,00,000,37,11,00,000,43,17,00,000,44*74
$GPGSV,2,2,07,18,00,000,37,28,00,000,42,30,00,000,36*49
$LOGTIM,0,0.000000,0.000000,0.000000,0.000000,0.000*0A
EndT:        0
---00000010--- Acq_st=3 2019-5-22 06:28:56 
[00]  G01  f 35    792.6 2045998.9  1.0  1.0  5  0 282553772
[01]  G08  f 37   1697.3 2045997.8  1.0  1.0  5  0 282553762
[02]  G11  f 43   1195.0 2045998.4  1.0  1.0  5  0 282553770
[03]  G17  f 43  -2009.9 2046002.6  1.0  1.0  5  0 282553761
[04]  G18  f 38   2250.9 2045997.1  1.0  1.0  5  0 282553769
[06]  G28  f 42  -2629.6 2046003.4  1.0  1.0  5  0 282553767
[07]  G30  f 36   1158.6 2045998.5  1.0  1.0  5  0 282553767
[16]  B05 1f 29   -353.2 4092001.2  0.9  0.0  2  0      1037
[17]  B08  1  7   -368.3 4092001.1  0.1  0.0  1  0         0
[18]  B10  1  7   -555.1 4092001.0 -0.0  0.0  1  0         0
$GNGGA,000000.000,,,,,0,00,,,M,,,,0000*2B
$GNRMC,000000.000,A,,,,,,,000000,,*26
$GPGSA,A,1,,,,,,,,,,,,,,,*1E
$BDGSA,A,1,,,,,,,,,,,,,,,*0F
$GPGSV,2,1,07,01,00,000,35,08,00,000,37,11,00,000,43,17,00,000,43*70
$GPGSV,2,2,07,18,00,000,38,28,00,000,42,30,00,000,36*46
$BDGSV,1,1,01,05,00,000,29*57
$LOGTIM,0,0.000000,0.000000,0.000000,0.000000,0.000*0A
EndT:        0
---00000011--- Acq_st=3 2019-5-22 06:28:57 
[00]  G01  f 33    793.0 2045998.9  1.0  1.0  5  0 282554772
[01]  G08  f 37   1696.8 2045997.8  1.0  1.0  5  0 282554762
[02]  G11  f 43   1195.3 2045998.5  1.0  1.0  5  0 282554770
[03]  G17  f 43  -2009.8 2046002.6  1.0  1.0  5  0 282554761
[04]  G18  f 38   2252.1 2045997.0  1.0  1.0  5  0 282554769
[06]  G28  f 42  -2629.4 2046003.4  1.0  1.0  5  0 282554767
[07]  G30  f 36   1159.2 2045998.6  1.0  1.0  5  0 282554767
[16]  B05 1f 30   -352.9 4092001.0  0.8  0.0  2  0 282540706
[17]  B08  7 29   -366.5 4092001.0  0.0  1.0 10  0       880
[18]  B10  1  7   -627.0 4092001.9  0.1  0.0  1  0       109
$GNGGA,000000.000,,,,,0,00,,,M,,,,0000*2B
$GNRMC,000000.000,A,,,,,,,000000,,*26
$GPGSA,A,1,,,,,,,,,,,,,,,*1E
$BDGSA,A,1,,,,,,,,,,,,,,,*0F
$GPGSV,2,1,07,01,00,000,33,08,00,000,37,11,00,000,43,17,00,000,43*76
$GPGSV,2,2,07,18,00,000,38,28,00,000,42,30,00,000,36*46
$BDGSV,1,1,02,05,00,000,30,08,00,000,29*6F
$LOGTIM,0,0.000000,0.000000,0.000000,0.000000,0.000*0A
EndT:        0
---00000012--- Acq_st=3 2019-5-22 06:28:58 
[00]  G01  f 32    799.6 2045999.0  1.0  1.0  5  0 282555772
[01]  G08  f 37   1702.0 2045997.8  1.0  1.0  5  0 282555762
[02]  G11  f 43   1200.5 2045998.4  1.0  1.0  5  0 282555770
[03]  G17  f 43  -2004.6 2046002.6  1.0  1.0  5  0 282555761
[04]  G18  f 37   2256.6 2045997.1  1.0  1.0  5  0 282555769
[06]  G28  f 41  -2624.9 2046003.5  1.0  1.0  5  0 282555767
[07]  G30  f 35   1164.6 2045998.5  1.0  0.9  5  0 282555767
[16]  B05 1f 31   -348.3 4092000.7  0.9  0.0  2  0 282541706
[17]  B08  7 37   -362.8 4092001.0  0.9  1.0  5  0      1879
[18]  B10  7 31   -622.2 4092001.6  0.6  1.0  5  0      1109
$GNGGA,000000.000,,,,,0,00,,,M,,,,0000*2B
$GNRMC,000000.000,A,,,,,,,000000,,*26
$GPGSA,A,1,,,,,,,,,,,,,,,*1E
$BDGSA,A,1,,,,,,,,,,,,,,,*0F
$GPGSV,2,1,07,01,00,000,32,08,00,000,37,11,00,000,43,17,00,000,43*77
$GPGSV,2,2,07,18,00,000,37,28,00,000,41,30,00,000,35*49
$BDGSV,1,1,03,05,00,000,31,08,00,000,37,10,00,000,31*53
$LOGTIM,0,0.000000,0.000000,0.000000,0.000000,0.000*0A
EndT:        0
---00000013--- Acq_st=3 2019-5-22 06:28:59 
[00]  G01  f 33    802.2 2045998.9  1.0  1.0  5  0 282556772
[01]  G08  f 36   1704.8 2045997.8  1.0  1.0  5  0 282556762
[02]  G11  f 43   1203.0 2045998.4  1.0  1.0  5  0 282556770
[03]  G17  f 43  -2002.4 2046002.7  1.0  1.0  5  0 282556761
[04]  G18  f 37   2259.0 2045997.0  1.0  0.9  5  0 282556769
[06]  G28  f 40  -2622.1 2046003.5  1.0  1.0  5  0 282556767
[07]  G30  f 36   1166.5 2045998.5  1.0  1.0  5  0 282556767
[16]  B05 1f 30   -345.5 4092000.8  0.8  0.0  2  0 282542706
[17]  B08  7 37   -360.6 4092000.9  1.0  1.0  5  0      2879
[18]  B10  7 35   -620.3 4092001.7  1.0  0.9  5  0      2099
$GNGGA,000000.000,,,,,0,00,,,M,,,,0000*2B
$GNRMC,000000.000,A,,,,,,,000000,,*26
$GPGSA,A,1,,,,,,,,,,,,,,,*1E
$BDGSA,A,1,,,,,,,,,,,,,,,*0F
$GPGSV,2,1,07,01,00,000,33,08,00,000,36,11,00,000,43,17,00,000,43*77
$GPGSV,2,2,07,18,00,000,37,28,00,000,40,30,00,000,36*4B
$BDGSV,1,1,03,05,00,000,30,08,00,000,37,10,00,000,35*56
$LOGTIM,0,0.000000,0.000000,0.000000,0.000000,0.000*0A
EndT:        0
---00000014--- Acq_st=3 2019-5-22 06:29:0 
[00]  G01  f 31    800.6 2045999.2  1.0  1.0  5  0 282557772
[01]  G08  f 36   1702.7 2045997.8  1.0  1.0  5  0 282557762
[02]  G11  f 43   1201.7 2045998.4  1.0  1.0  5  0 282557770
[03]  G17  f 42  -2004.0 2046002.6  1.0  1.0  5  0 282557761
[04]  G18  f 36   2257.7 2045997.1  1.0  1.0  5  0 282557769
[06]  G28  f 40  -2624.0 2046003.4  1.0  1.0  5  0 282557767
[07]  G30  f 36   1166.7 2045998.5  1.0  1.0  5  0 282557767
[16]  B05 1f 31   -348.2 4092000.9  0.8  0.0  2  0 282543706
[17]  B08  7 37   -362.5 4092001.0  1.0  1.0  5  0      3879
[18]  B10  7 35   -621.7 4092001.7  1.0  1.0  5  0      3099
$GNGGA,000000.000,,,,,0,00,,,M,,,,0000*2B
$GNRMC,000000.000,A,,,,,,,000000,,*26
$GPGSA,A,1,,,,,,,,,,,,,,,*1E
$BDGSA,A,1,,,,,,,,,,,,,,,*0F
$GPGSV,2,1,07,01,00,000,31,08,00,000,36,11,00,000,43,17,00,000,42*74
$GPGSV,2,2,07,18,00,000,36,28,00,000,40,30,00,000,36*4A
$BDGSV,1,1,03,05,00,000,31,08,00,000,37,10,00,000,35*57
$LOGTIM,0,0.000000,0.000000,0.000000,0.000000,0.000*0A
EndT:        0
---00000015--- Acq_st=3 2019-5-22 06:29:1 
[00]  G01  f 30    802.2 2045999.1  1.0  0.9  5  0 282558772
[01]  G08  f 36   1704.4 2045997.9  1.0  1.0  5  0 282558762
[02]  G11  f 42   1203.9 2045998.4  1.0  1.0  5  0 282558770
[03]  G17  f 42  -2002.4 2046002.6  1.0  1.0  5  0 282558761
[04]  G18  f 36   2260.7 2045997.1  1.0  1.0  5  0 282558769
[06]  G28  f 40  -2621.7 2046003.4  1.0  1.0  5  0 282558767
[07]  G30  f 36   1167.9 2045998.4  1.0  1.0  5  0 282558767
[16]  B05 1f 30   -345.3 4092001.1  0.9  0.0  2  0 282544706
[17]  B08  7 37   -359.6 4092000.9  1.0  1.0  5  0      4879
[18]  B10  7 35   -619.5 4092001.7  1.0  1.0  5  0      4099
$GNGGA,000000.000,,,,,0,00,,,M,,,,0000*2B
$GNRMC,000000.000,A,,,,,,,000000,,*26
$GPGSA,A,1,,,,,,,,,,,,,,,*1E
$BDGSA,A,1,,,,,,,,,,,,,,,*0F
$GPGSV,2,1,07,01,00,000,30,08,00,000,36,11,00,000,42,17,00,000,42*74
$GPGSV,2,2,07,18,00,000,36,28,00,000,40,30,00,000,36*4A
$BDGSV,1,1,03,05,00,000,30,08,00,000,37,10,00,000,35*56
$LOGTIM,0,0.000000,0.000000,0.000000,0.000000,0.000*0A
EndT:        0
---00000016--- Acq_st=3 2019-5-22 06:29:2 
[00]  G01  f 30    808.8 2045998.9  0.9  0.9  5  0 282559772
[01]  G08  f 36   1708.3 2045997.8  1.0  0.9  5  0 282559762
[02]  G11  f 43   1208.1 2045998.4  1.0  1.0  5  0 282559770
[03]  G17  f 42  -1997.9 2046002.6  1.0  1.0  5  0 282559761
[04]  G18  f 37   2264.7 2045997.0  1.0  1.0  5  0 282559769
[06]  G28  f 40  -2617.8 2046003.4  1.0  1.0  5  0 282559767
[07]  G30  f 37   1173.0 2045998.4  1.0  1.0  5  0 282559767
[16]  B05 1f 31   -342.2 4092000.8  0.9  0.0  2  0 282545706
[17]  B08  7 37   -356.5 4092000.9  1.0  1.0  5  0      5879
[18]  B10  7 34   -615.6 4092001.6  1.0  1.0  5  0      5099
$GNGGA,000000.000,,,,,0,00,,,M,,,,0000*2B
$GNRMC,000000.000,A,,,,,,,000000,,*26
$GPGSA,A,1,,,,,,,,,,,,,,,*1E
$BDGSA,A,1,,,,,,,,,,,,,,,*0F
$GPGSV,2,1,07,01,00,000,30,08,00,000,36,11,00,000,43,17,00,000,42*75
$GPGSV,2,2,07,18,00,000,37,28,00,000,40,30,00,000,37*4A
$BDGSV,1,1,03,05,00,000,31,08,00,000,37,10,00,000,34*56
$LOGTIM,0,0.000000,0.000000,0.000000,0.000000,0.000*0A
EndT:        0
---00000017--- Acq_st=3 2019-5-22 06:29:3 
[00]  G01  f 30    808.1 2045999.0  0.9  0.9  5  0 282560772
[01]  G08  f 36   1708.3 2045997.7  1.0  1.0  5  0 282560762
[02]  G11  f 43   1208.0 2045998.4  1.0  1.0  5  0 282560770
[03]  G17  f 42  -1998.1 2046002.6  1.0  1.0  5  0 282560761
[04]  G18  f 36   2264.7 2045997.1  1.0  0.9  5  0 282560769
[06]  G28  f 40  -2617.3 2046003.4  1.0  1.0  5  0 282560767
[07]  G30  f 36   1172.6 2045998.4  1.0  1.0  5  0 282560767
[16]  B05 1f 31   -341.9 4092001.0  0.9  0.0  2  0 282546706
[17]  B08 1f 37   -355.8 4092000.9  1.0  0.9  5  0      6879
[18]  B10 1f 34   -615.6 4092001.7  1.0  1.0  5  0      6099
$GNGGA,000000.000,,,,,0,00,,,M,,,,0000*2B
$GNRMC,000000.000,A,,,,,,,000000,,*26
$GPGSA,A,1,,,,,,,,,,,,,,,*1E
$BDGSA,A,1,,,,,,,,,,,,,,,*0F
$GPGSV,2,1,07,01,00,000,30,08,00,000,36,11,00,000,43,17,00,000,42*75
$GPGSV,2,2,07,18,00,000,36,28,00,000,40,30,00,000,36*4A
$BDGSV,1,1,03,05,00,000,31,08,00,000,37,10,00,000,34*56
$LOGTIM,0,0.000000,0.000000,0.000000,0.000000,0.000*0A
EndT:        0
---00000018--- Acq_st=3 2019-5-22 06:29:4 
[00]  G01  f 32    806.4 2045998.8  1.0  1.0  5  0 282561772
[01]  G08  f 36   1706.5 2045997.7  1.0  1.0  5  0 282561762
[02]  G11  f 42   1206.6 2045998.5  1.0  1.0  5  0 282561770
[03]  G17  f 42  -2000.3 2046002.6  1.0  1.0  5  0 282561761
[04]  G18  f 37   2263.2 2045997.0  1.0  1.0  5  0 282561769
[06]  G28  f 39  -2619.4 2046003.4  1.0  1.0  5  0 282561767
[07]  G30  f 35   1171.2 2045998.5  1.0  1.0  5  0 282561767
[16]  B05 1f 28   -344.4 4092000.9  0.9  0.0  2  0 282547706
[17]  B08 1f 37   -358.1 4092001.0  1.0  1.0  5  0 282547719
[18]  B10 1f 34   -617.8 4092001.6  1.0  0.9  5  0 282547719
[19]  B29  1 27  -1655.1 4092004.9  0.1  0.0  1  0         0
[20]  B30  1  7    455.8 4091996.9 -0.0  0.0  1  0         0
$GNGGA,000000.000,,,,,0,00,,,M,,,,0000*2B
$GNRMC,000000.000,A,,,,,,,000000,,*26
$GPGSA,A,1,,,,,,,,,,,,,,,*1E
$BDGSA,A,1,,,,,,,,,,,,,,,*0F
$GPGSV,2,1,07,01,00,000,32,08,00,000,36,11,00,000,42,17,00,000,42*76
$GPGSV,2,2,07,18,00,000,37,28,00,000,39,30,00,000,35*46
$BDGSV,1,1,03,05,00,000,28,08,00,000,37,10,00,000,34*5E
$LOGTIM,0,0.000000,0.000000,0.000000,0.000000,0.000*0A
EndT:        1
---00000019--- Acq_st=7 2019-5-22 06:29:5 
[00]  G01  f 32    803.2 2045998.8  1.0  1.0  5  0 282562772
[01]  G08  f 36   1703.4 2045997.8  1.0  1.0  5  0 282562762
[02]  G11  f 42   1204.0 2045998.5  1.0  1.0  5  0 282562770
[03]  G17  f 42  -2002.9 2046002.6  1.0  1.0  5  0 282562761
[04]  G18  f 38   2260.1 2045997.1  1.0  1.0  5  0 282562769
[06]  G28  f 40  -2622.1 2046003.4  1.0  1.0  5  0 282562767
[07]  G30  f 35   1169.1 2045998.5  1.0  1.0  5  0 282562767
[16]  B05 1f 31   -347.6 4092000.9  0.9  0.0  2  0 282548706
[17]  B08 1f 37   -361.1 4092000.9  1.0  1.0  5  0 282548719
[18]  B10 1f 34   -621.0 4092001.5  1.0  0.9  5  0 282548719
[19]  B29  7 28  -1658.5 4092004.3  0.8  0.0 10  0       781
[20]  B30  7  7    425.4 4091999.0  0.5  0.0 20  0       396
$GNGGA,000000.000,,,,,0,00,,,M,,,,0000*2B
$GNRMC,000000.000,A,,,,,,,000000,,*26
$GPGSA,A,1,,,,,,,,,,,,,,,*1E
$BDGSA,A,1,,,,,,,,,,,,,,,*0F
$GPGSV,2,1,07,01,00,000,32,08,00,000,36,11,00,000,42,17,00,000,42*76
$GPGSV,2,2,07,18,00,000,38,28,00,000,40,30,00,000,35*47
$BDGSV,1,1,04,05,00,000,31,08,00,000,37,10,00,000,34,29,00,000,28*60
$LOGTIM,0,0.000000,0.000000,0.000000,0.000000,0.000*0A
EndT:        0
---00000020--- Acq_st=3 2019-5-22 06:29:6 
[00]  G01  f 33    804.8 2045998.9  1.0  0.9  5  0 282563772
[01]  G08  f 37   1703.7 2045997.7  1.0  1.0  5  0 282563762
[02]  G11  f 42   1204.4 2045998.5  1.0  1.0  5  0 282563770
[03]  G17  f 42  -2002.7 2046002.6  1.0  1.0  5  0 282563761
[04]  G18  f 37   2260.7 2045997.1  1.0  1.0  5  0 282563769
[06]  G28  f 40  -2621.8 2046003.4  1.0  1.0  5  0 282563767
[07]  G30  f 36   1169.7 2045998.6  1.0  1.0  5  0 282563767
[16]  B05 1f 31   -346.5 4092001.0  0.9  0.0  2  0 282549706
[17]  B08 1f 37   -361.2 4092000.9  1.0  1.0  5  0 282549719
[18]  B10 1f 35   -619.7 4092001.6  1.0  1.0  5  0 282549719
[19]  B29  7 43  -1658.1 4092004.3  1.0  1.0  5  0      1781
[20]  B30  7 44    425.8 4091998.9  1.0  1.0  5  0      1386
$GNGGA,000000.000,,,,,0,00,,,M,,,,0000*2B
$GNRMC,000000.000,A,,,,,,,000000,,*26
$GPGSA,A,1,,,,,,,,,,,,,,,*1E
$BDGSA,A,1,,,,,,,,,,,,,,,*0F
$GPGSV,2,1,07,01,00,000,33,08,00,000,37,11,00,000,42,17,00,000,42*76
$GPGSV,2,2,07,18,00,000,37,28,00,000,40,30,00,000,36*4B
$BDGSV,2,1,05,05,00,000,31,08,00,000,37,10,00,000,35,29,00,000,43*6E
$BDGSV,2,2,05,30,00,000,44*5E
$LOGTIM,0,0.000000,0.000000,0.000000,0.000000,0.000*0A
EndT:        0
---00000021--- Acq_st=3 2019-5-22 06:29:7 
[00]  G01  f 33    802.3 2045998.9  1.0  1.0  5  0 282564772
[01]  G08  f 37   1700.6 2045997.8  1.0  1.0  5  0 282564762
[02]  G11  f 42   1201.4 2045998.4  1.0  1.0  5  0 282564770
[03]  G17  f 42  -2006.0 2046002.6  1.0  1.0  5  0 282564761
[04]  G18  f 36   2258.3 2045997.1  1.0  1.0  5  0 282564769
[06]  G28  f 41  -2625.0 2046003.4  1.0  1.0  5  0 282564767
[07]  G30  f 36   1166.9 2045998.4  1.0  1.0  5  0 282564767
[16]  B05 1f 28   -349.3 4092000.8  0.9  0.0  2  0 282550706
[17]  B08 1f 37   -363.5 4092001.0  1.0  1.0  5  0 282550719
[18]  B10 1f 35   -622.9 4092001.6  1.0  0.9  5  0 282550719
[19]  B29  7 43  -1660.9 4092004.3  1.0  1.0  5  0      2781
[20]  B30  7 43    423.0 4091999.0  1.0  1.0  5  0      2386
$GNGGA,000000.000,,,,,0,00,,,M,,,,0000*2B
$GNRMC,000000.000,A,,,,,,,000000,,*26
$GPGSA,A,1,,,,,,,,,,,,,,,*1E
$BDGSA,A,1,,,,,,,,,,,,,,,*0F
$GPGSV,2,1,07,01,00,000,33,08,00,000,37,11,00,000,42,17,00,000,42*76
$GPGSV,2,2,07,18,00,000,36,28,00,000,41,30,00,000,36*4B
$BDGSV,2,1,05,05,00,000,28,08,00,000,37,10,00,000,35,29,00,000,43*66
$BDGSV,2,2,05,30,00,000,43*59
$LOGTIM,0,0.000000,0.000000,0.000000,0.000000,0.000*0A
EndT:        0
---00000022--- Acq_st=3 2019-5-22 06:29:8 
[00]  G01  f 34    801.0 2045999.0  1.0  1.0  5  0 282565772
[01]  G08  f 37   1698.1 2045997.8  1.0  1.0  5  0 282565762
[02]  G11  f 42   1199.6 2045998.5  1.0  1.0  5  0 282565770
[03]  G17  f 43  -2008.1 2046002.6  1.0  1.0  5  0 282565761
[04]  G18  f 35   2255.8 2045997.1  1.0  0.9  5  0 282565769
[05]  G19  1  7  -2805.7 2046004.7  0.1  0.0  1  0        14
[06]  G28  f 41  -2627.1 2046003.4  1.0  1.0  5  0 282565767
[07]  G30  f 37   1164.9 2045998.5  1.0  1.0  5  0 282565767
[16]  B05 1f 30   -352.4 4092001.2  0.9  0.0  2  0 282551706
[17]  B08 1f 37   -366.4 4092000.9  1.0  1.0  5  0 282551719
[18]  B10 1f 35   -625.7 4092001.7  1.0  1.0  5  0 282551719
[19]  B29  7 43  -1663.2 4092004.4  1.0  1.0  5  0      3781
[20]  B30  7 43    420.8 4091999.0  1.0  1.0  5  0      3386
$GNGGA,000000.000,,,,,0,00,,,M,,,,0000*2B
$GNRMC,000000.000,A,,,,,,,000000,,*26
$GPGSA,A,1,,,,,,,,,,,,,,,*1E
$BDGSA,A,1,,,,,,,,,,,,,,,*0F
$GPGSV,2,1,07,01,00,000,34,08,00,000,37,11,00,000,42,17,00,000,43*70
$GPGSV,2,2,07,18,00,000,35,28,00,000,41,30,00,000,37*49
$BDGSV,2,1,05,05,00,000,30,08,00,000,37,10,00,000,35,29,00,000,43*6F
$BDGSV,2,2,05,30,00,000,43*59
$LOGTIM,0,0.000000,0.000000,0.000000,0.000000,0.000*0A
EndT:        0
---00000023--- Acq_st=3 2019-5-22 06:29:9 
[00]  G01  f 34    803.9 2045998.9  1.0  0.9  5  0 282566772
[01]  G08  f 36   1701.4 2045997.8  1.0  1.0  5  0 282566762
[02]  G11  f 42   1202.9 2045998.4  1.0  1.0  5  0 282566770
[03]  G17  f 43  -2005.1 2046002.6  1.0  1.0  5  0 282566761
[04]  G18  f 35   2259.3 2045997.1  1.0  0.9  5  0 282566769
[05]  G19  7  7  -2814.8 2046003.7  0.0  0.0 20  0        10
[06]  G28  f 41  -2624.0 2046003.4  1.0  1.0  5  0 282566767
[07]  G30  f 36   1168.1 2045998.5  1.0  0.9  5  0 282566767
[16]  B05 1f 31   -349.6 4092001.1  0.9  0.0  2  0 282552706
[17]  B08 1f 37   -362.7 4092001.0  1.0  1.0  5  0 282552719
[18]  B10 1f 34   -622.7 4092001.6  1.0  1.0  5  0 282552719
[19]  B29 1f 43  -1659.9 4092004.4  1.0  1.0  5  0      4781
[20]  B30 1f 43    423.8 4091998.9  1.0  1.0  5  0      4386
$GNGGA,000000.000,,,,,0,00,,,M,,,,0000*2B
$GNRMC,000000.000,A,,,,,,,000000,,*26
$GPGSA,A,1,,,,,,,,,,,,,,,*1E
$BDGSA,A,1,,,,,,,,,,,,,,,*0F
$GPGSV,2,1,07,01,00,000,34,08,00,000,36,11,00,000,42,17,00,000,43*71
$GPGSV,2,2,07,18,00,000,35,28,00,000,41,30,00,000,36*48
$BDGSV,2,1,05,05,00,000,31,08,00,000,37,10,00,000,34,29,00,000,43*6F
$BDGSV,2,2,05,30,00,000,43*59
$LOGTIM,0,0.000000,0.000000,0.000000,0.000000,0.000*0A
EndT:        0
---00000024--- Acq_st=3 2019-5-22 06:29:10 
[00]  G01  f 35    806.8 2045998.9  1.0  0.9  5  0 282567772
[01]  G08  f 36   1703.5 2045997.7  1.0  1.0  5  0 282567762
[02]  G11  f 43   1206.0 2045998.4  1.0  1.0  5  0 282567770
[03]  G17  f 42  -2002.3 2046002.6  1.0  1.0  5  0 282567761
[04]  G18  f 34   2262.0 2045997.1  1.0  1.0  5  0 282567769
[05]  G19  7 37  -2811.2 2046003.6  0.1  1.0  5  0        16
[06]  G28  f 41  -2621.1 2046003.4  1.0  1.0  5  0 282567767
[07]  G30  f 36   1172.1 2045998.4  1.0  0.9  5  0 282567767
[16]  B05 1f 31   -347.0 4092000.9  0.9  0.0  2  0 282553706
[17]  B08 1f 37   -360.5 4092000.9  1.0  1.0  5  0 282553719
[18]  B10 1f 35   -619.7 4092001.6  1.0  0.9  5  0 282553719
[19]  B29 1f 43  -1657.6 4092004.3  1.0  1.0  5  0 282553761
[20]  B30 1f 43    426.4 4091998.9  1.0  1.0  5  0 282553766
$GNGGA,000000.000,,,,,0,00,,,M,,,,0000*2B
$GNRMC,000000.000,A,,,,,,,000000,,*26
$GPGSA,A,1,,,,,,,,,,,,,,,*1E
$BDGSA,A,1,,,,,,,,,,,,,,,*0F
$GPGSV,2,1,08,01,00,000,35,08,00,000,36,11,00,000,43,17,00,000,42*7F
$GPGSV,2,2,08,18,00,000,34,19,00,000,37,28,00,000,41,30,00,000,36*7A
$BDGSV,2,1,05,05,00,000,31,08,00,000,37,10,00,000,35,29,00,000,43*6E
$BDGSV,2,2,05,30,00,000,43*59
$LOGTIM,0,0.000000,0.000000,0.000000,0.000000,0.000*0A
EndT:        0
---00000025--- Acq_st=3 2019-5-22 06:29:11 
[00]  G01  f 34    807.2 2045998.9  1.0  1.0  5  0 282568772
[01]  G08  f 36   1703.7 2045997.8  1.0  1.0  5  0 282568762
[02]  G11  f 42   1205.8 2045998.4  1.0  1.0  5  0 282568770
[03]  G17  f 42  -2002.6 2046002.6  1.0  1.0  5  0 282568761
[04]  G18  f 32   2262.8 2045997.1  1.0  0.9  5  0 282568769
[05]  G19  7 37  -2811.5 2046003.7  1.0  1.0  5  0        16
[06]  G28  f 41  -2621.3 2046003.4  1.0  1.0  5  0 282568767
[07]  G30  f 37   1171.9 2045998.5  1.0  1.0  5  0 282568767
[16]  B05 1f 31   -346.8 4092001.1  0.9  0.0  2  0 282554706
[17]  B08 1f 37   -360.5 4092001.0  1.0  1.0  5  0 282554719
[18]  B10 1f 35   -620.3 4092001.6  1.0  1.0  5  0 282554719
[19]  B29 1f 43  -1657.4 4092004.4  1.0  1.0  5  0 282554761
[20]  B30 1f 43    426.5 4091998.9  1.0  1.0  5  0 282554766
$GNGGA,000000.000,,,,,0,00,,,M,,,,0000*2B
$GNRMC,000000.000,A,,,,,,,000000,,*26
$GPGSA,A,1,,,,,,,,,,,,,,,*1E
$BDGSA,A,1,,,,,,,,,,,,,,,*0F
$GPGSV,2,1,08,01,00,000,34,08,00,000,36,11,00,000,42,17,00,000,42*7F
$GPGSV,2,2,08,18,00,000,32,19,00,000,37,28,00,000,41,30,00,000,37*7D
$BDGSV,2,1,05,05,00,000,31,08,00,000,37,10,00,000,35,29,00,000,43*6E
$BDGSV,2,2,05,30,00,000,43*59
$LOGTIM,0,0.000000,0.000000,0.000000,0.000000,0.000*0A
EndT:        0
---00000026--- Acq_st=3 2019-5-22 06:29:12 
[00]  G01  f 36    806.6 2045998.9  1.0  1.0  5  0 282569772
[01]  G08  f 36   1702.4 2045997.8  1.0  0.9  5  0 282569762
[02]  G11  f 42   1205.7 2045998.4  1.0  1.0  5  0 282569770
[03]  G17  f 43  -2003.3 2046002.6  1.0  1.0  5  0 282569761
[04]  G18  f 28   2263.0 2045996.9  0.9  0.8  5  0 282569769
[05]  G19  7 36  -2811.8 2046003.7  1.0  0.9  5  0        16
[06]  G28  f 41  -2621.8 2046003.4  1.0  1.0  5  0 282569767
[07]  G30  f 37   1172.8 2045998.5  1.0  0.9  5  0 282569767
[16]  B05 1f 31   -347.5 4092000.8  0.8  0.0  2  0 282555706
[17]  B08 1f 37   -360.7 4092001.0  1.0  1.0  5  0 282555719
[18]  B10 1f 35   -620.4 4092001.5  1.0  1.0  5  0 282555719
[19]  B29 1f 43  -1657.9 4092004.3  1.0  1.0  5  0 282555761
[20]  B30 1f 42    426.3 4091998.9  1.0  1.0  5  0 282555766
$GNGGA,000000.000,,,,,0,00,,,M,,,,0000*2B
$GNRMC,000000.000,A,,,,,,,000000,,*26
$GPGSA,A,1,,,,,,,,,,,,,,,*1E
$BDGSA,A,1,,,,,,,,,,,,,,,*0F
$GPGSV,2,1,08,01,00,000,36,08,00,000,36,11,00,000,42,17,00,000,43*7C
$GPGSV,2,2,08,18,00,000,28,19,00,000,36,28,00,000,41,30,00,000,37*77
$BDGSV,2,1,05,05,00,000,31,08,00,000,37,10,00,000,35,29,00,000,43*6E
$BDGSV,2,2,05,30,00,000,42*58
$LOGTIM,0,0.000000,0.000000,0.000000,0.000000,0.000*0A
EndT:        0
---00000027--- Acq_st=3 2019-5-22 06:29:13 
[00]  G01  f 36    806.6 2045998.9  1.0  0.9  5  0 282570772
[01]  G08  f 36   1701.1 2045997.8  1.0  1.0  5  0 282570762
[02]  G11  f 42   1204.8 2045998.4  1.0  1.0  5  0 282570770
[03]  G17  f 43  -2004.3 2046002.6  1.0  1.0  5  0 282570761
[04]  G18  f 27   2262.0 2045997.2  0.8  0.8 10  0 282570769
[05]  G19  f 37  -2812.7 2046003.7  1.0  0.9  5  0        16
[06]  G28  f 42  -2622.6 2046003.4  1.0  1.0  5  0 282570767
[07]  G30  f 36   1171.5 2045998.5  1.0  0.9  5  0 282570767
[16]  B05 1f 31   -348.8 4092001.2  0.9  0.0  2  0 282556706
[17]  B08 1f 37   -361.5 4092000.9  1.0  1.0  5  0 282556719
[18]  B10 1f 35   -620.9 4092001.5  1.0  1.0  5  0 282556719
[19]  B29 1f 43  -1658.8 4092004.3  1.0  1.0  5  0 282556761
[20]  B30 1f 42    425.2 4091998.9  1.0  1.0  5  0 282556766
$GNGGA,000000.000,,,,,0,00,,,M,,,,0000*2B
$GNRMC,000000.000,A,,,,,,,000000,,*26
$GPGSA,A,1,,,,,,,,,,,,,,,*1E
$BDGSA,A,1,,,,,,,,,,,,,,,*0F
$GPGSV,2,1,08,01,00,000,36,08,00,000,36,11,00,000,42,17,00,000,43*7C
$GPGSV,2,2,08,18,00,000,27,19,00,000,37,28,00,000,42,30,00,000,36*7B
$BDGSV,2,1,05,05,00,000,31,08,00,000,37,10,00,000,35,29,00,000,43*6E
$BDGSV,2,2,05,30,00,000,42*58
$LOGTIM,0,0.000000,0.000000,0.000000,0.000000,0.000*0A
EndT:        0
---00000028--- Acq_st=3 2019-5-22 06:29:14 
[00]  G01  f 36    804.3 2045998.9  1.0  1.0  5  0 282571772
[01]  G08  f 36   1699.2 2045997.8  1.0  0.9  5  0 282571762
[02]  G11  f 43   1202.3 2045998.4  1.0  1.0  5  0 282571770
[03]  G17  f 42  -2007.1 2046002.6  1.0  1.0  5  0 282571761
[04]  G18  f 27   2259.6 2045997.0  0.9  0.9 10  0 282571769
[05]  G19  f 37  -2815.8 2046003.7  1.0  1.0  5  0 282571756
[06]  G28  f 42  -2625.4 2046003.4  1.0  1.0  5  0 282571767
[07]  G30  f 36   1168.9 2045998.5  1.0  1.0  5  0 282571767
[16]  B05 1f 30   -351.1 4092001.2  0.9  0.0  2  0 282557706
[17]  B08 1f 37   -364.9 4092000.9  1.0  1.0  5  0 282557719
[18]  B10 1f 35   -625.0 4092001.6  1.0  1.0  5  0 282557719
[19]  B29 1f 43  -1661.6 4092004.4  1.0  1.0  5  0 282557761
[20]  B30 1f 42    422.0 4091998.9  1.0  1.0  5  0 282557766
$GNGGA,000000.000,,,,,0,00,,,M,,,,0000*2B
$GNRMC,000000.000,A,,,,,,,000000,,*26
$GPGSA,A,1,,,,,,,,,,,,,,,*1E
$BDGSA,A,1,,,,,,,,,,,,,,,*0F
$GPGSV,2,1,08,01,00,000,36,08,00,000,36,11,00,000,43,17,00,000,42*7C
$GPGSV,2,2,08,18,00,000,27,19,00,000,37,28,00,000,42,30,00,000,36*7B
$BDGSV,2,1,05,05,00,000,30,08,00,000,37,10,00,000,35,29,00,000,43*6F
$BDGSV,2,2,05,30,00,000,42*58
$LOGTIM,0,0.000000,0.000000,0.000000,0.000000,0.000*0A
EndT:        0
---00000029--- Acq_st=3 2019-5-22 06:29:15 
[00]  G01  f 37    805.8 2045999.0  1.0  1.0  5  0 282572772
[01]  G08  f 37   1700.6 2045997.8  1.0  1.0  5  0 282572762
[02]  G11  f 43   1203.9 2045998.4  1.0  1.0  5  0 282572770
[03]  G17  f 43  -2005.6 2046002.6  1.0  1.0  5  0 282572761
[04]  G18  f 23   2260.4 2045997.0  0.6  0.6 10  0 282572769
[05]  G19  f 38  -2814.8 2046003.7  1.0  1.0  5  0 282572756
[06]  G28  f 42  -2624.2 2046003.5  1.0  1.0  5  0 282572767
[07]  G30  f 37   1170.7 2045998.5  1.0  0.9  5  0 282572767
[16]  B05 1f 31   -350.1 4092000.8  0.8  0.0  2  0 282558706
[17]  B08 1f 37   -362.4 4092000.9  1.0  1.0  5  0 282558719
[18]  B10 1f 35   -622.4 4092001.6  1.0  0.9  5  0 282558719
[19]  B29 1f 43  -1660.2 4092004.3  1.0  1.0  5  0 282558761
[20]  B30 1f 42    423.9 4091998.9  1.0  1.0  5  0 282558766
$GNGGA,000000.000,,,,,0,00,,,M,,,,0000*2B
$GNRMC,000000.000,A,,,,,,,000000,,*26
$GPGSA,A,1,,,,,,,,,,,,,,,*1E
$BDGSA,A,1,,,,,,,,,,,,,,,*0F
$GPGSV,2,1,08,01,00,000,37,08,00,000,37,11,00,000,43,17,00,000,43*7D
$GPGSV,2,2,08,18,00,000,23,19,00,000,38,28,00,000,42,30,00,000,37*71
$BDGSV,2,1,05,05,00,000,31,08,00,000,37,10,00,000,35,29,00,000,43*6E
$BDGSV,2,2,05,30,00,000,42*58
$LOGTIM,0,0.000000,0.000000,0.000000,0.000000,0.000*0A
EndT:        0
---00000030--- Acq_st=3 2019-5-22 06:29:16 
[00]  G01  f 37    802.8 2045999.0  1.0  1.0  5  0 282573772
[01]  G08  f 37   1696.8 2045997.8  1.0  0.9  5  0 282573762
[02]  G11  f 43   1200.6 2045998.4  1.0  1.0  5  0 282573770
[03]  G17  f 42  -2009.6 2046002.6  1.0  1.0  5  0 282573761
[04]  G18  f 23   2257.1 2045997.1  0.8  0.6 10  0 282573769
[05]  G19  f 37  -2818.1 2046003.6  1.0  1.0  5  0 282573756
[06]  G28  f 42  -2627.6 2046003.4  1.0  1.0  5  0 282573767
[07]  G30  f 37   1168.4 2045998.5  1.0  1.0  5  0 282573767
[16]  B05 1f 30   -354.0 4092001.0  0.9  0.0  2  0 282559706
[17]  B08 1f 37   -366.5 4092001.0  1.0  1.0  5  0 282559719
[18]  B10 1f 35   -625.4 4092001.7  1.0  1.0  5  0 282559719
[19]  B29 1f 43  -1663.3 4092004.4  1.0  1.0  5  0 282559761
[20]  B30 1f 42    420.2 4091998.9  1.0  1.0  5  0 282559766
$GNGGA,000000.000,,,,,0,00,,,M,,,,0000*2B
$GNRMC,000000.000,A,,,,,,,000000,,*26
$GPGSA,A,1,,,,,,,,,,,,,,,*1E
$BDGSA,A,1,,,,,,,,,,,,,,,*0F
$GPGSV,2,1,08,01,00,000,37,08,00,000,37,11,00,000,43,17,00,000,42*7C
$GPGSV,2,2,08,18,00,000,23,19,00,000,37,28,00,000,42,30,00,000,37*7E
$BDGSV,2,1,05,05,00,000,30,08,00,000,37,10,00,000,35,29,00,000,43*6F
$BDGSV,2,2,05,30,00,000,42*58
$LOGTIM,0,0.000000,0.000000,0.000000,0.000000,0.000*0A
EndT:        0
---00000031--- Acq_st=3 2019-5-22 06:29:17 
[00]  G01  f 36    799.4 2045999.0  1.0  1.0  5  0 282574772
[01]  G08  f 37   1691.6 2045997.8  1.0  1.0  5  0 282574762
[02]  G11  f 43   1196.3 2045998.5  1.0  1.0  5  0 282574770
[03]  G17  f 43  -2013.8 2046002.6  1.0  1.0  5  0 282574761
[04]  G18  f 20   2257.1 2045997.0  0.4  0.4 20  0 282574769
[05]  G19  f 37  -2822.9 2046003.6  1.0  1.0  5  0 282574756
[06]  G28  f 42  -2632.4 2046003.4  1.0  1.0  5  0 282574767
[07]  G30  f 37   1164.0 2045998.4  1.0  1.0  5  0 282574767
[16]  B05 1f 30   -358.9 4092000.8  0.8  0.0  2  0 282560706
[17]  B08 1f 37   -371.1 4092000.9  1.0  1.0  5  0 282560719
[18]  B10 1f 35   -630.6 4092001.6  1.0  0.9  5  0 282560719
[19]  B29 1f 43  -1668.2 4092004.4  1.0  1.0  5  0 282560761
[20]  B30 1f 42    415.3 4091998.9  1.0  1.0  5  0 282560766
$GNGGA,000000.000,,,,,0,00,,,M,,,,0000*2B
$GNRMC,000000.000,A,,,,,,,000000,,*26
$GPGSA,A,1,,,,,,,,,,,,,,,*1E
$BDGSA,A,1,,,,,,,,,,,,,,,*0F
$GPGSV,2,1,08,01,00,000,36,08,00,000,37,11,00,000,43,17,00,000,43*7C
$GPGSV,2,2,08,18,00,000,20,19,00,000,37,28,00,000,42,30,00,000,37*7D
$BDGSV,2,1,05,05,00,000,30,08,00,000,37,10,00,000,35,29,00,000,43*6F
$BDGSV,2,2,05,30,00,000,42*58
$LOGTIM,0,0.000000,0.000000,0.000000,0.000000,0.000*0A
EndT:        0
---00000032--- Acq_st=3 2019-5-22 06:29:18 
[00]  G01  f 37    796.7 2045999.0  1.0  1.0  5  0 282575772
[01]  G08  f 37   1688.8 2045997.8  1.0  1.0  5  0 282575762
[02]  G11  f 42   1193.4 2045998.5  1.0  1.0  5  0 282575770
[03]  G17  f 43  -2016.9 2046002.6  1.0  1.0  5  0 282575761
[04]  G18  f 19   2258.9 2045996.9 -0.1  0.3 20  0 282575769
[05]  G19  f 37  -2826.1 2046003.7  1.0  0.9  5  0 282575756
[06]  G28  f 41  -2634.7 2046003.4  1.0  1.0  5  0 282575767
[07]  G30  f 37   1161.3 2045998.5  1.0  1.0  5  0 282575767
[16]  B05 1f 33   -361.2 4092000.9  0.9  0.0  2  0 282561706
[17]  B08 1f 37   -373.7 4092001.0  1.0  1.0  5  0 282561719
[18]  B10 1f 35   -633.8 4092001.7  1.0  1.0  5  0 282561719
[19]  B29 1f 43  -1670.9 4092004.3  1.0  1.0  5  0 282561761
[20]  B30 1f 42    413.0 4091998.8  1.0  1.0  5  0 282561766
$GNGGA,000000.000,,,,,0,00,,,M,,,,0000*2B
$GNRMC,000000.000,A,,,,,,,000000,,*26
$GPGSA,A,1,,,,,,,,,,,,,,,*1E
$BDGSA,A,1,,,,,,,,,,,,,,,*0F
$GPGSV,2,1,08,01,00,000,37,08,00,000,37,11,00,000,42,17,00,000,43*7C
$GPGSV,2,2,08,18,00,000,19,19,00,000,37,28,00,000,41,30,00,000,37*74
$BDGSV,2,1,05,05,00,000,33,08,00,000,37,10,00,000,35,29,00,000,43*6C
$BDGSV,2,2,05,30,00,000,42*58
$LOGTIM,0,0.000000,0.000000,0.000000,0.000000,0.000*0A
EndT:        0
---00000033--- Acq_st=3 2019-5-22 06:29:19 
[00]  G01  f 36    799.6 2045999.0  1.0  1.1  5  0 282576772
[01]  G08  f 36   1690.9 2045997.8  1.0  1.0  5  0 282576762
[02]  G11  f 42   1196.0 2045998.5  1.0  1.0  5  0 282576770
[03]  G17  f 43  -2015.0 2046002.6  1.0  1.0  5  0 282576761
[04]  G18  f 27   2252.8 2045997.1  0.2  0.8 20  0 282576769
[05]  G19  f 36  -2823.8 2046003.7  1.0  1.0  5  0 282576756
[06]  G28  f 41  -2632.8 2046003.4  1.0  1.0  5  0 282576767
[07]  G30  f 39   1163.4 2045998.4  1.0  1.0  5  0 282576767
[16]  B05 1f 31   -360.0 4092001.1  0.9  0.0  2  0 282562706
[17]  B08 1f 37   -371.9 4092000.9  1.0  1.0  5  0 282562719
[18]  B10 1f 36   -630.6 4092001.6  1.0  0.9  5  0 282562719
[19]  B29 1f 43  -1668.9 4092004.4  1.0  1.0  5  0 282562761
[20]  B30 1f 43    415.1 4091998.9  1.0  1.0  5  0 282562766
$GNGGA,000000.000,,,,,0,00,,,M,,,,0000*2B
$GNRMC,000000.000,A,,,,,,,000000,,*26
$GPGSA,A,1,,,,,,,,,,,,,,,*1E
$BDGSA,A,1,,,,,,,,,,,,,,,*0F
$GPGSV,2,1,08,01,00,000,36,08,00,000,36,11,00,000,42,17,00,000,43*7C
$GPGSV,2,2,08,18,00,000,27,19,00,000,36,28,00,000,41,30,00,000,39*76
$BDGSV,2,1,05,05,00,000,31,08,00,000,37,10,00,000,36,29,00,000,43*6D
$BDGSV,2,2,05,30,00,000,43*59
$LOGTIM,0,0.000000,0.000000,0.000000,0.000000,0.000*0A
EndT:        0
---00000034--- Acq_st=3 2019-5-22 06:29:20 
[00]  G01  f 36    799.2 2045999.0  1.0  1.0  5  0 282577772
[01]  G08  f 36   1690.8 2045997.8  1.0  0.9  5  0 282577762
[02]  G11  f 42   1195.6 2045998.4  1.0  1.0  5  0 282577770
[03]  G17  f 43  -2015.8 2046002.6  1.0  1.0  5  0 282577761
[04]  G18  f 29   2252.3 2045996.9  0.9  0.8  5  0 282577769
[05]  G19  f 37  -2824.9 2046003.7  1.0  0.9  5  0 282577756
[06]  G28  f 41  -2633.4 2046003.4  1.0  1.0  5  0 282577767
[07]  G30  f 39   1164.0 2045998.5  1.0  1.0  5  0 282577767
[16]  B05 1f 31   -360.7 4092001.1  0.8  0.0  2  0 282563706
[17]  B08 1f 37   -372.6 4092000.9  1.0  1.0  5  0 282563719
[18]  B10 1f 35   -632.6 4092001.7  1.0  1.0  5  0 282563719
[19]  B29 1f 43  -1669.2 4092004.4  1.0  1.0  5  0 282563761
[20]  B30 1f 43    414.3 4091998.9  1.0  1.0  5  0 282563766
$GNGGA,000000.000,,,,,0,00,,,M,,,,0000*2B
$GNRMC,000000.000,A,,,,,,,000000,,*26
$GPGSA,A,1,,,,,,,,,,,,,,,*1E
$BDGSA,A,1,,,,,,,,,,,,,,,*0F
$GPGSV,2,1,08,01,00,000,36,08,00,000,36,11,00,000,42,17,00,000,43*7C
$GPGSV,2,2,08,18,00,000,29,19,00,000,37,28,00,000,41,30,00,000,39*79
$BDGSV,2,1,05,05,00,000,31,08,00,000,37,10,00,000,35,29,00,000,43*6E
$BDGSV,2,2,05,30,00,000,43*59
$LOGTIM,0,0.000000,0.000000,0.000000,0.000000,0.000*0A
EndT:        0
---00000035--- Acq_st=7 2019-5-22 06:29:21 
[00]  G01  f 36    803.0 2045999.0  1.0  1.0  5  0 282578772
[01]  G08  f 36   1693.5 2045997.8  1.0  1.0  5  0 282578762
[02]  G11  f 41   1199.5 2045998.4  1.0  1.0  5  0 282578770
[03]  G17  f 43  -2012.2 2046002.6  1.0  1.0  5  0 282578761
[04]  G18  f 31   2256.5 2045997.1  1.0  0.9  5  0 282578769
[05]  G19  f 38  -2820.6 2046003.7  1.0  1.0  5  0 282578756
[06]  G28  f 41  -2630.2 2046003.5  1.0  1.0  5  0 282578767
[07]  G30  f 38   1167.6 2045998.5  1.0  1.0  5  0 282578767
[16]  B05 1f 31   -357.1 4092000.9  0.9  0.0  2  0 282564706
[17]  B08 1f 37   -368.7 4092001.0  1.0  1.0  5  0 282564719
[18]  B10 1f 36   -628.6 4092001.6  1.0  1.0  5  0 282564719
[19]  B29 1f 43  -1665.8 4092004.3  1.0  1.0  5  0 282564761
[20]  B30 1f 43    417.6 4091998.9  1.0  1.0  5  0 282564766
$GNGGA,000000.000,,,,,0,00,,,M,,,,0000*2B
$GNRMC,000000.000,A,,,,,,,000000,,*26
$GPGSA,A,1,,,,,,,,,,,,,,,*1E
$BDGSA,A,1,,,,,,,,,,,,,,,*0F
$GPGSV,2,1,08,01,00,000,36,08,00,000,36,11,00,000,41,17,00,000,43*7F
$GPGSV,2,2,08,18,00,000,31,19,00,000,38,28,00,000,41,30,00,000,38*7E
$BDGSV,2,1,05,05,00,000,32,08,00,000,37,10,00,000,36,29,00,000,43*6E
$BDGSV,2,2,05,30,00,000,43*59
$LOGTIM,0,0.000000,0.000000,0.000000,0.000000,0.000*0A
EndT:        0
---00000036--- Acq_st=7 2019-5-22 06:29:22 
[00]  G01  f 36    802.0 2045999.0  1.0  1.0  5  0 282579772
[01]  G08  f 37   1692.6 2045997.9  1.0  1.0  5  0 282579762
[02]  G11  f 41   1198.5 2045998.4  1.0  1.0  5  0 282579770
[03]  G17  f 44  -2013.3 2046002.6  1.0  1.0  5  0 282579761
[04]  G18  f 32   2255.1 2045997.0  1.0  0.8  5  0 282579769
[05]  G19  f 38  -2821.5 2046003.7  1.0  1.0  5  0 282579756
[06]  G28  f 41  -2630.9 2046003.4  1.0  1.0  5  0 282579767
[07]  G30  f 38   1167.0 2045998.5  1.0  1.0  5  0 282579767
[16]  B05 1f 30   -358.1 4092001.0  0.9  0.0  2  0 282565706
[17]  B08 1f 38   -370.2 4092001.0  1.0  1.0  5  0 282565719
[18]  B10 1f 36   -630.2 4092001.7  1.0  0.9  5  0 282565719
[19]  B29 1f 43  -1666.8 4092004.4  1.0  1.0  5  0 282565761
[20]  B30 1f 43    416.9 4091998.9  1.0  1.0  5  0 282565766
$GNGGA,000000.000,,,,,0,00,,,M,,,,0000*2B
$GNRMC,000000.000,A,,,,,,,000000,,*26
$GPGSA,A,1,,,,,,,,,,,,,,,*1E
$BDGSA,A,1,,,,,,,,,,,,,,,*0F
$GPGSV,2,1,08,01,00,000,36,08,00,000,37,11,00,000,41,17,00,000,44*79
$GPGSV,2,2,08,18,00,000,32,19,00,000,38,28,00,000,41,30,00,000,38*7D
$BDGSV,2,1,05,05,00,000,30,08,00,000,38,10,00,000,36,29,00,000,43*63
$BDGSV,2,2,05,30,00,000,43*59
$LOGTIM,0,0.000000,0.000000,0.000000,0.000000,0.000*0A
EndT:        0
---00000037--- Acq_st=7 2019-5-22 06:29:23 
[00]  G01  f 36    798.8 2045998.9  1.0  1.0  5  0 282580772
[01]  G08  f 37   1688.3 2045997.8  1.0  1.0  5  0 282580762
[02]  G11  f 41   1194.6 2045998.5  1.0  1.0  5  0 282580770
[03]  G17  f 44  -2017.2 2046002.6  1.0  1.0  5  0 282580761
[04]  G18  f 32   2253.2 2045997.0  1.0  0.9  5  0 282580769
[05]  G19  f 38  -2825.4 2046003.7  1.0  1.0  5  0 282580756
[06]  G28  f 41  -2634.7 2046003.4  1.0  1.0  5  0 282580767
[07]  G30  f 37   1163.4 2045998.6  1.0  1.0  5  0 282580767
[16]  B05 1f 29   -361.7 4092000.8  0.9  0.0  2  1 282566706
[17]  B08 1f 37   -374.0 4092000.9  1.0  1.0  5  0 282566719
[18]  B10 1f 36   -633.5 4092001.6  1.0  1.0  5  0 282566719
[19]  B29 1f 43  -1670.6 4092004.4  1.0  1.0  5  0 282566761
[20]  B30 1f 43    413.0 4091998.9  1.0  1.0  5  0 282566766
$GNGGA,000000.000,,,,,0,00,,,M,,,,0000*2B
$GNRMC,000000.000,A,,,,,,,000000,,*26
$GPGSA,A,1,,,,,,,,,,,,,,,*1E
$BDGSA,A,1,,,,,,,,,,,,,,,*0F
$GPGSV,2,1,08,01,00,000,36,08,00,000,37,11,00,000,41,17,00,000,44*79
$GPGSV,2,2,08,18,00,000,32,19,00,000,38,28,00,000,41,30,00,000,37*72
$BDGSV,2,1,05,05,00,000,29,08,00,000,37,10,00,000,36,29,00,000,43*64
$BDGSV,2,2,05,30,00,000,43*59
$LOGTIM,0,0.000000,0.000000,0.000000,0.000000,0.000*0A
EndT:        0
---00000038--- Acq_st=3 2019-5-22 06:29:24 
[00]  G01  f 37    797.2 2045998.9  1.0  1.0  5  0 282581772
[01]  G08  f 37   1686.6 2045997.8  1.0  0.9  5  0 282581762
[02]  G11  f 41   1192.4 2045998.4  1.0  1.0  5  0 282581770
[03]  G17  f 44  -2019.6 2046002.6  1.0  1.0  5  0 282581761
[04]  G18  f 32   2250.6 2045997.1  0.9  0.9  5  0 282581769
[05]  G19  f 38  -2828.2 2046003.7  1.0  1.0  5  0 282581756
[06]  G28  f 41  -2636.9 2046003.4  1.0  1.0  5  0 282581767
[07]  G30  f 38   1161.2 2045998.6  1.0  1.0  5  0 282581767
[16]  B05 1f 31   -364.7 4092000.9  0.9  0.0  2  1 282567706
[17]  B08 1f 37   -376.5 4092001.0  1.0  1.0  5  0 282567719
[18]  B10 1f 36   -635.8 4092001.7  1.0  0.9  5  0 282567719
[19]  B29 1f 43  -1672.8 4092004.4  1.0  1.0  5  0 282567761
[20]  B30 1f 43    410.6 4091998.9  1.0  1.0  5  0 282567766
lsq: nits= 4
$GNGGA,062924.840,3112.7149,N,12136.4360,E,1,06,1.7,39.1,M,,,,0000*21
$GNRMC,062924.840,A,3112.7149,N,12136.4360,E,0.20,0.00,220519,,*19
$GPGSA,A,3,01,08,11,17,28,30,,,,,,,2.7,1.7,2.1*34
$BDGSA,A,3,,,,,,,,,,,,,2.7,1.7,2.1*23
$GPGSV,2,1,08,01,00,000,37,08,00,000,37,11,00,000,41,17,00,000,44*78
$GPGSV,2,2,08,18,00,000,32,19,00,000,38,28,00,000,41,30,00,000,38*7D
$BDGSV,2,1,05,05,00,000,31,08,00,000,37,10,00,000,36,29,00,000,43*6D
$BDGSV,2,2,05,30,00,000,43*59
$LOGTIM,1,9798265.077459,0.000000,0.000000,0.000000,-64.871*1C
EndT:        1
---00000039--- Acq_st=3 2019-5-22 06:29:25 
[00]  G01  f 37    801.7 2045999.0  1.0  1.0  5  0 282582772
[01]  G08  f 36   1690.5 2045997.8  1.0  1.0  5  0 282582762
[02]  G11  f 40   1197.9 2045998.5  1.0  1.0  5  0 282582770
[03]  G17  f 44  -2015.6 2046002.6  1.0  1.0  5  0 282582761
[04]  G18  f 32   2254.3 2045997.0  1.0  1.0  5  0 282582769
[05]  G19  f 37  -2824.6 2046003.6  1.0  1.0  5  0 282582756
[06]  G28  f 41  -2632.9 2046003.4  1.0  1.0  5  0 282582767
[07]  G30  f 38   1166.3 2045998.5  1.0  1.0  5  0 282582767
[16]  B05 1f 31   -360.5 4092000.9  0.9  0.0  2  1 282568706
[17]  B08 1f 37   -372.2 4092001.0  1.0  1.0  5  0 282568719
[18]  B10 1f 36   -631.6 4092001.7  1.0  0.9  5  0 282568719
[19]  B29 1f 43  -1668.8 4092004.3  1.0  1.0  5  0 282568761
[20]  B30 1f 43    415.0 4091998.9  1.0  1.0  5  0 282568766
lsq: nits= 2
$GNGGA,062926.000,3112.7163,N,12136.4342,E,1,06,1.7,37.5,M,,,,0000*2D
$GNRMC,062926.000,A,3112.7163,N,12136.4342,E,0.19,0.00,220519,,*15
$GPGSA,A,3,01,08,11,17,28,30,,,,,,,2.7,1.7,2.1*34
$BDGSA,A,3,,,,,,,,,,,,,2.7,1.7,2.1*23
$GPGSV,2,1,08,01,00,000,37,08,00,000,36,11,00,000,40,17,00,000,44*78
$GPGSV,2,2,08,18,00,000,32,19,00,000,37,28,00,000,41,30,00,000,38*72
$BDGSV,2,1,05,05,00,000,31,08,00,000,37,10,00,000,36,29,00,000,43*6D
$BDGSV,2,2,05,30,00,000,43*59
$LOGTIM,1,-74.709019,0.000000,0.000000,0.000000,-64.176*0C
EndT:        2
---00000040--- Acq_st=3 2019-5-22 06:29:26 
[00]  G01  f 37    804.2 2045999.0  1.0  0.9  5  0 282583932
[01]  G08  f 37   1692.4 2045997.8  1.0  1.0  5  0 282583922
[02]  G11  f 39   1199.5 2045998.5  1.0  1.0  5  0 282583930
[03]  G17  f 44  -2013.4 2046002.6  1.0  1.0  5  0 282583921
[04]  G18  f 31   2257.3 2045997.1  1.0  0.9  5  0 282583929
[05]  G19  f 37  -2821.8 2046003.7  1.0  1.0  5  0 282583916
[06]  G28  f 41  -2630.3 2046003.4  1.0  1.0  5  0 282583927
[07]  G30  f 37   1169.0 2045998.5  1.0  1.0  5  0 282583927
[16]  B05 1f 32   -359.1 4092000.9  0.9  0.0  2  1 282569866
[17]  B08 1f 37   -369.7 4092000.9  1.0  1.0  5  0 282569879
[18]  B10 1f 36   -629.7 4092001.6  1.0  1.0  5  0 282569879
[19]  B29 1f 43  -1666.5 4092004.4  1.0  1.0  5  0 282569921
[20]  B30 1f 43    417.1 4091998.9  1.0  1.0  5  0 282569926
lsq: nits= 2
$GNGGA,062927.000,3112.7160,N,12136.4349,E,1,06,1.7,38.4,M,,,,0000*2A
$GNRMC,062927.000,A,3112.7160,N,12136.4349,E,0.16,0.00,220519,,*13
$GPGSA,A,3,01,08,11,17,28,30,,,,,,,2.7,1.7,2.1*34
$BDGSA,A,3,,,,,,,,,,,,,2.7,1.7,2.1*23
$GPGSV,2,1,08,01,72,037,37,08,26,066,37,11,58,031,39,17,24,284,44*75
$GPGSV,2,2,08,18,00,000,31,19,05,270,37,28,46,324,41,30,44,240,37*7F
$BDGSV,2,1,05,05,00,000,31,08,00,000,37,10,00,000,36,29,00,000,43*6D
$BDGSV,2,2,05,30,00,000,43*59
$LOGTIM,1,-138.622759,0.000000,0.000000,0.000000,-63.867*30
EndT:        2
---00000041--- Acq_st=3 2019-5-22 06:29:27 
[00]  G01  f 37    803.5 2045998.9  1.0  1.0  5  0 282584932
[01]  G08  f 37   1692.1 2045997.8  1.0  1.0  5  0 282584922
[02]  G11  f 40   1198.7 2045998.4  1.0  1.0  5  0 282584930
[03]  G17  f 45  -2013.9 2046002.6  1.0  1.0  5  0 282584921
[04]  G18  f 29   2255.9 2045997.2  0.9  0.8  5  0 282584929
[05]  G19  f 37  -2822.7 2046003.7  1.0  1.0  5  0 282584916
[06]  G28  f 41  -2631.0 2046003.5  1.0  1.0  5  0 282584927
[07]  G30  f 37   1168.6 2045998.5  1.0  1.0  5  0 282584927
[16]  B05 1f 29   -359.6 4092001.1  0.9  0.0  2  1 282570866
[17]  B08 1f 37   -370.5 4092001.0  1.0  1.0  5  0 282570879
[18]  B10 1f 36   -630.9 4092001.6  1.0  1.0  5  0 282570879
[19]  B29 1f 42  -1667.1 4092004.4  1.0  1.0  5  0 282570921
[20]  B30 1f 43    416.4 4091998.9  1.0  1.0  5  0 282570926
lsq: nits= 2
$GNGGA,062928.000,3112.7160,N,12136.4357,E,1,06,1.7,39.8,M,,,,0000*27
$GNRMC,062928.000,A,3112.7160,N,12136.4357,E,0.11,0.00,220519,,*14
$GPGSA,A,3,01,08,11,17,28,30,,,,,,,2.7,1.7,2.1*34
$BDGSA,A,3,,,,,,,,,,,,,2.7,1.7,2.1*23
$GPGSV,2,1,08,01,72,037,37,08,26,066,37,11,58,031,40,17,24,284,45*7A
$GPGSV,2,2,08,18,00,000,29,19,05,270,37,28,46,324,41,30,44,240,37*76
$BDGSV,2,1,05,05,00,000,29,08,00,000,37,10,00,000,36,29,00,000,42*65
$BDGSV,2,2,05,30,00,000,43*59
$LOGTIM,1,-202.400411,0.000000,0.000000,0.000000,-63.965*34
EndT:        2
---00000042--- Acq_st=3 2019-5-22 06:29:28 
[00]  G01  f 36    804.4 2045999.1  1.0  1.0  5  0 282585932
[01]  G08  f 37   1691.3 2045997.8  1.0  1.0  5  0 282585922
[02]  G11  f 40   1199.4 2045998.5  1.0  1.0  5  0 282585930
[03]  G17  f 45  -2014.2 2046002.6  1.0  1.0  5  0 282585921
[04]  G18  f 29   2256.0 2045997.1  0.9  0.9  5  0 282585929
[05]  G19  f 38  -2823.4 2046003.7  1.0  1.0  5  0 282585916
[06]  G28  f 41  -2631.2 2046003.4  1.0  1.0  5  0 282585927
[07]  G30  f 36   1168.9 2045998.4  1.0  0.9  5  0 282585927
[16]  B05 1f 32   -360.1 4092000.8  0.9  0.0  2  1 282571866
[17]  B08 1f 38   -371.2 4092000.9  1.0  1.0  5  0 282571879
[18]  B10 1f 37   -630.9 4092001.6  1.0  0.9  5  0 282571879
[19]  B29 1f 43  -1667.5 4092004.3  1.0  1.0  5  0 282571921
[20]  B30 1f 44    415.9 4091998.8  1.0  1.0  5  0 282571926
lsq: nits= 2
$GNGGA,062929.000,3112.7158,N,12136.4362,E,1,06,1.7,42.8,M,,,,0000*27
$GNRMC,062929.000,A,3112.7158,N,12136.4362,E,0.10,0.00,220519,,*19
$GPGSA,A,3,01,08,11,17,28,30,,,,,,,2.7,1.7,2.1*34
$BDGSA,A,3,,,,,,,,,,,,,2.7,1.7,2.1*23
$GPGSV,2,1,08,01,72,037,36,08,26,066,37,11,58,031,40,17,24,284,45*7B
$GPGSV,2,2,08,18,00,000,29,19,05,270,38,28,46,324,41,30,44,240,36*78
$BDGSV,2,1,05,05,00,000,32,08,00,000,38,10,00,000,37,29,00,000,43*60
$BDGSV,2,2,05,30,00,000,44*5E
$LOGTIM,1,-265.575383,0.000000,0.000000,0.000000,-63.934*3E
EndT:        2
---00000043--- Acq_st=3 2019-5-22 06:29:29 
[00]  G01  f 37    803.4 2045998.9  1.0  1.0  5  0 282586932
[01]  G08  f 37   1690.0 2045997.8  1.0  0.9  5  0 282586922
[02]  G11  f 41   1198.3 2045998.4  1.0  1.0  5  0 282586930
[03]  G17  f 45  -2015.4 2046002.6  1.0  1.0  5  0 282586921
[04]  G18  f 32   2255.8 2045997.1  1.0  0.9  5  0 282586929
[05]  G19  f 38  -2823.6 2046003.6  1.0  0.9  5  0 282586916
[06]  G28  f 41  -2632.5 2046003.4  1.0  1.0  5  0 282586927
[07]  G30  f 36   1167.2 2045998.5  1.0  1.0  5  0 282586927
[16]  B05 1f 30   -361.1 4092001.1  0.9  0.0  2  1 282572866
[17]  B08 1f 38   -372.0 4092000.9  1.0  1.0  5  0 282572879
[18]  B10 1f 36   -631.6 4092001.6  1.0  1.0  5  0 282572879
[19]  B29 1f 43  -1668.3 4092004.4  1.0  1.0  5  0 282572921
[20]  B30 1f 44    415.0 4091998.9  1.0  1.0  5  0 282572926
lsq: nits= 2
$GNGGA,062930.000,3112.7153,N,12136.4362,E,1,06,1.7,45.4,M,,,,0000*2F
$GNRMC,062930.000,A,3112.7153,N,12136.4362,E,0.20,0.00,220519,,*19
$GPGSA,A,3,01,08,11,17,28,30,,,,,,,2.7,1.7,2.1*34
$BDGSA,A,3,,,,,,,,,,,,,2.7,1.7,2.1*23
$GPGSV,2,1,08,01,72,037,37,08,26,066,37,11,58,031,41,17,24,284,45*7B
$GPGSV,2,2,08,18,00,000,32,19,05,270,38,28,46,324,41,30,44,240,36*72
$BDGSV,2,1,05,05,00,000,30,08,00,000,38,10,00,000,36,29,00,000,43*63
$BDGSV,2,2,05,30,00,000,44*5E
$LOGTIM,1,-328.960443,0.000000,0.000000,0.000000,-64.032*3D
EndT:        3
---00000044--- Acq_st=3 2019-5-22 06:29:30 
[00]  G01  f 38    805.3 2045998.9  1.0  1.0  5  0 282587932
[01]  G08  f 37   1691.6 2045997.8  1.0  1.0  5  0 282587922
[02]  G11  f 39   1199.1 2045998.5  1.0  1.0  5  0 282587930
[03]  G17  f 45  -2014.2 2046002.6  1.0  1.0  5  0 282587921
[04]  G18  f 34   2256.3 2045997.1  1.0  0.9  5  0 282587929
[05]  G19  f 38  -2823.3 2046003.7  1.0  1.0  5  0 282587916
[06]  G28  f 41  -2631.6 2046003.4  1.0  1.0  5  0 282587927
[07]  G30  f 36   1169.9 2045998.5  1.0  0.9  5  0 282587927
[16]  B05 1f 29   -359.1 4092001.2  0.9  0.0  2  1 282573866
[17]  B08 1f 37   -370.6 4092000.9  1.0  1.0  5  0 282573879
[18]  B10 1f 36   -630.6 4092001.6  1.0  1.0  5  0 282573879
[19]  B29 1f 44  -1667.2 4092004.4  1.0  1.0  5  0 282573921
[20]  B30 1f 44    416.3 4091998.9  1.0  1.0  5  0 282573926
lsq: nits= 2
$GNGGA,062931.000,3112.7151,N,12136.4357,E,1,07,1.7,47.3,M,,,,0000*2E
$GNRMC,062931.000,A,3112.7151,N,12136.4357,E,0.10,0.00,220519,,*1F
$GPGSA,A,3,01,08,11,17,19,28,30,,,,,,2.3,1.7,1.6*3C
$BDGSA,A,3,,,,,,,,,,,,,2.3,1.7,1.6*23
$GPGSV,2,1,08,01,72,037,38,08,26,066,37,11,58,031,39,17,24,284,45*7B
$GPGSV,2,2,08,18,00,000,34,19,05,270,38,28,46,324,41,30,44,240,36*74
$BDGSV,2,1,05,05,00,000,29,08,00,000,37,10,00,000,36,29,00,000,44*63
$BDGSV,2,2,05,30,00,000,43*59
$LOGTIM,1,-392.072984,0.000000,0.000000,0.000000,-63.929*34
EndT:        3
---00000045--- Acq_st=3 2019-5-22 06:29:31 
[00]  G01  f 38    806.1 2045998.9  1.0  1.0  5  0 282588932
[01]  G08  f 37   1691.6 2045997.8  1.0  1.0  5  0 282588922
[02]  G11  f 40   1200.1 2045998.5  1.0  1.0  5  0 282588930
[03]  G17  f 45  -2013.8 2046002.6  1.0  1.0  5  0 282588921
[04]  G18  f 35   2258.0 2045997.1  1.0  1.0  5  0 282588929
[05]  G19  f 39  -2822.7 2046003.7  1.0  1.0  5  0 282588916
[06]  G28  f 41  -2630.5 2046003.4  1.0  1.0  5  0 282588927
[07]  G30  f 37   1170.0 2045998.4  1.0  1.0  5  0 282588927
[16]  B05 1f 30   -359.0 4092001.2  0.9  0.0  2  1 282574866
[17]  B08 1f 37   -369.9 4092001.0  1.0  1.0  5  0 282574879
[18]  B10 1f 37   -630.4 4092001.7  1.0  0.9  5  0 282574879
[19]  B29 1f 44  -1666.3 4092004.3  1.0  1.0  5  0 282574921
[20]  B30 1f 44    416.6 4091998.9  1.0  1.0  5  0 282574926
lsq: nits= 2
$GNGGA,062932.000,3112.7152,N,12136.4353,E,1,07,1.7,47.8,M,,,,0000*21
$GNRMC,062932.000,A,3112.7152,N,12136.4353,E,0.02,0.00,220519,,*18
$GPGSA,A,3,01,08,11,17,19,28,30,,,,,,2.3,1.7,1.6*3C
$BDGSA,A,3,,,,,,,,,,,,,2.3,1.7,1.6*23
$GPGSV,2,1,08,01,72,037,38,08,26,066,37,11,58,031,40,17,24,284,45*75
$GPGSV,2,2,08,18,00,000,35,19,05,270,39,28,46,324,41,30,44,240,37*75
$BDGSV,2,1,05,05,00,000,30,08,00,000,37,10,00,000,37,29,00,000,44*6A
$BDGSV,2,2,05,30,00,000,44*5E
$LOGTIM,1,-455.314043,0.000000,0.000000,0.000000,-63.780*34
EndT:        3
---00000046--- Acq_st=3 2019-5-22 06:29:32 
[00]  G01  f 39    810.4 2045998.9  1.0  1.0  5  0 282589932
[01]  G08  f 37   1695.5 2045997.8  1.0  0.9  5  0 282589922
[02]  G11  f 40   1205.1 2045998.4  1.0  1.0  5  0 282589930
[03]  G17  f 45  -2009.9 2046002.6  1.0  1.0  5  0 282589921
[04]  G18  f 35   2262.7 2045997.2  1.0  1.0  5  0 282589929
[05]  G19  f 39  -2819.5 2046003.7  1.0  1.0  5  0 282589916
[06]  G28  f 41  -2626.3 2046003.4  1.0  1.0  5  0 282589927
[07]  G30  f 37   1175.0 2045998.4  1.0  0.9  5  0 282589927
[16]  B05 1f 31   -355.8 4092000.9  0.8  0.0  2  1 282575866
[17]  B08 1f 37   -367.1 4092000.9  1.0  1.0  5  0 282575879
[18]  B10 1f 36   -626.3 4092001.6  1.0  1.0  5  0 282575879
[19]  B29 1f 43  -1662.6 4092004.3  1.0  1.0  5  0 282575921
[20]  B30 1f 43    420.8 4091998.9  1.0  1.0  5  0 282575926
lsq: nits= 2
$GNGGA,062933.000,3112.7158,N,12136.4349,E,1,07,1.7,47.8,M,,,,0000*21
$GNRMC,062933.000,A,3112.7158,N,12136.4349,E,0.28,0.00,220519,,*10
$GPGSA,A,3,01,08,11,17,19,28,30,,,,,,2.3,1.7,1.6*3C
$BDGSA,A,3,,,,,,,,,,,,,2.3,1.7,1.6*23
$GPGSV,2,1,08,01,72,037,39,08,26,066,37,11,58,031,40,17,24,284,45*74
$GPGSV,2,2,08,18,00,000,35,19,05,270,39,28,46,324,41,30,44,240,37*75
$BDGSV,2,1,05,05,00,000,31,08,00,000,37,10,00,000,36,29,00,000,43*6D
$BDGSV,2,2,05,30,00,000,43*59
$LOGTIM,1,-518.049781,0.000000,0.000000,0.000000,-63.291*3B
EndT:        3
---00000047--- Acq_st=3 2019-5-22 06:29:33 
[00]  G01  f 40    813.8 2045998.9  1.0  1.0  5  0 282590932
[01]  G08  f 37   1698.4 2045997.8  1.0  1.0  5  0 282590922
[02]  G11  f 39   1207.0 2045998.4  1.0  1.0  5  0 282590930
[03]  G17  f 46  -2006.9 2046002.6  1.0  1.0  5  0 282590921
[04]  G18  f 35   2264.8 2045997.0  1.0  1.0  5  0 282590929
[05]  G19  f 39  -2815.9 2046003.7  1.0  1.0  5  0 282590916
[06]  G28  f 40  -2623.6 2046003.4  1.0  1.0  5  0 282590927
[07]  G30  f 36   1177.5 2045998.5  1.0  1.0  5  0 282590927
[16]  B05 1f 30   -352.6 4092000.9  0.8  0.0  2  1 282576866
[17]  B08 1f 37   -363.5 4092001.0  1.0  1.0  5  0 282576879
[18]  B10 1f 37   -623.3 4092001.6  1.0  1.0  5  0 282576879
[19]  B29 1f 44  -1659.3 4092004.3  1.0  1.0  5  0 282576921
[20]  B30 1f 44    423.8 4091998.9  1.0  1.0  5  0 282576926
lsq: nits= 2
$GNGGA,062934.000,3112.7161,N,12136.4352,E,1,07,1.7,47.6,M,,,,0000*28
$GNRMC,062934.000,A,3112.7161,N,12136.4352,E,0.32,0.00,220519,,*1C
$GPGSA,A,3,01,08,11,17,19,28,30,,,,,,2.3,1.7,1.6*3C
$BDGSA,A,3,,,,,,,,,,,,,2.3,1.7,1.6*23
$GPGSV,2,1,08,01,72,037,40,08,26,066,37,11,58,031,39,17,24,284,46*77
$GPGSV,2,2,08,18,00,000,35,19,05,270,39,28,46,324,40,30,44,240,36*75
$BDGSV,2,1,05,05,00,000,30,08,00,000,37,10,00,000,37,29,00,000,44*6A
$BDGSV,2,2,05,30,00,000,44*5E
$LOGTIM,1,-580.505046,0.000000,0.000000,0.000000,-62.988*39
EndT:        3
---00000048--- Acq_st=3 2019-5-22 06:29:34 
[00]  G01  f 39    811.7 2045999.0  1.0  1.0  5  0 282591932
[01]  G08  f 37   1696.2 2045997.8  1.0  1.0  5  0 282591922
[02]  G11  f 39   1205.0 2045998.4  1.0  1.0  5  0 282591930
[03]  G17  f 45  -2009.5 2046002.6  1.0  1.0  5  0 282591921
[04]  G18  f 35   2263.2 2045997.0  1.0  0.9  5  0 282591929
[05]  G19  f 39  -2818.6 2046003.6  1.0  1.1  5  0 282591916
[06]  G28  f 41  -2626.0 2046003.4  1.0  1.0  5  0 282591927
[07]  G30  f 37   1176.4 2045998.5  1.0  1.0  5  0 282591927
[16]  B05 1f 29   -354.5 4092000.9  0.9  0.0  2  1 282577866
[17]  B08 1f 37   -365.3 4092000.9  1.0  1.0  5  0 282577879
[18]  B10 1f 37   -625.0 4092001.6  1.0  1.0  5  0 282577879
[19]  B29 1f 44  -1661.5 4092004.3  1.0  1.0  5  0 282577921
[20]  B30 1f 44    421.5 4091998.9  1.0  1.0  5  0 282577926
lsq: nits= 2
$GNGGA,062935.000,3112.7160,N,12136.4355,E,1,07,1.7,47.2,M,,,,0000*2B
$GNRMC,062935.000,A,3112.7160,N,12136.4355,E,0.17,0.00,220519,,*1C
$GPGSA,A,3,01,08,11,17,19,28,30,,,,,,2.3,1.7,1.6*3C
$BDGSA,A,3,,,,,,,,,,,,,2.3,1.7,1.6*23
$GPGSV,2,1,08,01,72,037,39,08,26,066,37,11,58,031,39,17,24,284,45*7A
$GPGSV,2,2,08,18,00,000,35,19,05,270,39,28,46,324,41,30,44,240,37*75
$BDGSV,2,1,05,05,00,000,29,08,00,000,37,10,00,000,37,29,00,000,44*62
$BDGSV,2,2,05,30,00,000,44*5E
$LOGTIM,1,-643.342028,0.000000,0.000000,0.000000,-63.056*33
EndT:        3
---00000049--- Acq_st=3 2019-5-22 06:29:35 
[00]  G01  f 40    816.0 2045998.9  1.0  1.0  5  0 282592932
[01]  G08  f 38   1699.3 2045997.8  1.0  1.0  5  0 282592922
[02]  G11  f 39   1208.8 2045998.4  1.0  1.0  5  0 282592930
[03]  G17  f 45  -2006.1 2046002.6  1.0  1.0  5  0 282592921
[04]  G18  f 35   2267.6 2045997.0  1.0  0.9  5  0 282592929
[05]  G19  f 39  -2815.2 2046003.7  1.0  1.0  5  0 282592916
[06]  G28  f 41  -2622.5 2046003.4  1.0  1.0  5  0 282592927
[07]  G30  f 36   1179.7 2045998.4  1.0  0.9  5  0 282592927
[16]  B05 1f 30   -351.7 4092001.1  0.8  0.0  2  1 282578866
[17]  B08 1f 37   -361.7 4092000.9  1.0  1.0  5  0 282578879
[18]  B10 1f 37   -622.6 4092001.6  1.0  1.0  5  0 282578879
[19]  B29 1f 44  -1658.5 4092004.3  1.0  1.0  5  0 282578921
[20]  B30 1f 44    424.9 4091998.8  1.0  1.0  5  0 282578926
lsq: nits= 2
$GNGGA,062936.000,3112.7156,N,12136.4351,E,1,07,1.7,46.0,M,,,,0000*2A
$GNRMC,062936.000,A,3112.7156,N,12136.4351,E,0.46,0.00,220519,,*1A
$GPGSA,A,3,01,08,11,17,19,28,30,,,,,,2.3,1.7,1.6*3C
$BDGSA,A,3,,,,,,,,,,,,,2.3,1.7,1.6*23
$GPGSV,2,1,08,01,72,037,40,08,26,066,38,11,58,031,39,17,24,284,45*7B
$GPGSV,2,2,08,18,00,000,35,19,05,270,39,28,46,324,41,30,44,240,36*74
$BDGSV,2,1,05,05,00,000,30,08,00,000,37,10,00,000,37,29,00,000,44*6A
$BDGSV,2,2,05,30,00,000,44*5E
$LOGTIM,1,-706.417266,0.000000,0.000000,0.000000,-62.703*3A
EndT:        3
---00000050--- Acq_st=3 2019-5-22 06:29:36 
[00]  G01  f 41    818.3 2045998.9  1.0  1.0  5  0 282593932
[01]  G08  f 39   1701.9 2045997.8  1.0  1.0  5  0 282593922
[02]  G11  f 39   1211.3 2045998.4  1.0  1.0  5  0 282593930
[03]  G17  f 45  -2003.8 2046002.6  1.0  1.0  5  0 282593921
[04]  G18  f 37   2269.4 2045997.0  1.0  1.0  5  0 282593929
[05]  G19  f 39  -2812.6 2046003.7  1.0  1.0  5  0 282593916
[06]  G28  f 42  -2619.7 2046003.4  1.0  1.0  5  0 282593927
