FlashID=0x1 0x20 0x18
BBram_blkflag1: 1a5d: e5a2
FW Ver: 1.30  
GPS00 Init Dop:   5000, 40
GPS01 Init Dop:   5000, 40
GPS02 Init Dop:   5000, 40
GPS03 Init Dop:   5000, 40
GPS04 Init Dop:   5000, 40
GPS05 Init Dop:   5000, 40
GPS06 Init Dop:   5000, 40
GPS07 Init Dop:   5000, 40
GPS08 Init Dop:   5000, 40
GPS09 Init Dop:   5000, 40
GPS10 Init Dop:   5000, 40
GPS11 Init Dop:   5000, 40
GPS12 Init Dop:   5000, 40
GPS13 Init Dop:   5000, 40
GPS14 Init Dop:   5000, 40
GPS15 Init Dop:   5000, 40
GPS16 Init Dop:   5000, 40
GPS17 Init Dop:   5000, 40
GPS18 Init Dop:   5000, 40
GPS19 Init Dop:   5000, 40
GPS20 Init Dop:   5000, 40
GPS21 Init Dop:   5000, 40
GPS22 Init Dop:   5000, 40
GPS23 Init Dop:   5000, 40
GPS24 Init Dop:   5000, 40
GPS25 Init Dop:   5000, 40
GPS26 Init Dop:   5000, 40
GPS27 Init Dop:   5000, 40
GPS28 Init Dop:   5000, 40
GPS29 Init Dop:   5000, 40
GPS30 Init Dop:   5000, 40
GPS31 Init Dop:   5000, 40
BDS00 Init Dop:   5000, 40
BDS01 Init Dop:   5000, 40
BDS02 Init Dop:   5000, 40
BDS03 Init Dop:   5000, 40
BDS04 Init Dop:   5000, 40
BDS05 Init Dop:   5000, 40
BDS06 Init Dop:   5000, 40
BDS07 Init Dop:   5000, 40
BDS08 Init Dop:   5000, 40
BDS09 Init Dop:   5000, 40
BDS10 Init Dop:   5000, 40
BDS11 Init Dop:   5000, 40
BDS12 Init Dop:   5000, 40
BDS13 Init Dop:   5000, 40
BDS14 Init Dop:   5000, 40
BDS15 Init Dop:   5000, 40
BDS16 Init Dop:   5000, 40
BDS17 Init Dop:   5000, 40
BDS18 Init Dop:   5000, 40
BDS19 Init Dop:   5000, 40
BDS20 Init Dop:   5000, 40
BDS21 Init Dop:   5000, 40
BDS22 Init Dop:   5000, 40
BDS23 Init Dop:   5000, 40
BDS24 Init Dop:   5000, 40
BDS25 Init Dop:   5000, 40
BDS26 Init Dop:   5000, 40
BDS27 Init Dop:   5000, 40
BDS28 Init Dop:   5000, 40
BDS29 Init Dop:   5000, 40
BDS30 Init Dop:   5000, 40
BDS31 Init Dop:   5000, 40
good luck!
---00000001--- Acq_st=3 2019-5-22 06:32:48 
[00]  G01  1 26    932.1 2045998.8  0.0  0.0  1  0         0
$GNGGA,000000.000,,,,,0,00,,,M,,,,0000*2B
$GNRMC,000000.000,A,,,,,,,000000,,*26
$GPGSA,A,1,,,,,,,,,,,,,,,*1E
$BDGSA,A,1,,,,,,,,,,,,,,,*0F
$LOGTIM,0,0.000000,0.000000,0.000000,0.000000,0.000*0A
EndT:        0
---00000002--- Acq_st=3 2019-5-22 06:32:49 
[00]  G01  7 28    929.8 2045998.8  0.4  1.0 10  0         1
[01]  G08  1  7   1745.3 2045999.6  0.0  0.0  1  0         0
$GNGGA,000000.000,,,,,0,00,,,M,,,,0000*2B
$GNRMC,000000.000,A,,,,,,,000000,,*26
$GPGSA,A,1,,,,,,,,,,,,,,,*1E
$BDGSA,A,1,,,,,,,,,,,,,,,*0F
$GPGSV,1,1,01,01,00,000,28*43
$LOGTIM,0,0.000000,0.000000,0.000000,0.000000,0.000*0A
EndT:        0
---00000003--- Acq_st=3 2019-5-22 06:32:50 
[00]  G01  7 40    932.6 2045998.8  1.0  1.0  5  0        19
[01]  G08  7 17   1699.9 2045997.7  0.0  0.0 20  0         5
[02]  G11  1 29   1288.0 2045999.0  0.0  0.0  1  0         0
$GNGGA,000000.000,,,,,0,00,,,M,,,,0000*2B
$GNRMC,000000.000,A,,,,,,,000000,,*26
$GPGSA,A,1,,,,,,,,,,,,,,,*1E
$BDGSA,A,1,,,,,,,,,,,,,,,*0F
$GPGSV,1,1,02,01,00,000,40,08,00,000,17*70
$LOGTIM,0,0.000000,0.000000,0.000000,0.000000,0.000*0A
EndT:        0
---00000004--- Acq_st=3 2019-5-22 06:32:51 
[00]  G01  7 40    932.4 2045998.8  1.0  1.0  5  0        19
[01]  G08  7 28   1685.2 2045997.7  0.5  0.0  5  0         8
[02]  G11  7 29   1280.5 2045998.2  0.5  1.0  5  0        13
[03]  G17  1 32  -1984.3 2046003.2  0.2  0.0  1  0         0
[04]  G19  1  7  -2864.9 2046005.3  0.0  0.0  1  0         0
$GNGGA,000000.000,,,,,0,00,,,M,,,,0000*2B
$GNRMC,000000.000,A,,,,,,,000000,,*26
$GPGSA,A,1,,,,,,,,,,,,,,,*1E
$BDGSA,A,1,,,,,,,,,,,,,,,*0F
$GPGSV,1,1,03,01,00,000,40,08,00,000,28,11,00,000,29*46
$LOGTIM,0,0.000000,0.000000,0.000000,0.000000,0.000*0A
EndT:        1
---00000005--- Acq_st=3 2019-5-22 06:32:52 
[00]  G01  7 40    930.2 2045998.8  1.0  1.0  5  0        19
[01]  G08  7 25   1684.5 2045997.8 -0.3 -0.1 10  0         8
[02]  G11  7 40   1278.5 2045998.2  1.0  1.0  5  0        17
[03]  G17  7 28  -1988.0 2046002.5  0.6  0.0 10  0         8
[04]  G19  7  7  -2800.5 2046003.5  0.3  0.0 20  0         6
$GNGGA,000000.000,,,,,0,00,,,M,,,,0000*2B
$GNRMC,000000.000,A,,,,,,,000000,,*26
$GPGSA,A,1,,,,,,,,,,,,,,,*1E
$BDGSA,A,1,,,,,,,,,,,,,,,*0F
$GPGSV,1,1,04,01,00,000,40,08,00,000,25,11,00,000,40,17,00,000,28*7F
$LOGTIM,0,0.000000,0.000000,0.000000,0.000000,0.000*0A
EndT:        0
---00000006--- Acq_st=3 2019-5-22 06:32:53 
[00]  G01  7 39    930.2 2045998.8  1.0  1.0  5  0        19
[01]  G08  7 26   1685.9 2045997.8 -1.0 -0.0 10  0         8
[02]  G11  7 40   1278.2 2045998.3  1.0  1.0  5  0        17
[03]  G17  7 45  -1987.7 2046002.6  1.0  1.0  5  0         8
[04]  G19  7 42  -2799.2 2046003.6  0.7  1.0  5  0         3
[05]  G28  1  7  -2557.8 2046005.2 -0.0  0.0  1  0         0
[06]  G30  1  7   1133.4 2045999.7 -0.1  0.0  1  0         0
$GNGGA,000000.000,,,,,0,00,,,M,,,,0000*2B
$GNRMC,000000.000,A,,,,,,,000000,,*26
$GPGSA,A,1,,,,,,,,,,,,,,,*1E
$BDGSA,A,1,,,,,,,,,,,,,,,*0F
$GPGSV,2,1,05,01,00,000,39,08,00,000,26,11,00,000,40,17,00,000,45*7B
$GPGSV,2,2,05,19,00,000,42*42
$LOGTIM,0,0.000000,0.000000,0.000000,0.000000,0.000*0A
EndT:        0
---00000007--- Acq_st=3 2019-5-22 06:32:54 
[00]  G01  7 39    933.2 2045998.8  1.0  1.0  5  0        19
[01]  G08  7 26   1688.0 2045997.7 -0.9  0.0 10  0         8
[02]  G11  7 40   1281.1 2045998.3  1.0  1.0  5  0        17
[03]  G17  7 45  -1986.0 2046002.5  1.0  1.0  5  0         8
[04]  G19  7 42  -2796.8 2046003.6  1.0  1.0  5  0         3
[05]  G28  7 24  -2583.6 2046003.3  0.2  0.0 20  0         9
[06]  G30  1 23   1265.7 2045998.6  0.0  0.0  1  0         7
$GNGGA,000000.000,,,,,0,00,,,M,,,,0000*2B
$GNRMC,000000.000,A,,,,,,,000000,,*26
$GPGSA,A,1,,,,,,,,,,,,,,,*1E
$BDGSA,A,1,,,,,,,,,,,,,,,*0F
$GPGSV,2,1,06,01,00,000,39,08,00,000,26,11,00,000,40,17,00,000,45*78
$GPGSV,2,2,06,19,00,000,42,28,00,000,24*7D
$LOGTIM,0,0.000000,0.000000,0.000000,0.000000,0.000*0A
EndT:        0
---00000008--- Acq_st=3 2019-5-22 06:32:55 
[00]  G01  7 38    932.8 2045998.8  1.0  1.0  5  0        19
[01]  G08  7 26   1687.4 2045997.9 -0.9  0.0 10  0         8
[02]  G11  7 40   1280.7 2045998.4  1.0  1.0  5  0        17
[03]  G17  7 45  -1986.2 2046002.6  1.0  1.0  5  0         8
[04]  G19  7 42  -2797.2 2046003.6  1.0  1.0  5  0         3
[05]  G28  7 36  -2583.9 2046003.4  0.6  1.0  5  0        14
[06]  G30  7 29   1290.3 2045998.5  0.3  0.6  5  0         7
$GNGGA,000000.000,,,,,0,00,,,M,,,,0000*2B
$GNRMC,000000.000,A,,,,,,,000000,,*26
$GPGSA,A,1,,,,,,,,,,,,,,,*1E
$BDGSA,A,1,,,,,,,,,,,,,,,*0F
$GPGSV,2,1,07,01,00,000,38,08,00,000,26,11,00,000,40,17,00,000,45*78
$GPGSV,2,2,07,19,00,000,42,28,00,000,36,30,00,000,29*47
$LOGTIM,0,0.000000,0.000000,0.000000,0.000000,0.000*0A
EndT:        0
---00000009--- Acq_st=3 2019-5-22 06:32:56 
[00]  G01  f 37    932.1 2045998.8  1.0  1.0  5  0        19
[01]  G08  7 26   1686.3 2045997.7 -1.0 -0.0 10  0         8
[02]  G11  f 39   1279.3 2045998.3  1.0  1.0  5  0        17
[03]  G17  f 45  -1987.8 2046002.6  1.0  1.0  5  0         8
[04]  G19  f 42  -2798.8 2046003.7  1.0  1.0  5  0         3
[05]  G28  f 35  -2585.1 2046003.4  1.0  1.0  5  0        14
[06]  G30  7 30   1289.4 2045998.2  0.9  0.9  5  0        14
[16]  B05  1 10   -334.4 4092002.2 -0.2  0.0  1  0         0
$GNGGA,000000.000,,,,,0,00,,,M,,,,0000*2B
$GNRMC,000000.000,A,,,,,,,000000,,*26
$GPGSA,A,1,,,,,,,,,,,,,,,*1E
$BDGSA,A,1,,,,,,,,,,,,,,,*0F
$GPGSV,2,1,07,01,00,000,37,08,00,000,26,11,00,000,39,17,00,000,45*79
$GPGSV,2,2,07,19,00,000,42,28,00,000,35,30,00,000,30*4C
$LOGTIM,0,0.000000,0.000000,0.000000,0.000000,0.000*0A
EndT:        0
---00000010--- Acq_st=3 2019-5-22 06:32:57 
[00]  G01  f 36    938.2 2045998.9  1.0  0.9  5  0 282793739
[01]  G08  7 26   1691.6 2045997.8 -0.8 -0.0 10  0         8
[02]  G11  f 39   1285.2 2045998.4  1.0  1.0  5  0 282793737
[03]  G17  f 44  -1982.0 2046002.6  1.0  1.0  5  0 282793728
[04]  G19  f 41  -2793.2 2046003.6  1.0  1.0  5  0 282793723
[05]  G28  f 35  -2579.1 2046003.4  1.0  1.0  5  0 282793734
[06]  G30  7 32   1296.4 2045998.2  1.0  0.9  5  0        14
[16]  B05  7 30   -342.5 4092001.0  0.9  0.0  2  0       881
[17]  B08  1  7   -319.2 4092001.4 -0.1  0.0  1  0         0
$GNGGA,000000.000,,,,,0,00,,,M,,,,0000*2B
$GNRMC,000000.000,A,,,,,,,000000,,*26
$GPGSA,A,1,,,,,,,,,,,,,,,*1E
$BDGSA,A,1,,,,,,,,,,,,,,,*0F
$GPGSV,2,1,07,01,00,000,36,08,00,000,26,11,00,000,39,17,00,000,44*79
$GPGSV,2,2,07,19,00,000,41,28,00,000,35,30,00,000,32*4D
$BDGSV,1,1,01,05,00,000,30*5F
$LOGTIM,0,0.000000,0.000000,0.000000,0.000000,0.000*0A
EndT:        1
---00000011--- Acq_st=3 2019-5-22 06:32:58 
[00]  G01  f 36    937.4 2045998.8  1.0  1.0  5  0 282794739
[01]  G08  7 26   1690.6 2045997.7 -0.9 -0.1 10  0         8
[02]  G11  f 38   1284.4 2045998.4  1.0  1.0  5  0 282794737
[03]  G17  f 43  -1983.3 2046002.6  1.0  1.0  5  0 282794728
[04]  G19  f 41  -2793.9 2046003.6  1.0  1.0  5  0 282794723
[05]  G28  f 35  -2579.7 2046003.4  1.0  1.0  5  0 282794734
[06]  G30  7 32   1295.8 2045998.2  1.0  0.9  5  0        14
[16]  B05  f 30   -343.5 4092000.8  0.8  0.0  2  0      1880
[17]  B08  7 25   -327.1 4092000.9 -0.0  0.0 20  0       680
$GNGGA,000000.000,,,,,0,00,,,M,,,,0000*2B
$GNRMC,000000.000,A,,,,,,,000000,,*26
$GPGSA,A,1,,,,,,,,,,,,,,,*1E
$BDGSA,A,1,,,,,,,,,,,,,,,*0F
$GPGSV,2,1,07,01,00,000,36,08,00,000,26,11,00,000,38,17,00,000,43*7F
$GPGSV,2,2,07,19,00,000,41,28,00,000,35,30,00,000,32*4D
$BDGSV,1,1,02,05,00,000,30,08,00,000,25*63
$LOGTIM,0,0.000000,0.000000,0.000000,0.000000,0.000*0A
EndT:        0
---00000012--- Acq_st=3 2019-5-22 06:32:59 
[00]  G01  f 37    940.9 2045998.7  1.0  1.0  5  0 282795739
[01]  G08  7 26   1693.7 2045997.7 -0.9  0.0 10  0         8
[02]  G11  f 38   1288.3 2045998.3  1.0  1.0  5  0 282795737
[03]  G17  f 43  -1979.6 2046002.6  1.0  1.0  5  0 282795728
[04]  G19  f 41  -2791.4 2046003.6  1.0  1.0  5  0 282795723
[05]  G28  f 35  -2576.2 2046003.4  1.0  0.9  5  0 282795734
[06]  G30  7 31   1299.3 2045998.2  0.9  0.9  5  0        14
[16]  B05  f 32   -339.9 4092000.9  0.9  0.0  2  0 282782272
[17]  B08  7 39   -327.4 4092000.8  0.9  1.0  5  0      1666
$GNGGA,000000.000,,,,,0,00,,,M,,,,0000*2B
$GNRMC,000000.000,A,,,,,,,000000,,*26
$GPGSA,A,1,,,,,,,,,,,,,,,*1E
$BDGSA,A,1,,,,,,,,,,,,,,,*0F
$GPGSV,2,1,07,01,00,000,37,08,00,000,26,11,00,000,38,17,00,000,43*7E
$GPGSV,2,2,07,19,00,000,41,28,00,000,35,30,00,000,31*4E
$BDGSV,1,1,02,05,00,000,32,08,00,000,39*6C
$LOGTIM,0,0.000000,0.000000,0.000000,0.000000,0.000*0A
EndT:        1
---00000013--- Acq_st=3 2019-5-22 06:33:0 
[00]  G01  f 37    942.6 2045998.7  1.0  1.0  5  0 282796739
[01]  G08  7 26   1692.9 2045997.7 -0.9  0.0 10  0         8
[02]  G11  f 38   1288.6 2045998.3  1.0  1.0  5  0 282796737
[03]  G17  f 43  -1979.6 2046002.6  1.0  1.0  5  0 282796728
[04]  G19  f 41  -2790.6 2046003.6  1.0  1.0  5  0 282796723
[05]  G28  f 36  -2576.2 2046003.3  1.0  1.0  5  0 282796734
[06]  G30  7 30   1300.9 2045998.2  0.9  0.8  5  0        14
[16]  B05 1f 31   -340.7 4092001.2  0.9  0.0  2  0 282783272
[17]  B08  7 39   -327.7 4092000.9  1.0  0.9  5  0      2666
$GNGGA,000000.000,,,,,0,00,,,M,,,,0000*2B
$GNRMC,000000.000,A,,,,,,,000000,,*26
$GPGSA,A,1,,,,,,,,,,,,,,,*1E
$BDGSA,A,1,,,,,,,,,,,,,,,*0F
$GPGSV,2,1,07,01,00,000,37,08,00,000,26,11,00,000,38,17,00,000,43*7E
$GPGSV,2,2,07,19,00,000,41,28,00,000,36,30,00,000,30*4C
$BDGSV,1,1,02,05,00,000,31,08,00,000,39*6F
$LOGTIM,0,0.000000,0.000000,0.000000,0.000000,0.000*0A
EndT:        0
---00000014--- Acq_st=3 2019-5-22 06:33:1 
[00]  G01  f 37    941.9 2045998.8  1.0  1.0  5  0 282797739
[01]  G08  7 26   1691.9 2045997.8 -1.0 -0.1 10  0         8
[02]  G11  f 38   1287.8 2045998.3  1.0  1.0  5  0 282797737
[03]  G17  f 43  -1980.6 2046002.6  1.0  1.0  5  0 282797728
[04]  G19  f 41  -2791.5 2046003.6  1.0  1.0  5  0 282797723
[05]  G28  f 36  -2577.0 2046003.3  1.0  1.0  5  0 282797734
[06]  G30  7 31   1298.5 2045998.1  0.9  0.9  5  0        14
[16]  B05 1f 30   -341.3 4092000.9  0.8  0.0  2  0 282783672
[17]  B08  7 39   -328.1 4092000.9  1.0  1.0  5  0      3666
$GNGGA,000000.000,,,,,0,00,,,M,,,,0000*2B
$GNRMC,000000.000,A,,,,,,,000000,,*26
$GPGSA,A,1,,,,,,,,,,,,,,,*1E
$BDGSA,A,1,,,,,,,,,,,,,,,*0F
$GPGSV,2,1,07,01,00,000,37,08,00,000,26,11,00,000,38,17,00,000,43*7E
$GPGSV,2,2,07,19,00,000,41,28,00,000,36,30,00,000,31*4D
$BDGSV,1,1,02,05,00,000,30,08,00,000,39*6E
$LOGTIM,0,0.000000,0.000000,0.000000,0.000000,0.000*0A
EndT:        0
---00000015--- Acq_st=3 2019-5-22 06:33:2 
[00]  G01  f 37    940.4 2045998.8  1.0  1.0  5  0 282798739
[01]  G08  7 26   1689.9 2045997.8 -0.9 -0.0 10  0         8
[02]  G11  f 38   1286.0 2045998.4  1.0  1.0  5  0 282798737
[03]  G17  f 42  -1982.3 2046002.6  1.0  1.0  5  0 282798728
[04]  G19  f 41  -2793.4 2046003.6  1.0  1.0  5  0 282798723
[05]  G28  f 36  -2578.6 2046003.3  1.0  1.0  5  0 282798734
[06]  G30  f 33   1298.1 2045998.3  1.0  0.9  5  0        14
[16]  B05 1f 30   -342.8 4092000.9  0.9  0.0  2  0 282784672
[17]  B08  7 38   -329.7 4092000.9  1.0  1.0  5  0      4666
$GNGGA,000000.000,,,,,0,00,,,M,,,,0000*2B
$GNRMC,000000.000,A,,,,,,,000000,,*26
$GPGSA,A,1,,,,,,,,,,,,,,,*1E
$BDGSA,A,1,,,,,,,,,,,,,,,*0F
$GPGSV,2,1,07,01,00,000,37,08,00,000,26,11,00,000,38,17,00,000,42*7F
$GPGSV,2,2,07,19,00,000,41,28,00,000,36,30,00,000,33*4F
$BDGSV,1,1,02,05,00,000,30,08,00,000,38*6F
$LOGTIM,0,0.000000,0.000000,0.000000,0.000000,0.000*0A
EndT:        0
---00000016--- Acq_st=3 2019-5-22 06:33:3 
[00]  G01  f 38    939.3 2045998.8  1.0  1.0  5  0 282799739
[01]  G08  7 26   1688.9 2045997.8 -0.9 -0.0 10  0         8
[02]  G11  f 38   1285.1 2045998.4  1.0  1.0  5  0 282799737
[03]  G17  f 42  -1983.5 2046002.6  1.0  1.0  5  0 282799728
[04]  G19  f 41  -2795.4 2046003.6  1.0  1.0  5  0 282799723
[05]  G28  f 37  -2580.1 2046003.3  1.0  1.0  5  0 282799734
[06]  G30  f 34   1296.1 2045998.2  1.0  1.0  5  0 282799734
[16]  B05 1f 31   -344.7 4092000.9  0.9  0.0  2  0 282785672
[17]  B08  7 38   -331.7 4092000.9  1.0  1.0  5  0      5666
$GNGGA,000000.000,,,,,0,00,,,M,,,,0000*2B
$GNRMC,000000.000,A,,,,,,,000000,,*26
$GPGSA,A,1,,,,,,,,,,,,,,,*1E
$BDGSA,A,1,,,,,,,,,,,,,,,*0F
$GPGSV,2,1,07,01,00,000,38,08,00,000,26,11,00,000,38,17,00,000,42*70
$GPGSV,2,2,07,19,00,000,41,28,00,000,37,30,00,000,34*49
$BDGSV,1,1,02,05,00,000,31,08,00,000,38*6E
$LOGTIM,0,0.000000,0.000000,0.000000,0.000000,0.000*0A
EndT:        0
---00000017--- Acq_st=3 2019-5-22 06:33:4 
[00]  G01  f 38    939.1 2045998.8  1.0  1.0  5  0 282800739
[01]  G08  7 26   1688.0 2045997.8 -0.9 -0.1 10  0         8
[02]  G11  f 38   1285.2 2045998.3  1.0  1.0  5  0 282800737
[03]  G17  f 42  -1984.1 2046002.6  1.0  1.0  5  0 282800728
[04]  G19  f 41  -2795.4 2046003.6  1.0  1.0  5  0 282800723
[05]  G28  f 37  -2581.5 2046003.3  1.0  1.0  5  0 282800734
[06]  G30  f 33   1296.3 2045998.3  1.0  1.0  5  0 282800734
[16]  B05 1f 31   -345.3 4092001.0  0.9  0.0  2  0 282786672
[17]  B08 1f 38   -331.3 4092000.9  1.0  1.0  5  0      6666
[18]  B27  1  7   3766.9 4091995.1 -0.0  0.0  1  0         0
$GNGGA,000000.000,,,,,0,00,,,M,,,,0000*2B
$GNRMC,000000.000,A,,,,,,,000000,,*26
$GPGSA,A,1,,,,,,,,,,,,,,,*1E
$BDGSA,A,1,,,,,,,,,,,,,,,*0F
$GPGSV,2,1,07,01,00,000,38,08,00,000,26,11,00,000,38,17,00,000,42*70
$GPGSV,2,2,07,19,00,000,41,28,00,000,37,30,00,000,33*4E
$BDGSV,1,1,02,05,00,000,31,08,00,000,38*6E
$LOGTIM,0,0.000000,0.000000,0.000000,0.000000,0.000*0A
EndT:        0
---00000018--- Acq_st=3 2019-5-22 06:33:5 
[00]  G01  f 39    938.5 2045998.8  1.0  1.0  5  0 282801739
[01]  G08  7 26   1686.5 2045997.6 -0.9 -0.0 10  0         8
[02]  G11  f 38   1283.3 2045998.4  1.0  0.9  5  0 282801737
[03]  G17  f 41  -1985.6 2046002.6  1.0  1.0  5  0 282801728
[04]  G19  f 42  -2797.3 2046003.6  1.0  1.0  5  0 282801723
[05]  G28  f 37  -2582.1 2046003.3  1.0  1.0  5  0 282801734
[06]  G30  f 33   1295.5 2045998.3  1.0  0.9  5  0 282801734
[16]  B05 1f 30   -346.7 4092000.9  0.9  0.0  2  0 282787672
[17]  B08 1f 38   -333.1 4092000.8  1.0  1.0  5  0 282787686
[18]  B27  1  7   1899.3 4091993.7  0.1  0.0  1  0        68
[19]  B29  1  7  -1696.0 4092006.0 -0.1  0.0  1  0         0
$GNGGA,000000.000,,,,,0,00,,,M,,,,0000*2B
$GNRMC,000000.000,A,,,,,,,000000,,*26
$GPGSA,A,1,,,,,,,,,,,,,,,*1E
$BDGSA,A,1,,,,,,,,,,,,,,,*0F
$GPGSV,2,1,07,01,00,000,39,08,00,000,26,11,00,000,38,17,00,000,41*72
$GPGSV,2,2,07,19,00,000,42,28,00,000,37,30,00,000,33*4D
$BDGSV,1,1,02,05,00,000,30,08,00,000,38*6F
$LOGTIM,0,0.000000,0.000000,0.000000,0.000000,0.000*0A
EndT:        0
---00000019--- Acq_st=7 2019-5-22 06:33:6 
[00]  G01  f 39    945.8 2045998.8  1.0  1.0  5  0 282802739
[01]  G08  7 26   1693.5 2045997.9 -0.6  0.0 10  0         8
[02]  G11  f 37   1291.4 2045998.3  1.0  1.0  5  0 282802737
[03]  G17  f 41  -1978.5 2046002.6  1.0  1.0  5  0 282802728
[04]  G19  f 42  -2790.1 2046003.6  1.0  1.0  5  0 282802723
[05]  G28  f 38  -2574.8 2046003.4  1.0  1.0  5  0 282802734
[06]  G30  f 33   1302.0 2045998.4  1.0  0.9  5  0 282802734
[16]  B05 1f 30   -339.2 4092000.9  0.8  0.0  2  0 282788672
[17]  B08 1f 38   -325.7 4092000.8  1.0  1.0  5  0 282788686
[18]  B27  7 30   1903.8 4091994.9  0.2  0.9  5  0      1068
[19]  B29  1  7  -1611.7 4092004.0  0.3  0.0  1  0       267
[20]  B30  1  7    464.1 4091998.5  0.1  0.0  1  0         0
$GNGGA,000000.000,,,,,0,00,,,M,,,,0000*2B
$GNRMC,000000.000,A,,,,,,,000000,,*26
$GPGSA,A,1,,,,,,,,,,,,,,,*1E
$BDGSA,A,1,,,,,,,,,,,,,,,*0F
$GPGSV,2,1,07,01,00,000,39,08,00,000,26,11,00,000,37,17,00,000,41*7D
$GPGSV,2,2,07,19,00,000,42,28,00,000,38,30,00,000,33*42
$BDGSV,1,1,03,05,00,000,30,08,00,000,38,27,00,000,30*58
$LOGTIM,0,0.000000,0.000000,0.000000,0.000000,0.000*0A
EndT:        0
---00000020--- Acq_st=3 2019-5-22 06:33:7 
[00]  G01  f 40    947.4 2045998.8  1.0  1.0  5  0 282803739
[01]  G08  7 26   1695.6 2045997.7 -0.9  0.0 10  0         8
[02]  G11  f 38   1292.3 2045998.2  1.0  1.0  5  0 282803737
[03]  G17  f 41  -1978.0 2046002.6  1.0  1.0  5  0 282803728
[04]  G19  f 42  -2789.3 2046003.6  1.0  1.0  5  0 282803723
[05]  G28  f 37  -2574.1 2046003.3  1.0  0.9  5  0 282803734
[06]  G30  f 33   1304.2 2045998.3  1.0  0.9  5  0 282803734
[16]  B05 1f 30   -339.4 4092000.9  0.9  0.0  2  0 282789672
[17]  B08 1f 38   -324.9 4092000.8  1.0  0.9  5  0 282789686
[18]  B27  7 35   1904.5 4091995.0  1.0  1.0  5  0      2062
[19]  B29  7 37  -1610.7 4092004.2  0.5  1.0  5  0      1267
[20]  B30  7 29    464.8 4091998.8  0.6  1.0  5  0       866
$GNGGA,000000.000,,,,,0,00,,,M,,,,0000*2B
$GNRMC,000000.000,A,,,,,,,000000,,*26
$GPGSA,A,1,,,,,,,,,,,,,,,*1E
$BDGSA,A,1,,,,,,,,,,,,,,,*0F
$GPGSV,2,1,07,01,00,000,40,08,00,000,26,11,00,000,38,17,00,000,41*7C
$GPGSV,2,2,07,19,00,000,42,28,00,000,37,30,00,000,33*4D
$BDGSV,2,1,05,05,00,000,30,08,00,000,38,27,00,000,35,29,00,000,37*67
$BDGSV,2,2,05,30,00,000,29*55
$LOGTIM,0,0.000000,0.000000,0.000000,0.000000,0.000*0A
EndT:        0
---00000021--- Acq_st=3 2019-5-22 06:33:8 
[00]  G01  f 40    942.7 2045998.7  1.0  1.0  5  0 282804739
[01]  G08  7 25   1690.2 2045997.7 -0.8 -0.1 10  0         8
[02]  G11  f 38   1286.9 2045998.3  1.0  1.0  5  0 282804737
[03]  G17  f 41  -1983.1 2046002.6  1.0  1.0  5  0 282804728
[04]  G19  f 42  -2794.0 2046003.6  1.0  1.0  5  0 282804723
[05]  G28  f 38  -2578.7 2046003.3  1.0  1.0  5  0 282804734
[06]  G30  f 34   1298.9 2045998.3  1.0  1.0  5  0 282804734
[16]  B05 1f 31   -344.2 4092000.8  0.8  0.0  2  0 282790672
[17]  B08 1f 38   -330.0 4092000.8  1.0  1.0  5  0 282790686
[18]  B27  7 35   1900.0 4091995.0  1.0  1.0  5  0      3062
[19]  B29  7 41  -1615.5 4092004.1  1.0  1.0  5  0      2248
[20]  B30  7 45    459.8 4091998.8  1.0  1.0  5  0      1852
$GNGGA,000000.000,,,,,0,00,,,M,,,,0000*2B
$GNRMC,000000.000,A,,,,,,,000000,,*26
$GPGSA,A,1,,,,,,,,,,,,,,,*1E
$BDGSA,A,1,,,,,,,,,,,,,,,*0F
$GPGSV,2,1,07,01,00,000,40,08,00,000,25,11,00,000,38,17,00,000,41*7F
$GPGSV,2,2,07,19,00,000,42,28,00,000,38,30,00,000,34*45
$BDGSV,2,1,05,05,00,000,31,08,00,000,38,27,00,000,35,29,00,000,41*67
$BDGSV,2,2,05,30,00,000,45*5F
$LOGTIM,0,0.000000,0.000000,0.000000,0.000000,0.000*0A
EndT:        0
---00000022--- Acq_st=3 2019-5-22 06:33:9 
[00]  G01  f 41    938.8 2045998.8  1.0  1.0  5  0 282805739
[01]  G08  7 26   1685.6 2045997.9 -0.7  0.0 10  0         8
[02]  G11  f 39   1283.2 2045998.3  1.0  1.0  5  0 282805737
[03]  G17  f 41  -1987.8 2046002.6  1.0  1.0  5  0 282805728
[04]  G19  f 42  -2798.7 2046003.6  1.0  1.0  5  0 282805723
[05]  G28  f 38  -2583.1 2046003.4  1.0  1.0  5  0 282805734
[06]  G30  f 32   1296.8 2045998.4  0.9  0.9  5  0 282805734
[16]  B05 1f 31   -348.9 4092000.7  0.9  0.0  2  0 282791672
[17]  B08 1f 38   -334.7 4092000.9  1.0  1.0  5  0 282791686
[18]  B27  7 35   1895.4 4091995.0  1.0  0.9  5  0      4062
[19]  B29  7 42  -1620.0 4092004.2  1.0  1.0  5  0      3248
[20]  B30  7 45    455.7 4091998.8  1.0  1.0  5  0      2852
$GNGGA,000000.000,,,,,0,00,,,M,,,,0000*2B
$GNRMC,000000.000,A,,,,,,,000000,,*26
$GPGSA,A,1,,,,,,,,,,,,,,,*1E
$BDGSA,A,1,,,,,,,,,,,,,,,*0F
$GPGSV,2,1,07,01,00,000,41,08,00,000,26,11,00,000,39,17,00,000,41*7C
$GPGSV,2,2,07,19,00,000,42,28,00,000,38,30,00,000,32*43
$BDGSV,2,1,05,05,00,000,31,08,00,000,38,27,00,000,35,29,00,000,42*64
$BDGSV,2,2,05,30,00,000,45*5F
$LOGTIM,0,0.000000,0.000000,0.000000,0.000000,0.000*0A
EndT:        0
---00000023--- Acq_st=3 2019-5-22 06:33:10 
[00]  G01  f 41    944.4 2045998.7  1.0  1.0  5  0 282806739
[01]  G08  7 26   1691.1 2045997.7 -0.7 -0.0 10  0         8
[02]  G11  f 39   1288.8 2045998.4  1.0  1.0  5  0 282806737
[03]  G17  f 41  -1982.3 2046002.6  1.0  1.0  5  0 282806728
[04]  G19  f 42  -2793.5 2046003.6  1.0  1.0  5  0 282806723
[05]  G28  f 38  -2578.6 2046003.3  1.0  1.0  5  0 282806734
[06]  G30  f 33   1301.9 2045998.3  1.0  0.9  5  0 282806734
[16]  B05 1f 30   -344.0 4092000.8  0.8  0.0  2  0 282792672
[17]  B08 1f 38   -329.6 4092000.9  1.0  1.0  5  0 282792686
[18]  B27 1f 34   1900.3 4091995.0  1.0  1.0  5  0      5062
[19]  B29 1f 42  -1614.9 4092004.2  1.0  1.0  5  0      4248
[20]  B30 1f 45    460.8 4091998.8  1.0  1.0  5  0      3852
$GNGGA,000000.000,,,,,0,00,,,M,,,,0000*2B
$GNRMC,000000.000,A,,,,,,,000000,,*26
$GPGSA,A,1,,,,,,,,,,,,,,,*1E
$BDGSA,A,1,,,,,,,,,,,,,,,*0F
$GPGSV,2,1,07,01,00,000,41,08,00,000,26,11,00,000,39,17,00,000,41*7C
$GPGSV,2,2,07,19,00,000,42,28,00,000,38,30,00,000,33*42
$BDGSV,2,1,05,05,00,000,30,08,00,000,38,27,00,000,34,29,00,000,42*64
$BDGSV,2,2,05,30,00,000,45*5F
$LOGTIM,0,0.000000,0.000000,0.000000,0.000000,0.000*0A
EndT:        0
---00000024--- Acq_st=3 2019-5-22 06:33:11 
[00]  G01  f 40    944.5 2045998.8  1.0  1.0  5  0 282807739
[01]  G08  7 26   1690.8 2045997.8 -0.9  0.0 10  0         8
[02]  G11  f 38   1288.7 2045998.4  1.0  1.0  5  0 282807737
[03]  G17  f 41  -1982.8 2046002.6  1.0  1.0  5  0 282807728
[04]  G19  f 42  -2793.7 2046003.6  1.0  1.0  5  0 282807723
[05]  G28  f 37  -2578.2 2046003.4  1.0  1.0  5  0 282807734
[06]  G30  f 35   1301.3 2045998.2  1.0  1.0  5  0 282807734
[16]  B05 1f 29   -344.0 4092001.0  0.9  0.0  2  0 282793672
[17]  B08 1f 38   -329.8 4092000.9  1.0  1.0  5  0 282793686
[18]  B27 1f 34   1899.0 4091995.1  1.0  0.9  5  0 282793722
[19]  B29 1f 42  -1614.7 4092004.2  1.0  1.0  5  0 282793728
[20]  B30 1f 45    460.4 4091998.8  1.0  1.0  5  0 282793732
$GNGGA,000000.000,,,,,0,00,,,M,,,,0000*2B
$GNRMC,000000.000,A,,,,,,,000000,,*26
$GPGSA,A,1,,,,,,,,,,,,,,,*1E
$BDGSA,A,1,,,,,,,,,,,,,,,*0F
$GPGSV,2,1,07,01,00,000,40,08,00,000,26,11,00,000,38,17,00,000,41*7C
$GPGSV,2,2,07,19,00,000,42,28,00,000,37,30,00,000,35*4B
$BDGSV,2,1,05,05,00,000,29,08,00,000,38,27,00,000,34,29,00,000,42*6C
$BDGSV,2,2,05,30,00,000,45*5F
$LOGTIM,0,0.000000,0.000000,0.000000,0.000000,0.000*0A
EndT:        0
---00000025--- Acq_st=3 2019-5-22 06:33:12 
[00]  G01  f 40    943.9 2045998.8  1.0  1.0  5  0 282808739
[01]  G08  7 26   1689.5 2045998.0 -0.9  0.0 10  0         8
[02]  G11  f 39   1288.3 2045998.3  1.0  1.0  5  0 282808737
[03]  G17  f 42  -1983.2 2046002.6  1.0  1.0  5  0 282808728
[04]  G19  f 41  -2794.5 2046003.6  1.0  1.0  5  0 282808723
[05]  G28  f 37  -2578.4 2046003.4  1.0  1.0  5  0 282808734
[06]  G30  f 36   1301.9 2045998.3  1.0  1.0  5  0 282808734
[16]  B05 1f 31   -344.3 4092000.8  0.8  0.0  2  0 282794672
[17]  B08 1f 38   -330.3 4092000.9  1.0  1.0  5  0 282794686
[18]  B27 1f 35   1898.5 4091995.0  1.0  1.0  5  0 282794722
[19]  B29 1f 42  -1615.6 4092004.2  1.0  1.0  5  0 282794728
[20]  B30 1f 45    460.1 4091998.8  1.0  1.0  5  0 282794732
$GNGGA,000000.000,,,,,0,00,,,M,,,,0000*2B
$GNRMC,000000.000,A,,,,,,,000000,,*26
$GPGSA,A,1,,,,,,,,,,,,,,,*1E
$BDGSA,A,1,,,,,,,,,,,,,,,*0F
$GPGSV,2,1,07,01,00,000,40,08,00,000,26,11,00,000,39,17,00,000,42*7E
$GPGSV,2,2,07,19,00,000,41,28,00,000,37,30,00,000,36*4B
$BDGSV,2,1,05,05,00,000,31,08,00,000,38,27,00,000,35,29,00,000,42*64
$BDGSV,2,2,05,30,00,000,45*5F
$LOGTIM,0,0.000000,0.000000,0.000000,0.000000,0.000*0A
EndT:        0
---00000026--- Acq_st=3 2019-5-22 06:33:13 
[00]  G01  f 40    940.5 2045998.8  1.0  1.0  5  0 282809739
[01]  G08  7 26   1684.7 2045997.8 -0.8 -0.0 10  0         8
[02]  G11  f 39   1284.1 2045998.3  1.0  1.0  5  0 282809737
[03]  G17  f 42  -1987.3 2046002.6  1.0  1.0  5  0 282809728
[04]  G19  f 42  -2798.6 2046003.6  1.0  1.0  5  0 282809723
[05]  G28  f 36  -2582.4 2046003.4  1.0  1.0  5  0 282809734
[06]  G30  f 35   1298.3 2045998.3  1.0  1.0  5  0 282809734
[16]  B05 1f 30   -349.2 4092000.9  0.8  0.0  2  0 282795672
[17]  B08 1f 38   -334.5 4092000.8  1.0  1.0  5  0 282795686
[18]  B27 1f 35   1894.1 4091995.0  1.0  0.9  5  0 282795722
[19]  B29 1f 43  -1619.5 4092004.2  1.0  1.0  5  0 282795728
[20]  B30 1f 45    455.8 4091998.8  1.0  1.0  5  0 282795732
$GNGGA,000000.000,,,,,0,00,,,M,,,,0000*2B
$GNRMC,000000.000,A,,,,,,,000000,,*26
$GPGSA,A,1,,,,,,,,,,,,,,,*1E
$BDGSA,A,1,,,,,,,,,,,,,,,*0F
$GPGSV,2,1,07,01,00,000,40,08,00,000,26,11,00,000,39,17,00,000,42*7E
$GPGSV,2,2,07,19,00,000,42,28,00,000,36,30,00,000,35*4A
$BDGSV,2,1,05,05,00,000,30,08,00,000,38,27,00,000,35,29,00,000,43*64
$BDGSV,2,2,05,30,00,000,45*5F
$LOGTIM,0,0.000000,0.000000,0.000000,0.000000,0.000*0A
EndT:        0
---00000027--- Acq_st=3 2019-5-22 06:33:14 
[00]  G01  f 39    942.1 2045998.8  1.0  1.0  5  0 282810739
[01]  G08  7 26   1685.1 2045997.8 -0.9 -0.1 10  0         8
[02]  G11  f 39   1284.7 2045998.3  1.0  1.0  5  0 282810737
[03]  G17  f 42  -1986.4 2046002.6  1.0  1.0  5  0 282810728
[04]  G19  f 42  -2798.0 2046003.6  1.0  1.0  5  0 282810723
[05]  G28  f 36  -2581.5 2046003.3  1.0  1.0  5  0 282810734
[06]  G30  f 35   1299.1 2045998.3  1.0  0.9  5  0 282810734
[16]  B05 1f 30   -348.7 4092000.9  0.8  0.0  2  0 282796672
[17]  B08 1f 38   -333.5 4092000.9  1.0  1.0  5  0 282796686
[18]  B27 1f 35   1895.6 4091995.0  1.0  0.9  5  0 282796722
[19]  B29 1f 42  -1618.9 4092004.3  1.0  1.0  5  0 282796728
[20]  B30 1f 45    456.7 4091998.8  1.0  1.0  5  0 282796732
$GNGGA,000000.000,,,,,0,00,,,M,,,,0000*2B
$GNRMC,000000.000,A,,,,,,,000000,,*26
$GPGSA,A,1,,,,,,,,,,,,,,,*1E
$BDGSA,A,1,,,,,,,,,,,,,,,*0F
$GPGSV,2,1,07,01,00,000,39,08,00,000,26,11,00,000,39,17,00,000,42*70
$GPGSV,2,2,07,19,00,000,42,28,00,000,36,30,00,000,35*4A
$BDGSV,2,1,05,05,00,000,30,08,00,000,38,27,00,000,35,29,00,000,42*65
$BDGSV,2,2,05,30,00,000,45*5F
$LOGTIM,0,0.000000,0.000000,0.000000,0.000000,0.000*0A
EndT:        0
---00000028--- Acq_st=3 2019-5-22 06:33:15 
[00]  G01  f 38    943.8 2045998.8  1.0  1.0  5  0 282811739
[01]  G08  7 26   1686.3 2045997.8 -0.9 -0.0 10  0         8
[02]  G11  f 39   1286.5 2045998.3  1.0  1.0  5  0 282811737
[03]  G17  f 42  -1985.2 2046002.6  1.0  1.0  5  0 282811728
[04]  G19  f 42  -2797.2 2046003.6  1.0  1.0  5  0 282811723
[05]  G28  f 35  -2580.6 2046003.4  1.0  0.9  5  0 282811734
[06]  G30  f 33   1299.9 2045998.3  1.0  1.0  5  0 282811734
[16]  B05 1f 29   -347.6 4092001.2  0.9  0.0  2  0 282797672
[17]  B08 1f 38   -332.4 4092000.9  1.0  1.0  5  0 282797686
[18]  B27 1f 34   1896.3 4091995.0  1.0  1.0  5  0 282797722
[19]  B29 1f 42  -1617.8 4092004.2  1.0  1.0  5  0 282797728
[20]  B30 1f 45    457.6 4091998.8  1.0  1.0  5  0 282797732
$GNGGA,000000.000,,,,,0,00,,,M,,,,0000*2B
$GNRMC,000000.000,A,,,,,,,000000,,*26
$GPGSA,A,1,,,,,,,,,,,,,,,*1E
$BDGSA,A,1,,,,,,,,,,,,,,,*0F
$GPGSV,2,1,07,01,00,000,38,08,00,000,26,11,00,000,39,17,00,000,42*71
$GPGSV,2,2,07,19,00,000,42,28,00,000,35,30,00,000,33*4F
$BDGSV,2,1,05,05,00,000,29,08,00,000,38,27,00,000,34,29,00,000,42*6C
$BDGSV,2,2,05,30,00,000,45*5F
$LOGTIM,0,0.000000,0.000000,0.000000,0.000000,0.000*0A
EndT:        0
---00000029--- Acq_st=3 2019-5-22 06:33:16 
[00]  G01  f 37    941.7 2045998.8  1.0  1.0  5  0 282812739
[01]  G08  7 25   1683.4 2045997.8 -0.9 -0.1 10  0         8
[02]  G11  f 40   1284.2 2045998.3  1.0  1.0  5  0 282812737
[03]  G17  f 43  -1988.2 2046002.6  1.0  1.0  5  0 282812728
[04]  G19  f 42  -2799.3 2046003.6  1.0  1.0  5  0 282812723
[05]  G28  f 34  -2583.2 2046003.3  1.0  1.0  5  0 282812734
[06]  G30  f 33   1298.1 2045998.4  1.0  0.9  5  0 282812734
[16]  B05 1f 29   -350.8 4092000.6  0.8  0.0  2  0 282798672
[17]  B08 1f 38   -334.7 4092000.9  1.0  0.9  5  0 282798686
[18]  B27 1f 34   1893.3 4091995.1  1.0  0.9  5  0 282798722
[19]  B29 1f 42  -1620.4 4092004.2  1.0  1.0  5  0 282798728
[20]  B30 1f 45    455.3 4091998.8  1.0  1.0  5  0 282798732
$GNGGA,000000.000,,,,,0,00,,,M,,,,0000*2B
$GNRMC,000000.000,A,,,,,,,000000,,*26
$GPGSA,A,1,,,,,,,,,,,,,,,*1E
$BDGSA,A,1,,,,,,,,,,,,,,,*0F
$GPGSV,2,1,07,01,00,000,37,08,00,000,25,11,00,000,40,17,00,000,43*72
$GPGSV,2,2,07,19,00,000,42,28,00,000,34,30,00,000,33*4E
$BDGSV,2,1,05,05,00,000,29,08,00,000,38,27,00,000,34,29,00,000,42*6C
$BDGSV,2,2,05,30,00,000,45*5F
$LOGTIM,0,0.000000,0.000000,0.000000,0.000000,0.000*0A
EndT:        0
---00000030--- Acq_st=3 2019-5-22 06:33:17 
[00]  G01  f 35    942.2 2045998.8  1.0  1.0  5  0 282813739
[01]  G08  7 26   1684.1 2045997.9 -1.0  0.0 10  0         8
[02]  G11  f 40   1285.3 2045998.3  1.0  1.0  5  0 282813737
[03]  G17  f 43  -1987.7 2046002.6  1.0  1.0  5  0 282813728
[04]  G19  f 41  -2799.2 2046003.6  1.0  1.0  5  0 282813723
[05]  G28  f 34  -2583.6 2046003.3  1.0  1.0  5  0 282813734
[06]  G30  f 33   1299.1 2045998.3  1.0  0.9  5  0 282813734
[16]  B05 1f 30   -348.6 4092001.0  0.8  0.0  2  0 282799672
[17]  B08 1f 38   -334.4 4092000.8  1.0  1.0  5  0 282799686
[18]  B27 1f 35   1893.5 4091995.0  1.0  1.0  5  0 282799722
[19]  B29 1f 42  -1619.3 4092004.3  1.0  1.0  5  0 282799728
[20]  B30 1f 45    456.1 4091998.8  1.0  1.0  5  0 282799732
$GNGGA,000000.000,,,,,0,00,,,M,,,,0000*2B
$GNRMC,000000.000,A,,,,,,,000000,,*26
$GPGSA,A,1,,,,,,,,,,,,,,,*1E
$BDGSA,A,1,,,,,,,,,,,,,,,*0F
$GPGSV,2,1,07,01,00,000,35,08,00,000,26,11,00,000,40,17,00,000,43*73
$GPGSV,2,2,07,19,00,000,41,28,00,000,34,30,00,000,33*4D
$BDGSV,2,1,05,05,00,000,30,08,00,000,38,27,00,000,35,29,00,000,42*65
$BDGSV,2,2,05,30,00,000,45*5F
$LOGTIM,0,0.000000,0.000000,0.000000,0.000000,0.000*0A
EndT:        0
---00000031--- Acq_st=3 2019-5-22 06:33:18 
[00]  G01  f 34    944.2 2045998.9  1.0  1.0  5  0 282814739
[01]  G08  7 26   1684.8 2045997.8 -0.9 -0.0 10  0         8
[02]  G11  f 41   1286.1 2045998.4  1.0  1.0  5  0 282814737
[03]  G17  f 44  -1986.9 2046002.6  1.0  1.0  5  0 282814728
[04]  G19  f 42  -2798.0 2046003.6  1.0  1.0  5  0 282814723
[05]  G28  f 33  -2581.3 2046003.3  1.0  0.9  5  0 282814734
[06]  G30  f 32   1300.6 2045998.4  0.9  0.9  5  0 282814734
[16]  B05 1f 30   -348.4 4092000.9  0.8  0.0  2  0 282800672
[17]  B08 1f 38   -333.6 4092000.9  1.0  0.9  5  0 282800686
[18]  B27 1f 35   1894.5 4091995.0  1.0  1.0  5  0 282800722
[19]  B29 1f 42  -1618.7 4092004.2  1.0  1.0  5  0 282800728
[20]  B30 1f 45    457.1 4091998.8  1.0  1.0  5  0 282800732
$GNGGA,000000.000,,,,,0,00,,,M,,,,0000*2B
$GNRMC,000000.000,A,,,,,,,000000,,*26
$GPGSA,A,1,,,,,,,,,,,,,,,*1E
$BDGSA,A,1,,,,,,,,,,,,,,,*0F
$GPGSV,2,1,07,01,00,000,34,08,00,000,26,11,00,000,41,17,00,000,44*74
$GPGSV,2,2,07,19,00,000,42,28,00,000,33,30,00,000,32*48
$BDGSV,2,1,05,05,00,000,30,08,00,000,38,27,00,000,35,29,00,000,42*65
$BDGSV,2,2,05,30,00,000,45*5F
$LOGTIM,0,0.000000,0.000000,0.000000,0.000000,0.000*0A
EndT:        0
---00000032--- Acq_st=3 2019-5-22 06:33:19 
[00]  G01  f 33    945.3 2045998.6  1.0  1.0  5  0 282815739
[01]  G08  7 25   1685.4 2045997.8 -0.9 -0.1 10  0         8
[02]  G11  f 40   1286.6 2045998.3  1.0  1.0  5  0 282815737
[03]  G17  f 45  -1986.2 2046002.6  1.0  1.0  5  0 282815728
[04]  G19  f 42  -2797.8 2046003.6  1.0  1.0  5  0 282815723
[05]  G28  f 33  -2580.1 2046003.4  1.0  0.9  5  0 282815734
[06]  G30  f 32   1303.2 2045998.3  1.0  0.9  5  0 282815734
[16]  B05 1f 31   -349.0 4092000.7  0.8  0.0  2  0 282801672
[17]  B08 1f 38   -333.3 4092000.9  1.0  1.0  5  0 282801686
[18]  B27 1f 35   1894.5 4091995.0  1.0  1.0  5  0 282801722
[19]  B29 1f 42  -1618.1 4092004.2  1.0  1.0  5  0 282801728
[20]  B30 1f 45    457.1 4091998.8  1.0  1.0  5  0 282801732
$GNGGA,000000.000,,,,,0,00,,,M,,,,0000*2B
$GNRMC,000000.000,A,,,,,,,000000,,*26
$GPGSA,A,1,,,,,,,,,,,,,,,*1E
$BDGSA,A,1,,,,,,,,,,,,,,,*0F
$GPGSV,2,1,07,01,00,000,33,08,00,000,25,11,00,000,40,17,00,000,45*70
$GPGSV,2,2,07,19,00,000,42,28,00,000,33,30,00,000,32*48
$BDGSV,2,1,05,05,00,000,31,08,00,000,38,27,00,000,35,29,00,000,42*64
$BDGSV,2,2,05,30,00,000,45*5F
$LOGTIM,0,0.000000,0.000000,0.000000,0.000000,0.000*0A
EndT:        0
---00000033--- Acq_st=3 2019-5-22 06:33:20 
[00]  G01  f 30    946.2 2045998.8  0.9  0.9  5  0 282816739
[01]  G08  7 25   1686.3 2045997.8 -0.9  0.0 10  0         8
[02]  G11  f 40   1286.4 2045998.3  1.0  1.0  5  0 282816737
[03]  G17  f 44  -1986.9 2046002.6  1.0  1.0  5  0 282816728
[04]  G19  f 42  -2798.1 2046003.7  1.0  1.0  5  0 282816723
[05]  G28  f 33  -2580.8 2046003.4  1.0  1.0  5  0 282816734
[06]  G30  f 32   1301.5 2045998.4  0.9  0.9  5  0 282816734
[16]  B05 1f 30   -348.5 4092001.2  0.8  0.0  2  0 282802672
[17]  B08 1f 38   -333.9 4092000.9  1.0  1.0  5  0 282802686
[18]  B27 1f 36   1894.3 4091995.0  1.0  1.0  5  0 282802722
[19]  B29 1f 42  -1618.2 4092004.3  1.0  1.0  5  0 282802728
[20]  B30 1f 45    457.0 4091998.8  1.0  1.0  5  0 282802732
$GNGGA,000000.000,,,,,0,00,,,M,,,,0000*2B
$GNRMC,000000.000,A,,,,,,,000000,,*26
$GPGSA,A,1,,,,,,,,,,,,,,,*1E
$BDGSA,A,1,,,,,,,,,,,,,,,*0F
$GPGSV,2,1,07,01,00,000,30,08,00,000,25,11,00,000,40,17,00,000,44*72
$GPGSV,2,2,07,19,00,000,42,28,00,000,33,30,00,000,32*48
$BDGSV,2,1,05,05,00,000,30,08,00,000,38,27,00,000,36,29,00,000,42*66
$BDGSV,2,2,05,30,00,000,45*5F
$LOGTIM,0,0.000000,0.000000,0.000000,0.000000,0.000*0A
EndT:        0
---00000034--- Acq_st=3 2019-5-22 06:33:21 
[00]  G01  f 29    944.8 2045998.7  0.9  0.9  5  0 282817739
[01]  G08  7 25   1686.2 2045997.7 -0.9  0.0 10  0         8
[02]  G11  f 40   1286.7 2045998.3  1.0  1.0  5  0 282817737
[03]  G17  f 43  -1986.6 2046002.6  1.0  1.0  5  0 282817728
[04]  G19  f 41  -2797.8 2046003.7  1.0  1.0  5  0 282817723
[05]  G28  f 34  -2580.8 2046003.3  1.0  1.0  5  0 282817734
[06]  G30  f 33   1301.3 2045998.2  1.0  0.9  5  0 282817734
[16]  B05 1f 30   -348.4 4092000.8  0.7  0.0  2  0 282803672
[17]  B08 1f 38   -333.1 4092000.8  1.0  1.0  5  0 282803686
[18]  B27 1f 35   1895.2 4091995.0  1.0  1.0  5  0 282803722
[19]  B29 1f 42  -1618.1 4092004.2  1.0  1.0  5  0 282803728
[20]  B30 1f 46    457.4 4091998.8  1.0  1.0  5  0 282803732
$GNGGA,000000.000,,,,,0,00,,,M,,,,0000*2B
$GNRMC,000000.000,A,,,,,,,000000,,*26
$GPGSA,A,1,,,,,,,,,,,,,,,*1E
$BDGSA,A,1,,,,,,,,,,,,,,,*0F
$GPGSV,2,1,07,01,00,000,29,08,00,000,25,11,00,000,40,17,00,000,43*7D
$GPGSV,2,2,07,19,00,000,41,28,00,000,34,30,00,000,33*4D
$BDGSV,2,1,05,05,00,000,30,08,00,000,38,27,00,000,35,29,00,000,42*65
$BDGSV,2,2,05,30,00,000,46*5C
$LOGTIM,0,0.000000,0.000000,0.000000,0.000000,0.000*0A
EndT:        0
---00000035--- Acq_st=7 2019-5-22 06:33:22 
[00]  G01  f 28    945.8 2045998.9  0.9  0.9  5  0 282818739
[01]  G08  7 25   1687.6 2045997.8 -0.9 -0.0 10  0         8
[02]  G11  f 40   1288.5 2045998.4  1.0  1.0  5  0 282818737
[03]  G17  f 44  -1985.3 2046002.6  1.0  1.0  5  0 282818728
[04]  G19  f 41  -2796.4 2046003.6  1.0  1.0  5  0 282818723
[05]  G28  f 33  -2579.0 2046003.4  1.0  0.9  5  0 282818734
[06]  G30  f 31   1303.8 2045998.2  0.9  0.9  5  0 282818734
[16]  B05 1f 29   -347.4 4092001.2  0.8  0.0  2  0 282804672
[17]  B08 1f 38   -331.7 4092000.8  1.0  1.0  5  0 282804686
[18]  B27 1f 35   1896.2 4091995.0  1.0  1.0  5  0 282804722
[19]  B29 1f 42  -1616.5 4092004.2  1.0  1.0  5  0 282804728
[20]  B30 1f 45    458.6 4091998.8  1.0  1.0  5  0 282804732
$GNGGA,000000.000,,,,,0,00,,,M,,,,0000*2B
$GNRMC,000000.000,A,,,,,,,000000,,*26
$GPGSA,A,1,,,,,,,,,,,,,,,*1E
$BDGSA,A,1,,,,,,,,,,,,,,,*0F
$GPGSV,2,1,07,01,00,000,28,08,00,000,25,11,00,000,40,17,00,000,44*7B
$GPGSV,2,2,07,19,00,000,41,28,00,000,33,30,00,000,31*48
$BDGSV,2,1,05,05,00,000,29,08,00,000,38,27,00,000,35,29,00,000,42*6D
$BDGSV,2,2,05,30,00,000,45*5F
$LOGTIM,0,0.000000,0.000000,0.000000,0.000000,0.000*0A
EndT:        0
---00000036--- Acq_st=7 2019-5-22 06:33:23 
[00]  G01  f 24    946.1 2045998.8  0.2  0.8 10  0 282819739
[01]  G08  7 25   1687.7 2045997.8 -1.0 -0.0 10  0         8
[02]  G11  f 40   1289.0 2045998.4  1.0  1.0  5  0 282819737
[03]  G17  f 43  -1984.9 2046002.6  1.0  1.0  5  0 282819728
[04]  G19  f 41  -2796.7 2046003.7  1.0  1.0  5  0 282819723
[05]  G28  f 33  -2579.5 2046003.4  1.0  1.0  5  0 282819734
[06]  G30  f 32   1304.5 2045998.3  1.0  0.9  5  0 282819734
[16]  B05 1f 31   -347.2 4092000.6  0.8  0.0  2  0 282805672
[17]  B08 1f 37   -331.5 4092000.9  1.0  1.0  5  0 282805686
[18]  B27 1f 36   1895.6 4091994.9  1.0  1.0  5  0 282805722
[19]  B29 1f 42  -1616.2 4092004.2  1.0  1.0  5  0 282805728
[20]  B30 1f 45    459.1 4091998.8  1.0  1.0  5  0 282805732
$GNGGA,000000.000,,,,,0,00,,,M,,,,0000*2B
$GNRMC,000000.000,A,,,,,,,000000,,*26
$GPGSA,A,1,,,,,,,,,,,,,,,*1E
$BDGSA,A,1,,,,,,,,,,,,,,,*0F
$GPGSV,2,1,07,01,00,000,24,08,00,000,25,11,00,000,40,17,00,000,43*70
$GPGSV,2,2,07,19,00,000,41,28,00,000,33,30,00,000,32*4B
$BDGSV,2,1,05,05,00,000,31,08,00,000,37,27,00,000,36,29,00,000,42*68
$BDGSV,2,2,05,30,00,000,45*5F
$LOGTIM,0,0.000000,0.000000,0.000000,0.000000,0.000*0A
EndT:        0
---00000037--- Acq_st=7 2019-5-22 06:33:24 
[00]  G01  f 24    952.5 2045998.7  0.6  0.7 10  0 282820739
[01]  G08  7 25   1691.6 2045997.8 -0.8 -0.1 10  0         8
[02]  G11  f 40   1293.6 2045998.3  1.0  1.0  5  0 282820737
[03]  G17  f 44  -1980.9 2046002.6  1.0  1.0  5  0 282820728
[04]  G19  f 41  -2792.2 2046003.6  1.0  1.0  5  0 282820723
[05]  G28  f 34  -2575.0 2046003.3  1.0  1.0  5  0 282820734
[06]  G30  f 33   1308.3 2045998.3  1.0  1.0  5  0 282820734
[16]  B05 1f 30   -343.5 4092000.7  0.8  0.0  2  0 282806672
[17]  B08 1f 37   -327.8 4092000.9  1.0  1.0  5  0 282806686
[18]  B27 1f 36   1899.7 4091995.0  1.0  1.0  5  0 282806722
[19]  B29 1f 42  -1612.2 4092004.2  1.0  1.0  5  0 282806728
[20]  B30 1f 45    463.0 4091998.8  1.0  1.0  5  0 282806732
$GNGGA,000000.000,,,,,0,00,,,M,,,,0000*2B
$GNRMC,000000.000,A,,,,,,,000000,,*26
$GPGSA,A,1,,,,,,,,,,,,,,,*1E
$BDGSA,A,1,,,,,,,,,,,,,,,*0F
$GPGSV,2,1,07,01,00,000,24,08,00,000,25,11,00,000,40,17,00,000,44*77
$GPGSV,2,2,07,19,00,000,41,28,00,000,34,30,00,000,33*4D
$BDGSV,2,1,05,05,00,000,30,08,00,000,37,27,00,000,36,29,00,000,42*69
$BDGSV,2,2,05,30,00,000,45*5F
$LOGTIM,0,0.000000,0.000000,0.000000,0.000000,0.000*0A
EndT:        0
---00000038--- Acq_st=3 2019-5-22 06:33:25 
[00]  G01  f 28    952.7 2045998.8  0.9  0.8 10  0 282821739
[01]  G08  7 26   1691.3 2045997.7 -0.9 -0.0 10  0         8
[02]  G11  f 39   1292.6 2045998.3  1.0  1.0  5  0 282821737
[03]  G17  f 44  -1981.5 2046002.6  1.0  1.0  5  0 282821728
[04]  G19  f 41  -2793.0 2046003.7  1.0  1.0  5  0 282821723
[05]  G28  f 34  -2575.7 2046003.4  1.0  0.9  5  0 282821734
[06]  G30  f 33   1309.2 2045998.3  1.0  1.0  5  0 282821734
[16]  B05 1f 30   -344.1 4092001.0  0.9  0.0  2  0 282807672
[17]  B08 1f 37   -328.2 4092000.9  1.0  1.0  5  0 282807686
[18]  B27 1f 36   1898.7 4091995.0  1.0  1.0  5  0 282807722
[19]  B29 1f 42  -1612.8 4092004.2  1.0  1.0  5  0 282807728
[20]  B30 1f 45    462.4 4091998.8  1.0  1.0  5  0 282807732
lsq: nits= 5
$GNGGA,063324.807,3112.7160,N,12136.4242,E,1,04,15.7,94.9,M,,,,0000*1B
$GNRMC,063324.807,A,3112.7160,N,12136.4242,E,2.05,0.00,220519,,*1E
$GPGSA,A,3,11,17,19,28,,,,,,,,,21.9,15.7,15.2*09
$BDGSA,A,3,,,,,,,,,,,,,21.9,15.7,15.2*1C
$GPGSV,2,1,07,01,00,000,28,08,00,000,26,11,00,000,39,17,00,000,44*76
$GPGSV,2,2,07,19,00,000,41,28,00,000,34,30,00,000,33*4D
$BDGSV,2,1,05,05,00,000,30,08,00,000,37,27,00,000,36,29,00,000,42*69
$BDGSV,2,2,05,30,00,000,45*5F
$LOGTIM,1,9744002.433903,0.000000,0.000000,0.000000,-60.796*1A
EndT:        1
---00000039--- Acq_st=3 2019-5-22 06:33:26 
[00]  G01  f 29    956.1 2045998.9  0.9  0.9  5  0 282822739
[01]  G08  7 26   1694.6 2045997.8 -0.9  0.1 10  0         8
[02]  G11  f 39   1296.6 2045998.4  1.0  1.0  5  0 282822737
[03]  G17  f 44  -1978.2 2046002.6  1.0  1.0  5  0 282822728
[04]  G19  f 41  -2789.7 2046003.6  1.0  1.0  5  0 282822723
[05]  G28  f 33  -2572.1 2046003.4  1.0  1.0  5  0 282822734
[06]  G30  f 32   1312.9 2045998.4  1.0  0.9  5  0 282822734
[16]  B05 1f 31   -340.5 4092000.9  0.9  0.0  2  0 282808672
[17]  B08 1f 37   -324.8 4092000.8  1.0  1.0  5  0 282808686
[18]  B27 1f 36   1903.3 4091995.0  1.0  0.9  5  0 282808722
[19]  B29 1f 42  -1608.9 4092004.2  1.0  1.0  5  0 282808728
[20]  B30 1f 45    466.0 4091998.8  1.0  1.0  5  0 282808732
lsq: nits= 5
$GNGGA,063326.000,3112.6990,N,12136.4242,E,1,04,15.8,123.1,M,,,,0000*2A
$GNRMC,063326.000,A,3112.6990,N,12136.4242,E,0.34,0.00,220519,,*15
$GPGSA,A,3,11,17,19,28,,,,,,,,,21.9,15.8,15.2*06
$BDGSA,A,3,,,,,,,,,,,,,21.9,15.8,15.2*13
$GPGSV,2,1,07,01,00,000,29,08,00,000,26,11,00,000,39,17,00,000,44*77
$GPGSV,2,2,07,19,00,000,41,28,00,000,33,30,00,000,32*4B
$BDGSV,2,1,05,05,00,000,31,08,00,000,37,27,00,000,36,29,00,000,42*68
$BDGSV,2,2,05,30,00,000,45*5F
$LOGTIM,1,-70.382607,0.000000,0.000000,0.000000,-60.028*08
EndT:        0
---00000040--- Acq_st=3 2019-5-22 06:33:27 
[00]  G01  f 32    956.7 2045998.8  1.0  1.0  5  0 282823932
[01]  G08  7 26   1694.1 2045997.7 -0.9  0.0 10  0         2
[02]  G11  f 39   1297.3 2045998.4  1.0  1.0  5  0 282823930
[03]  G17  f 44  -1977.9 2046002.6  1.0  1.0  5  0 282823921
[04]  G19  f 41  -2789.2 2046003.6  1.0  1.0  5  0 282823916
[05]  G28  f 33  -2571.2 2046003.4  1.0  0.9  5  0 282823927
[06]  G30  f 29   1315.1 2045998.3  0.9  1.0  5  0 282823927
[16]  B05 1f 32   -339.7 4092000.8  0.9  0.0  2  0 282809866
[17]  B08 1f 37   -324.2 4092000.8  1.0  1.0  5  0 282809879
[18]  B27 1f 37   1902.6 4091995.0  1.0  1.0  5  0 282809915
[19]  B29 1f 42  -1608.4 4092004.2  1.0  1.0  5  0 282809921
[20]  B30 1f 45    466.4 4091998.8  1.0  1.0  5  0 282809925
lsq: nits= 5
$GNGGA,063327.000,3112.6790,N,12136.4236,E,1,04,15.8,156.9,M,,,,0000*2C
$GNRMC,063327.000,A,3112.6790,N,12136.4236,E,0.10,0.00,220519,,*1F
$GPGSA,A,3,11,17,19,28,,,,,,,,,21.9,15.8,15.2*06
$BDGSA,A,3,,,,,,,,,,,,,21.9,15.8,15.2*13
$GPGSV,2,1,07,01,00,000,32,08,00,000,26,11,56,032,39,17,25,285,44*77
$GPGSV,2,2,07,19,06,272,41,28,48,325,33,30,00,000,29*48
$BDGSV,2,1,05,05,00,000,32,08,00,000,37,27,00,000,37,29,00,000,42*6A
$BDGSV,2,2,05,30,00,000,45*5F
$LOGTIM,1,-126.207539,0.000000,0.000000,0.000000,-60.414*33
EndT:        0
---00000041--- Acq_st=3 2019-5-22 06:33:28 
[00]  G01  f 34    953.1 2045998.8  1.0  1.0  5  0 282824932
[01]  G08  7 25   1689.3 2045997.7 -0.8 -0.1 10  0         2
[02]  G11  f 39   1293.0 2045998.4  1.0  1.0  5  0 282824930
[03]  G17  f 44  -1982.3 2046002.6  1.0  1.0  5  0 282824921
[04]  G19  f 41  -2793.8 2046003.6  1.0  1.0  5  0 282824916
[05]  G28  f 33  -2576.4 2046003.3  1.0  0.9  5  0 282824927
[06]  G30  f 28   1309.7 2045998.4  0.9  0.8  5  0 282824927
[16]  B05 1f 31   -345.3 4092000.7  0.8  0.0  2  0 282810866
[17]  B08 1f 37   -329.0 4092000.9  1.0  1.0  5  0 282810879
[18]  B27 1f 36   1898.2 4091995.0  1.0  1.0  5  0 282810915
[19]  B29 1f 42  -1613.4 4092004.2  1.0  1.0  5  0 282810921
[20]  B30 1f 45    461.4 4091998.8  1.0  1.0  5  0 282810925
lsq: nits= 5
$GNGGA,063328.000,3112.6646,N,12136.4236,E,1,04,15.8,175.0,M,,,,0000*21
$GNRMC,063328.000,A,3112.6646,N,12136.4236,E,0.57,0.00,220519,,*19
$GPGSA,A,3,11,17,19,28,,,,,,,,,22.0,15.8,15.2*0C
$BDGSA,A,3,,,,,,,,,,,,,22.0,15.8,15.2*19
$GPGSV,2,1,07,01,00,000,34,08,00,000,25,11,56,032,39,17,25,285,44*72
$GPGSV,2,2,07,19,06,272,41,28,48,325,33,30,00,000,28*49
$BDGSV,2,1,05,05,00,000,31,08,00,000,37,27,00,000,36,29,00,000,42*68
$BDGSV,2,2,05,30,00,000,45*5F
$LOGTIM,1,-186.332413,0.000000,0.000000,0.000000,-61.415*37
EndT:        0
---00000042--- Acq_st=3 2019-5-22 06:33:29 
[00]  G01  f 35    951.3 2045998.6  1.0  1.0  5  0 282825932
[01]  G08  7 26   1686.9 2045997.7 -0.9 -0.1 10  0         2
[02]  G11  f 38   1290.6 2045998.3  1.0  1.0  5  0 282825930
[03]  G17  f 44  -1984.4 2046002.6  1.0  1.0  5  0 282825921
[04]  G19  f 40  -2796.1 2046003.7  1.0  0.9  5  0 282825916
[05]  G28  f 33  -2578.0 2046003.4  1.0  0.9  5  0 282825927
[06]  G30  f 30   1307.3 2045998.5  0.9  0.9  5  0 282825927
[16]  B05 1f 30   -348.1 4092001.0  0.8  0.0  2  0 282811866
[17]  B08 1f 37   -330.5 4092000.9  1.0  1.0  5  0 282811879
[18]  B27 1f 36   1896.2 4091995.1  1.0  1.0  5  0 282811915
[19]  B29 1f 42  -1615.3 4092004.2  1.0  1.0  5  0 282811921
[20]  B30 1f 45    459.7 4091998.8  1.0  1.0  5  0 282811925
lsq: nits= 5
$GNGGA,063329.000,3112.6749,N,12136.4284,E,1,04,15.9,149.7,M,,,,0000*2E
$GNRMC,063329.000,A,3112.6749,N,12136.4284,E,0.28,0.00,220519,,*17
$GPGSA,A,3,11,17,19,28,,,,,,,,,22.0,15.9,15.3*0C
$BDGSA,A,3,,,,,,,,,,,,,22.0,15.9,15.3*19
$GPGSV,2,1,07,01,00,000,35,08,00,000,26,11,56,032,38,17,25,285,44*71
$GPGSV,2,2,07,19,06,272,40,28,48,325,33,30,00,000,30*41
$BDGSV,2,1,05,05,00,000,29,08,00,000,37,27,00,000,36,29,00,000,42*61
$BDGSV,2,2,05,30,00,000,45*5F
$LOGTIM,1,-260.158624,0.000000,0.000000,0.000000,-61.993*37
EndT:        0
---00000043--- Acq_st=3 2019-5-22 06:33:30 
[00]  G01  f 37    951.6 2045998.7  1.0  1.0  5  0 282826932
[01]  G08  7 26   1686.6 2045997.8 -0.9 -0.1 10  0         2
[02]  G11  f 38   1290.9 2045998.3  1.0  1.0  5  0 282826930
[03]  G17  f 44  -1985.0 2046002.6  1.0  1.0  5  0 282826921
[04]  G19  f 39  -2796.5 2046003.6  1.0  1.0  5  0 282826916
[05]  G28  f 34  -2578.8 2046003.3  1.0  1.0  5  0 282826927
[06]  G30  f 28   1306.7 2045998.3  0.9  0.9  5  0 282826927
[16]  B05 1f 30   -348.5 4092000.7  0.9  0.0  2  0 282812866
[17]  B08 1f 37   -331.5 4092000.8  1.0  1.0  5  0 282812879
[18]  B27 1f 36   1895.0 4091995.0  1.0  1.0  5  0 282812915
[19]  B29 1f 42  -1615.4 4092004.3  1.0  1.0  5  0 282812921
[20]  B30 1f 45    459.4 4091998.8  1.0  1.0  5  0 282812925
lsq: nits= 5
$GNGGA,063330.000,3112.7023,N,12136.4338,E,1,04,15.9,103.3,M,,,,0000*20
$GNRMC,063330.000,A,3112.7023,N,12136.4338,E,2.45,0.00,220519,,*1A
$GPGSA,A,3,11,17,19,28,,,,,,,,,22.0,15.9,15.3*0C
$BDGSA,A,3,,,,,,,,,,,,,22.0,15.9,15.3*19
$GPGSV,2,1,07,01,00,000,37,08,00,000,26,11,56,032,38,17,25,285,44*73
$GPGSV,2,2,07,19,06,272,39,28,48,325,34,30,00,000,28*41
$BDGSV,2,1,05,05,00,000,30,08,00,000,37,27,00,000,36,29,00,000,42*69
$BDGSV,2,2,05,30,00,000,45*5F
$LOGTIM,1,-335.773103,0.000000,0.000000,0.000000,-61.938*3A
EndT:        0
---00000044--- Acq_st=3 2019-5-22 06:33:31 
[00]  G01  f 39    955.7 2045998.7  1.0  1.0  5  0 282827932
[01]  G08  7 25   1690.5 2045997.5 -0.8 -0.1 10  0         2
[02]  G11  f 38   1295.2 2045998.3  1.0  1.0  5  0 282827930
[03]  G17  f 45  -1980.9 2046002.6  1.0  1.0  5  0 282827921
[04]  G19  f 39  -2792.3 2046003.6  1.0  1.0  5  0 282827916
[05]  G28  f 33  -2574.3 2046003.3  1.0  1.0  5  0 282827927
[06]  G30  f 30   1312.1 2045998.4  0.9  0.9  5  0 282827927
[16]  B05 1f 31   -343.7 4092000.8  0.9  0.0  2  0 282813866
[17]  B08 1f 37   -327.4 4092000.9  1.0  1.0  5  0 282813879
[18]  B27 1f 36   1898.7 4091995.0  1.0  1.0  5  0 282813915
[19]  B29 1f 41  -1611.5 4092004.2  1.0  1.0  5  0 282813921
[20]  B30 1f 45    463.1 4091998.8  1.0  1.0  5  0 282813925
lsq: nits= 5
$GNGGA,063331.000,3112.7119,N,12136.4320,E,1,05,2.6,101.1,M,,,,0000*18
$GNRMC,063331.000,A,3112.7119,N,12136.4320,E,0.28,0.00,220519,,*13
$GPGSA,A,3,11,17,19,28,30,,,,,,,,4.1,2.6,3.2*35
$BDGSA,A,3,,,,,,,,,,,,,4.1,2.6,3.2*23
$GPGSV,2,1,07,01,00,000,39,08,00,000,25,11,56,032,38,17,25,285,45*7F
$GPGSV,2,2,07,19,06,272,39,28,48,325,33,30,00,000,30*4F
$BDGSV,2,1,05,05,00,000,31,08,00,000,37,27,00,000,36,29,00,000,41*6B
$BDGSV,2,2,05,30,00,000,45*5F
$LOGTIM,1,-392.777449,0.000000,0.000000,0.000000,-60.872*36
EndT:        1
---00000045--- Acq_st=3 2019-5-22 06:33:31 
[00]  G01  f 40    955.2 2045998.7  1.0  1.0  5  0 282828932
[01]  G08  7 25   1689.2 2045997.8 -0.9 -0.0 10  0         2
[02]  G11  f 38   1293.6 2045998.3  1.0  1.0  5  0 282828930
[03]  G17  f 45  -1982.4 2046002.6  1.0  1.0  5  0 282828921
[04]  G19  f 39  -2793.5 2046003.6  1.0  1.0  5  0 282828916
[05]  G28  f 32  -2575.6 2046003.3  1.0  0.9  5  0 282828927
[06]  G30  f 32   1311.6 2045998.2  1.0  0.9  5  0 282828927
[16]  B05 1f 29   -345.0 4092000.7  0.9  0.0  2  0 282814866
[17]  B08 1f 37   -328.1 4092000.9  1.0  1.0  5  0 282814879
[18]  B27 1f 36   1897.7 4091994.9  1.0  0.9  5  0 282814915
[19]  B29 1f 41  -1612.8 4092004.2  1.0  1.0  5  0 282814921
[20]  B30 1f 45    462.0 4091998.8  1.0  1.0  5  0 282814925
lsq: nits= 2
$GNGGA,063332.000,3112.7164,N,12136.4328,E,1,05,2.6,90.3,M,,,,0000*22
$GNRMC,063332.000,A,3112.7164,N,12136.4328,E,0.22,0.00,220519,,*18
$GPGSA,A,3,11,17,19,28,30,,,,,,,,4.1,2.6,3.2*35
$BDGSA,A,3,,,,,,,,,,,,,4.1,2.6,3.2*23
$GPGSV,2,1,07,01,00,000,40,08,00,000,25,11,56,032,38,17,25,285,45*71
$GPGSV,2,2,07,19,06,272,39,28,48,325,32,30,43,238,32*42
$BDGSV,2,1,05,05,00,000,29,08,00,000,37,27,00,000,36,29,00,000,41*62
$BDGSV,2,2,05,30,00,000,45*5F
$LOGTIM,1,-454.106274,0.000000,0.000000,0.000000,-61.424*3D
EndT:        2
---00000046--- Acq_st=3 2019-5-22 06:33:32 
[00]  G01  f 41    951.9 2045998.7  1.0  1.0  5  0 282829932
[01]  G08  7 25   1686.6 2045997.9 -0.9  0.0 10  0         2
[02]  G11  f 38   1291.2 2045998.3  1.0  1.0  5  0 282829930
[03]  G17  f 45  -1985.4 2046002.6  1.0  1.0  5  0 282829921
[04]  G19  f 39  -2797.1 2046003.6  1.0  1.0  5  0 282829916
[05]  G28  f 34  -2579.3 2046003.3  1.0  1.0  5  0 282829927
[06]  G30  f 32   1307.9 2045998.2  1.0  1.0  5  0 282829927
[16]  B05 1f 30   -348.9 4092000.9  0.9  0.0  2  0 282815866
[17]  B08 1f 37   -331.9 4092000.9  1.0  1.0  5  0 282815879
[18]  B27 1f 36   1894.4 4091995.1  1.0  1.0  5  0 282815915
[19]  B29 1f 42  -1615.7 4092004.2  1.0  1.0  5  0 282815921
[20]  B30 1f 45    459.0 4091998.8  1.0  1.0  5  0 282815925
lsq: nits= 2
$GNGGA,063333.000,3112.7181,N,12136.4325,E,1,05,2.6,86.4,M,,,,0000*25
$GNRMC,063333.000,A,3112.7181,N,12136.4325,E,0.39,0.00,220519,,*15
$GPGSA,A,3,11,17,19,28,30,,,,,,,,4.1,2.6,3.2*35
$BDGSA,A,3,,,,,,,,,,,,,4.1,2.6,3.2*23
$GPGSV,2,1,07,01,00,000,41,08,00,000,25,11,56,032,38,17,25,285,45*70
$GPGSV,2,2,07,19,06,272,39,28,48,325,34,30,43,238,32*44
$BDGSV,2,1,05,05,00,000,30,08,00,000,37,27,00,000,36,29,00,000,42*69
$BDGSV,2,2,05,30,00,000,45*5F
$LOGTIM,1,-515.577259,0.000000,0.000000,0.000000,-61.581*3A
EndT:        2
---00000047--- Acq_st=3 2019-5-22 06:33:34 
[00]  G01  f 42    953.1 2045998.7  1.0  1.0  5  0 282830932
[01]  G08  7 25   1687.2 2045997.8 -0.9 -0.1 10  0         2
[02]  G11  f 38   1292.1 2045998.3  1.0  1.0  5  0 282830930
[03]  G17  f 45  -1984.7 2046002.6  1.0  1.0  5  0 282830921
[04]  G19  f 39  -2796.4 2046003.7  1.0  1.0  5  0 282830916
[05]  G28  f 34  -2578.3 2046003.3  1.0  0.9  5  0 282830927
[06]  G30  f 33   1310.6 2045998.3  1.0  1.0  5  0 282830927
[16]  B05 1f 30   -348.3 4092000.9  0.9  0.0  2  0 282816866
[17]  B08 1f 37   -331.2 4092000.9  1.0  1.0  5  0 282816879
[18]  B27 1f 36   1894.1 4091995.0  1.0  1.0  5  0 282816915
[19]  B29 1f 41  -1615.3 4092004.3  1.0  1.0  5  0 282816921
[20]  B30 1f 45    459.4 4091998.8  1.0  1.0  5  0 282816925
lsq: nits= 2
$GNGGA,063334.000,3112.7195,N,12136.4323,E,1,05,2.6,82.1,M,,,,0000*20
$GNRMC,063334.000,A,3112.7195,N,12136.4323,E,0.11,0.00,220519,,*1B
$GPGSA,A,3,11,17,19,28,30,,,,,,,,4.1,2.6,3.2*35
$BDGSA,A,3,,,,,,,,,,,,,4.1,2.6,3.2*23
$GPGSV,2,1,07,01,00,000,42,08,00,000,25,11,56,032,38,17,25,285,45*73
$GPGSV,2,2,07,19,06,272,39,28,48,325,34,30,43,238,33*45
$BDGSV,2,1,05,05,00,000,30,08,00,000,37,27,00,000,36,29,00,000,41*6A
$BDGSV,2,2,05,30,00,000,45*5F
$LOGTIM,1,-577.263733,0.000000,0.000000,0.000000,-61.625*38
EndT:        2
---00000048--- Acq_st=3 2019-5-22 06:33:34 
[00]  G01  f 42    957.4 2045998.8  1.0  1.0  5  0 282831932
[01]  G08  7 26   1691.5 2045997.9 -0.8 -0.0 10  0         2
[02]  G11  f 39   1296.3 2045998.3  1.0  1.0  5  0 282831930
[03]  G17  f 44  -1981.1 2046002.6  1.0  1.0  5  0 282831921
[04]  G19  f 39  -2792.8 2046003.6  1.0  0.9  5  0 282831916
[05]  G28  f 35  -2574.2 2046003.3  1.0  0.9  5  0 282831927
[06]  G30  f 33   1313.4 2045998.2  1.0  1.0  5  0 282831927
[16]  B05 1f 32   -345.1 4092000.7  0.9  0.0  2  0 282817866
[17]  B08 1f 37   -327.7 4092000.8  1.0  1.0  5  0 282817879
[18]  B27 1f 36   1898.5 4091995.0  1.0  1.0  5  0 282817915
[19]  B29 1f 41  -1611.4 4092004.2  1.0  1.0  5  0 282817921
[20]  B30 1f 45    463.3 4091998.8  1.0  1.0  5  0 282817925
lsq: nits= 2
$GNGGA,063335.000,3112.7197,N,12136.4317,E,1,05,2.6,79.6,M,,,,0000*27
$GNRMC,063335.000,A,3112.7197,N,12136.4317,E,0.19,0.00,220519,,*17
$GPGSA,A,3,11,17,19,28,30,,,,,,,,4.1,2.6,3.2*35
$BDGSA,A,3,,,,,,,,,,,,,4.1,2.6,3.2*23
$GPGSV,2,1,07,01,00,000,42,08,00,000,26,11,56,032,39,17,25,285,44*70
$GPGSV,2,2,07,19,06,272,39,28,48,325,35,30,43,238,33*44
$BDGSV,2,1,05,05,00,000,32,08,00,000,37,27,00,000,36,29,00,000,41*68
$BDGSV,2,2,05,30,00,000,45*5F
$LOGTIM,1,-638.233139,0.000000,0.000000,0.000000,-61.253*3C
EndT:        2
---00000049--- Acq_st=3 2019-5-22 06:33:35 
[00]  G01  f 42    957.2 2045998.7  1.0  1.0  5  0 282832932
[01]  G08  7 26   1690.2 2045997.7 -0.9  0.0 10  0         2
[02]  G11  f 39   1295.7 2045998.3  1.0  1.0  5  0 282832930
[03]  G17  f 44  -1982.3 2046002.6  1.0  1.0  5  0 282832921
[04]  G19  f 39  -2793.7 2046003.7  1.0  1.0  5  0 282832916
[05]  G28  f 35  -2575.3 2046003.3  1.0  1.0  5  0 282832927
[06]  G30  f 31   1312.7 2045998.2  1.0  0.9  5  0 282832927
[16]  B05 1f 30   -345.5 4092001.0  0.8  0.0  2  0 282818866
[17]  B08 1f 37   -328.1 4092000.9  1.0  1.0  5  0 282818879
[18]  B27 1f 37   1897.4 4091995.0  1.0  1.0  5  0 282818915
[19]  B29 1f 41  -1612.1 4092004.2  1.0  1.0  5  0 282818921
[20]  B30 1f 45    462.4 4091998.8  1.0  1.0  5  0 282818925
lsq: nits= 2
$GNGGA,063336.000,3112.7199,N,12136.4313,E,1,05,2.6,76.8,M,,,,0000*2F
$GNRMC,063336.000,A,3112.7199,N,12136.4313,E,0.05,0.00,220519,,*13
$GPGSA,A,3,11,17,19,28,30,,,,,,,,4.1,2.6,3.2*35
$BDGSA,A,3,,,,,,,,,,,,,4.1,2.6,3.2*23
$GPGSV,2,1,07,01,00,000,42,08,00,000,26,11,56,032,39,17,25,285,44*70
$GPGSV,2,2,07,19,06,272,39,28,48,325,35,30,43,238,31*46
$BDGSV,2,1,05,05,00,000,30,08,00,000,37,27,00,000,37,29,00,000,41*6B
$BDGSV,2,2,05,30,00,000,45*5F
$LOGTIM,1,-699.517763,0.000000,0.000000,0.000000,-61.289*38
EndT:        2
---00000050--- Acq_st=3 2019-5-22 06:33:36 
[00]  G01  f 43    956.0 2045998.7  1.0  1.0  5  0 282833932
[01]  G08  7 25   1689.0 2045997.9 -0.9  0.0 10  0         2
[02]  G11  f 39   1294.0 2045998.3  1.0  1.0  5  0 282833930
[03]  G17  f 43  -1983.4 2046002.6  1.0  1.0  5  0 282833921
[04]  G19  f 39  -2795.0 2046003.6  1.0  1.0  5  0 282833916
[05]  G28  f 35  -2576.1 2046003.4  1.0  0.9  5  0 282833927
[06]  G30  f 33   1311.7 2045998.3  1.0  1.0  5  0 282833927
[16]  B05 1f 31   -347.2 4092001.0  0.8  0.0  2  0 282819866
[17]  B08 1f 36   -329.6 4092000.9  1.0  1.0  5  0 282819879
[18]  B27 1f 37   1895.9 4091995.1  1.0  1.0  5  0 282819915
[19]  B29 1f 41  -1613.3 4092004.2  1.0  1.0  5  0 282819921
[20]  B30 1f 44    461.2 4091998.8  1.0  1.0  5  0 282819925
lsq: nits= 2
$GNGGA,063337.000,3112.7206,N,12136.4302,E,1,05,2.6,74.7,M,,,,0000*26
$GNRMC,063337.000,A,3112.7206,N,12136.4302,E,0.11,0.00,220519,,*12
$GPGSA,A,3,11,17,19,28,30,,,,,,,,4.1,2.6,3.2*35
$BDGSA,A,3,,,,,,,,,,,,,4.1,2.6,3.2*23
$GPGSV,2,1,07,01,00,000,43,08,00,000,25,11,56,032,39,17,25,285,43*75
$GPGSV,2,2,07,19,06,272,39,28,48,325,35,30,43,238,33*44
$BDGSV,2,1,05,05,00,000,31,08,00,000,36,27,00,000,37,29,00,000,41*6B
$BDGSV,2,2,05,30,00,000,44*5E
$LOGTIM,1,-760.402665,0.000000,0.000000,0.000000,-61.358*30
EndT:        2
---00000051--- Acq_st=3 2019-5-22 06:33:37 
[00]  G01  f 43    955.7 2045998.7  1.0  1.0  5  0 282834932
[01]  G08  7 25   1688.1 2045997.6 -0.9 -0.0 10  0         2
[02]  G11  f 39   1293.4 2045998.3  1.0  1.0  5  0 282834930
[03]  G17  f 44  -1984.4 2046002.6  1.0  1.0  5  0 282834921
[04]  G19  f 39  -2795.5 2046003.6  1.0  1.0  5  0 282834916
[05]  G28  f 36  -2577.1 2046003.3  1.0  1.0  5  0 282834927
[06]  G30  f 33   1312.7 2045998.2  0.9  0.9  5  0 282834927
[16]  B05 1f 30   -347.8 4092001.1  0.8  0.0  2  0 282820866
[17]  B08 1f 36   -330.3 4092000.9  1.0  1.0  5  0 282820879
[18]  B27 1f 36   1895.1 4091995.1  1.0  0.9  5  0 282820915
[19]  B29 1f 41  -1614.6 4092004.2  1.0  1.0  5  0 282820921
[20]  B30 1f 45    460.6 4091998.8  1.0  1.0  5  0 282820925
lsq: nits= 2
$GNGGA,063338.000,3112.7215,N,12136.4292,E,1,05,2.6,73.3,M,,,,0000*20
$GNRMC,063338.000,A,3112.7215,N,12136.4292,E,0.34,0.00,220519,,*10
$GPGSA,A,3,11,17,19,28,30,,,,,,,,4.1,2.6,3.2*35
$BDGSA,A,3,,,,,,,,,,,,,4.1,2.6,3.2*23
$GPGSV,2,1,07,01,00,000,43,08,00,000,25,11,56,032,39,17,25,285,44*72
$GPGSV,2,2,07,19,06,272,39,28,48,325,36,30,43,238,33*47
$BDGSV,2,1,05,05,00,000,30,08,00,000,36,27,00,000,36,29,00,000,41*6B
$BDGSV,2,2,05,30,00,000,45*5F
$LOGTIM,1,-821.474610,0.000000,0.000000,0.000000,-61.445*32
EndT:        2
---00000052--- Acq_st=3 2019-5-22 06:33:38 
[00]  G01  f 43    957.7 2045998.8  1.0  1.0  5  0 282835932
[01]  G08  7 24   1689.5 2045997.8 -0.9 -0.0 10  0         2
[02]  G11  f 39   1295.5 2045998.3  1.0  1.0  5  0 282835930
[03]  G17  f 43  -1983.0 2046002.6  1.0  1.0  5  0 282835921
[04]  G19  f 39  -2794.3 2046003.6  1.0  1.0  5  0 282835916
[05]  G28  f 35  -2575.2 2046003.4  1.0  1.0  5  0 282835927
[06]  G30  f 32   1313.3 2045998.3  1.0  1.0  5  0 282835927
[16]  B05 1f 30   -346.4 4092001.3  0.8  0.0  2  0 282821866
[17]  B08 1f 36   -328.5 4092000.9  1.0  0.9  5  0 282821879
[18]  B27 1f 36   1896.4 4091995.0  1.0  1.0  5  0 282821915
[19]  B29 1f 41  -1612.4 4092004.2  1.0  1.0  5  0 282821921
