FlashID=0x1 0x20 0x18
BBram_blkflag1: fe53: 01ac
FW Ver: 1.30  
GPS00 Init Dop:   5000, 40
GPS01 Init Dop:   5000, 40
GPS02 Init Dop:   5000, 40
GPS03 Init Dop:   5000, 40
GPS04 Init Dop:   5000, 40
GPS05 Init Dop:   5000, 40
GPS06 Init Dop:   5000, 40
GPS07 Init Dop:   5000, 40
GPS08 Init Dop:   5000, 40
GPS09 Init Dop:   5000, 40
GPS10 Init Dop:   5000, 40
GPS11 Init Dop:   5000, 40
GPS12 Init Dop:   5000, 40
GPS13 Init Dop:   5000, 40
GPS14 Init Dop:   5000, 40
GPS15 Init Dop:   5000, 40
GPS16 Init Dop:   5000, 40
GPS17 Init Dop:   5000, 40
GPS18 Init Dop:   5000, 40
GPS19 Init Dop:   5000, 40
GPS20 Init Dop:   5000, 40
GPS21 Init Dop:   5000, 40
GPS22 Init Dop:   5000, 40
GPS23 Init Dop:   5000, 40
GPS24 Init Dop:   5000, 40
GPS25 Init Dop:   5000, 40
GPS26 Init Dop:   5000, 40
GPS27 Init Dop:   5000, 40
GPS28 Init Dop:   5000, 40
GPS29 Init Dop:   5000, 40
GPS30 Init Dop:   5000, 40
GPS31 Init Dop:   5000, 40
BDS00 Init Dop:   5000, 40
BDS01 Init Dop:   5000, 40
BDS02 Init Dop:   5000, 40
BDS03 Init Dop:   5000, 40
BDS04 Init Dop:   5000, 40
BDS05 Init Dop:   5000, 40
BDS06 Init Dop:   5000, 40
BDS07 Init Dop:   5000, 40
BDS08 Init Dop:   5000, 40
BDS09 Init Dop:   5000, 40
BDS10 Init Dop:   5000, 40
BDS11 Init Dop:   5000, 40
BDS12 Init Dop:   5000, 40
BDS13 Init Dop:   5000, 40
BDS14 Init Dop:   5000, 40
BDS15 Init Dop:   5000, 40
BDS16 Init Dop:   5000, 40
BDS17 Init Dop:   5000, 40
BDS18 Init Dop:   5000, 40
BDS19 Init Dop:   5000, 40
BDS20 Init Dop:   5000, 40
BDS21 Init Dop:   5000, 40
BDS22 Init Dop:   5000, 40
BDS23 Init Dop:   5000, 40
BDS24 Init Dop:   5000, 40
BDS25 Init Dop:   5000, 40
BDS26 Init Dop:   5000, 40
BDS27 Init Dop:   5000, 40
BDS28 Init Dop:   5000, 40
BDS29 Init Dop:   5000, 40
BDS30 Init Dop:   5000, 40
BDS31 Init Dop:   5000, 40
good luck!
---00000001--- Acq_st=3 2019-5-22 06:48:2 
[00]  G01  1 24   1406.9 2045999.1  0.0  0.0  1  0         0
$GNGGA,000000.000,,,,,0,00,,,M,,,,0000*2B
$GNRMC,000000.000,A,,,,,,,000000,,*26
$GPGSA,A,1,,,,,,,,,,,,,,,*1E
$BDGSA,A,1,,,,,,,,,,,,,,,*0F
$LOGTIM,0,0.000000,0.000000,0.000000,0.000000,0.000*0A
EndT:        0
---00000002--- Acq_st=3 2019-5-22 06:48:3 
[00]  G01  7 28   1400.2 2045998.1  0.4  1.0 10  0        18
$GNGGA,000000.000,,,,,0,00,,,M,,,,0000*2B
$GNRMC,000000.000,A,,,,,,,000000,,*26
$GPGSA,A,1,,,,,,,,,,,,,,,*1E
$BDGSA,A,1,,,,,,,,,,,,,,,*0F
$GPGSV,1,1,01,01,00,000,28*43
$LOGTIM,0,0.000000,0.000000,0.000000,0.000000,0.000*0A
EndT:        0
---00000003--- Acq_st=3 2019-5-22 06:48:4 
[00]  G01  7 42   1398.0 2045998.1  1.0  1.0  5  0         5
[01]  G11  1 25   1535.7 2045999.0  0.0  0.0  1  0         0
$GNGGA,000000.000,,,,,0,00,,,M,,,,0000*2B
$GNRMC,000000.000,A,,,,,,,000000,,*26
$GPGSA,A,1,,,,,,,,,,,,,,,*1E
$BDGSA,A,1,,,,,,,,,,,,,,,*0F
$GPGSV,1,1,01,01,00,000,42*4F
$LOGTIM,0,0.000000,0.000000,0.000000,0.000000,0.000*0A
EndT:        0
---00000004--- Acq_st=3 2019-5-22 06:48:5 
[00]  G01  7 42   1399.4 2045998.1  1.0  1.0  5  0         5
[01]  G11  7 29   1549.8 2045997.8  0.4  1.0 10  0         5
[02]  G17  1 19  -1951.0 2046005.2  0.0  0.0  1  0         0
[03]  G18  1 19   2638.3 2045998.1  0.1  0.0  1  0         0
[04]  G19  1 19  -2763.6 2046005.1 -0.0  0.0  1  0         0
$GNGGA,000000.000,,,,,0,00,,,M,,,,0000*2B
$GNRMC,000000.000,A,,,,,,,000000,,*26
$GPGSA,A,1,,,,,,,,,,,,,,,*1E
$BDGSA,A,1,,,,,,,,,,,,,,,*0F
$GPGSV,1,1,02,01,00,000,42,11,00,000,29*77
$LOGTIM,0,0.000000,0.000000,0.000000,0.000000,0.000*0A
EndT:        0
---00000005--- Acq_st=3 2019-5-22 06:48:6 
[00]  G01  7 42   1396.4 2045998.2  1.0  1.0  5  0         5
[01]  G11  7 37   1546.9 2045997.9  1.0  1.0  5  0         3
[02]  G17  7 26  -1936.5 2046002.4  0.3  0.0 20  0         5
[03]  G18  7 21   2623.8 2045996.5  0.2  0.0 20  0        12
[04]  G19  7  7  -2752.7 2046003.6  0.0  0.0  5  0        18
$GNGGA,000000.000,,,,,0,00,,,M,,,,0000*2B
$GNRMC,000000.000,A,,,,,,,000000,,*26
$GPGSA,A,1,,,,,,,,,,,,,,,*1E
$BDGSA,A,1,,,,,,,,,,,,,,,*0F
$GPGSV,1,1,04,01,00,000,42,11,00,000,37,17,00,000,26,18,00,000,21*76
$LOGTIM,0,0.000000,0.000000,0.000000,0.000000,0.000*0A
EndT:        0
---00000006--- Acq_st=3 2019-5-22 06:48:7 
[00]  G01  f 42   1397.3 2045998.1  1.0  1.0  5  0         5
[01]  G11  f 37   1546.9 2045997.9  1.0  1.0  5  0         3
[02]  G17  7 43  -1936.7 2046002.5  0.8  1.0  5  0        16
[03]  G18  7 42   2623.9 2045996.5  0.5  1.0  5  0         1
[04]  G19  7 41  -2751.8 2046003.5  0.8  1.0  5  0        11
[05]  G28  1 19  -2409.5 2046005.6  0.1  0.0  1  0         0
$GNGGA,000000.000,,,,,0,00,,,M,,,,0000*2B
$GNRMC,000000.000,A,,,,,,,000000,,*26
$GPGSA,A,1,,,,,,,,,,,,,,,*1E
$BDGSA,A,1,,,,,,,,,,,,,,,*0F
$GPGSV,2,1,05,01,00,000,42,11,00,000,37,17,00,000,43,18,00,000,42*72
$GPGSV,2,2,05,19,00,000,41*41
$LOGTIM,0,0.000000,0.000000,0.000000,0.000000,0.000*0A
EndT:        0
---00000007--- Acq_st=3 2019-5-22 06:48:8 
[00]  G01  f 42   1397.3 2045998.2  1.0  1.0  5  0 283705465
[01]  G11  f 36   1546.4 2045998.0  1.0  1.0  5  0 283705463
[02]  G17  7 44  -1937.2 2046002.5  1.0  1.0  5  0        16
[03]  G18  7 42   2623.2 2045996.5  1.0  1.0  5  0         1
[04]  G19  7 41  -2752.4 2046003.5  1.0  1.0  5  0        11
[05]  G28  7 23  -2396.6 2046003.0  0.5  0.0 20  0        19
$GNGGA,000000.000,,,,,0,00,,,M,,,,0000*2B
$GNRMC,000000.000,A,,,,,,,000000,,*26
$GPGSA,A,1,,,,,,,,,,,,,,,*1E
$BDGSA,A,1,,,,,,,,,,,,,,,*0F
$GPGSV,2,1,06,01,00,000,42,11,00,000,36,17,00,000,44,18,00,000,42*77
$GPGSV,2,2,06,19,00,000,41,28,00,000,23*79
$LOGTIM,0,0.000000,0.000000,0.000000,0.000000,0.000*0A
EndT:        0
---00000008--- Acq_st=3 2019-5-22 06:48:9 
[00]  G01  f 42   1397.8 2045998.2  1.0  1.0  5  0 283706465
[01]  G11  f 35   1547.0 2045998.1  1.0  1.0  5  0 283706463
[02]  G17  7 43  -1936.9 2046002.5  1.0  1.0  5  0        16
[03]  G18  7 42   2624.0 2045996.5  1.0  1.0  5  0         1
[04]  G19  7 41  -2752.2 2046003.5  1.0  0.9  5  0        11
[05]  G28  7 43  -2395.9 2046003.0  1.0  1.0  5  0         2
$GNGGA,000000.000,,,,,0,00,,,M,,,,0000*2B
$GNRMC,000000.000,A,,,,,,,000000,,*26
$GPGSA,A,1,,,,,,,,,,,,,,,*1E
$BDGSA,A,1,,,,,,,,,,,,,,,*0F
$GPGSV,2,1,06,01,00,000,42,11,00,000,35,17,00,000,43,18,00,000,42*73
$GPGSV,2,2,06,19,00,000,41,28,00,000,43*7F
$LOGTIM,0,0.000000,0.000000,0.000000,0.000000,0.000*0A
EndT:        0
---00000009--- Acq_st=3 2019-5-22 06:48:10 
[00]  G01  f 42   1397.4 2045998.2  1.0  1.0  5  0 283707465
[01]  G11  f 35   1546.4 2045998.0  1.0  0.9  5  0 283707463
[02]  G17  7 43  -1937.7 2046002.5  1.0  1.0  5  0        16
[03]  G18  7 42   2623.1 2045996.6  1.0  1.0  5  0         1
[04]  G19  7 40  -2752.9 2046003.6  1.0  1.0  5  0        11
[05]  G28  7 43  -2396.7 2046003.0  1.0  1.0  5  0         2
$GNGGA,000000.000,,,,,0,00,,,M,,,,0000*2B
$GNRMC,000000.000,A,,,,,,,000000,,*26
$GPGSA,A,1,,,,,,,,,,,,,,,*1E
$BDGSA,A,1,,,,,,,,,,,,,,,*0F
$GPGSV,2,1,06,01,00,000,42,11,00,000,35,17,00,000,43,18,00,000,42*73
$GPGSV,2,2,06,19,00,000,40,28,00,000,43*7E
$LOGTIM,0,0.000000,0.000000,0.000000,0.000000,0.000*0A
EndT:        0
---00000010--- Acq_st=3 2019-5-22 06:48:11 
[00]  G01  f 42   1397.6 2045998.2  1.0  1.0  5  0 283708465
[01]  G11  f 35   1546.4 2045998.0  1.0  1.0  5  0 283708463
[02]  G17  7 44  -1937.8 2046002.5  1.0  1.0  5  0        16
[03]  G18  7 42   2623.1 2045996.6  1.0  1.0  5  0         1
[04]  G19  7 40  -2752.9 2046003.5  1.0  1.0  5  0        11
[05]  G28  7 43  -2397.1 2046003.1  1.0  1.0  5  0         2
[16]  B08  1  7   -109.0 4092002.2 -0.0  0.0  1  0         0
$GNGGA,000000.000,,,,,0,00,,,M,,,,0000*2B
$GNRMC,000000.000,A,,,,,,,000000,,*26
$GPGSA,A,1,,,,,,,,,,,,,,,*1E
$BDGSA,A,1,,,,,,,,,,,,,,,*0F
$GPGSV,2,1,06,01,00,000,42,11,00,000,35,17,00,000,44,18,00,000,42*74
$GPGSV,2,2,06,19,00,000,40,28,00,000,43*7E
$LOGTIM,0,0.000000,0.000000,0.000000,0.000000,0.000*0A
EndT:        0
---00000011--- Acq_st=3 2019-5-22 06:48:12 
[00]  G01  f 42   1401.4 2045998.2  1.0  1.0  5  0 283709465
[01]  G11  f 35   1550.3 2045997.9  1.0  1.0  5  0 283709463
[02]  G17  7 44  -1934.8 2046002.5  1.0  1.0  5  0        16
[03]  G18  7 42   2626.8 2045996.6  1.0  1.0  5  0         1
[04]  G19  7 40  -2749.3 2046003.6  1.0  1.0  5  0        11
[05]  G28  7 43  -2393.1 2046003.1  1.0  1.0  5  0         2
[16]  B08  7  7   -239.7 4092001.1  0.2  0.0  5  0       324
$GNGGA,000000.000,,,,,0,00,,,M,,,,0000*2B
$GNRMC,000000.000,A,,,,,,,000000,,*26
$GPGSA,A,1,,,,,,,,,,,,,,,*1E
$BDGSA,A,1,,,,,,,,,,,,,,,*0F
$GPGSV,2,1,06,01,00,000,42,11,00,000,35,17,00,000,44,18,00,000,42*74
$GPGSV,2,2,06,19,00,000,40,28,00,000,43*7E
$LOGTIM,0,0.000000,0.000000,0.000000,0.000000,0.000*0A
EndT:        1
---00000012--- Acq_st=3 2019-5-22 06:48:13 
[00]  G01  f 42   1406.9 2045998.2  1.0  1.0  5  0 283710465
[01]  G11  f 34   1556.7 2045997.9  1.0  1.0  5  0 283710463
[02]  G17  f 45  -1929.5 2046002.5  1.0  1.0  5  0        16
[03]  G18  f 41   2632.3 2045996.6  1.0  1.0  5  0         1
[04]  G19  f 40  -2744.2 2046003.6  1.0  0.9  5  0        11
[05]  G28  f 43  -2388.1 2046003.1  1.0  1.0  5  0         2
[16]  B08  7 39   -236.1 4092000.5  0.8  1.0  5  0      1313
$GNGGA,000000.000,,,,,0,00,,,M,,,,0000*2B
$GNRMC,000000.000,A,,,,,,,000000,,*26
$GPGSA,A,1,,,,,,,,,,,,,,,*1E
$BDGSA,A,1,,,,,,,,,,,,,,,*0F
$GPGSV,2,1,06,01,00,000,42,11,00,000,34,17,00,000,45,18,00,000,41*77
$GPGSV,2,2,06,19,00,000,40,28,00,000,43*7E
$BDGSV,1,1,01,08,00,000,39*5B
$LOGTIM,0,0.000000,0.000000,0.000000,0.000000,0.000*0A
EndT:        0
---00000013--- Acq_st=3 2019-5-22 06:48:14 
[00]  G01  f 43   1406.8 2045998.1  1.0  1.0  5  0 283711465
[01]  G11  f 33   1555.4 2045997.9  1.0  1.0  5  0 283711463
[02]  G17  f 45  -1930.2 2046002.5  1.0  1.0  5  0 283711456
[03]  G18  f 42   2632.1 2045996.6  1.0  1.0  5  0 283711461
[04]  G19  f 40  -2744.6 2046003.6  1.0  1.0  5  0 283711451
[05]  G28  f 43  -2388.3 2046003.1  1.0  1.0  5  0 283711462
[16]  B08  7 40   -236.1 4092000.6  1.0  1.0  5  0      2313
$GNGGA,000000.000,,,,,0,00,,,M,,,,0000*2B
$GNRMC,000000.000,A,,,,,,,000000,,*26
$GPGSA,A,1,,,,,,,,,,,,,,,*1E
$BDGSA,A,1,,,,,,,,,,,,,,,*0F
$GPGSV,2,1,06,01,00,000,43,11,00,000,33,17,00,000,45,18,00,000,42*72
$GPGSV,2,2,06,19,00,000,40,28,00,000,43*7E
$BDGSV,1,1,01,08,00,000,40*55
$LOGTIM,0,0.000000,0.000000,0.000000,0.000000,0.000*0A
EndT:        0
---00000014--- Acq_st=3 2019-5-22 06:48:15 
[00]  G01  f 43   1411.7 2045998.2  1.0  1.0  5  0 283712465
[01]  G11  f 32   1559.8 2045997.9  1.0  1.0  5  0 283712463
[02]  G17  f 45  -1925.7 2046002.5  1.0  1.0  5  0 283712456
[03]  G18  f 40   2636.4 2045996.6  1.0  1.0  5  0 283712461
[04]  G19  f 40  -2740.5 2046003.6  1.0  1.0  5  0 283712451
[05]  G28  f 43  -2383.7 2046003.1  1.0  1.0  5  0 283712462
[16]  B08 1f 40   -232.1 4092000.6  1.0  1.0  5  0      3313
$GNGGA,000000.000,,,,,0,00,,,M,,,,0000*2B
$GNRMC,000000.000,A,,,,,,,000000,,*26
$GPGSA,A,1,,,,,,,,,,,,,,,*1E
$BDGSA,A,1,,,,,,,,,,,,,,,*0F
$GPGSV,2,1,06,01,00,000,43,11,00,000,32,17,00,000,45,18,00,000,40*71
$GPGSV,2,2,06,19,00,000,40,28,00,000,43*7E
$BDGSV,1,1,01,08,00,000,40*55
$LOGTIM,0,0.000000,0.000000,0.000000,0.000000,0.000*0A
EndT:        0
---00000015--- Acq_st=3 2019-5-22 06:48:16 
[00]  G01  f 44   1412.8 2045998.1  1.0  1.0  5  0 283713465
[01]  G11  f 32   1561.9 2045997.9  1.0  1.0  5  0 283713463
[02]  G17  f 45  -1924.7 2046002.5  1.0  1.0  5  0 283713456
[03]  G18  f 41   2637.4 2045996.6  1.0  1.0  5  0 283713461
[04]  G19  f 40  -2739.3 2046003.5  1.0  1.0  5  0 283713451
[05]  G28  f 42  -2383.1 2046003.2  1.0  1.0  5  0 283713462
[16]  B08 1f 41   -231.2 4092000.6  1.0  1.0  5  0 283699413
$GNGGA,000000.000,,,,,0,00,,,M,,,,0000*2B
$GNRMC,000000.000,A,,,,,,,000000,,*26
$GPGSA,A,1,,,,,,,,,,,,,,,*1E
$BDGSA,A,1,,,,,,,,,,,,,,,*0F
$GPGSV,2,1,06,01,00,000,44,11,00,000,32,17,00,000,45,18,00,000,41*77
$GPGSV,2,2,06,19,00,000,40,28,00,000,42*7F
$BDGSV,1,1,01,08,00,000,41*54
$LOGTIM,0,0.000000,0.000000,0.000000,0.000000,0.000*0A
EndT:        0
---00000016--- Acq_st=3 2019-5-22 06:48:17 
[00]  G01  f 44   1409.2 2045998.1  1.0  1.0  5  0 283714465
[01]  G11  f 32   1557.2 2045997.9  1.0  0.9  5  0 283714463
[02]  G17  f 45  -1928.9 2046002.5  1.0  1.0  5  0 283714456
[03]  G18  f 40   2633.9 2045996.6  1.0  1.0  5  0 283714461
[04]  G19  f 40  -2743.7 2046003.6  1.0  1.0  5  0 283714451
[05]  G28  f 42  -2386.3 2046003.1  1.0  1.0  5  0 283714462
[16]  B08 1f 40   -235.3 4092000.6  1.0  1.0  5  0 283700413
$GNGGA,000000.000,,,,,0,00,,,M,,,,0000*2B
$GNRMC,000000.000,A,,,,,,,000000,,*26
$GPGSA,A,1,,,,,,,,,,,,,,,*1E
$BDGSA,A,1,,,,,,,,,,,,,,,*0F
$GPGSV,2,1,06,01,00,000,44,11,00,000,32,17,00,000,45,18,00,000,40*76
$GPGSV,2,2,06,19,00,000,40,28,00,000,42*7F
$BDGSV,1,1,01,08,00,000,40*55
$LOGTIM,0,0.000000,0.000000,0.000000,0.000000,0.000*0A
EndT:        0
---00000017--- Acq_st=3 2019-5-22 06:48:18 
[00]  G01  f 45   1404.5 2045998.1  1.0  1.0  5  0 283715465
[01]  G11  f 32   1552.8 2045997.9  1.0  0.9  5  0 283715463
[02]  G17  f 45  -1934.3 2046002.5  1.0  1.0  5  0 283715456
[03]  G18  f 40   2628.4 2045996.6  1.0  1.0  5  0 283715461
[04]  G19  f 39  -2748.8 2046003.6  1.0  1.0  5  0 283715451
[05]  G28  f 41  -2391.7 2046003.1  1.0  1.0  5  0 283715462
[16]  B08 1f 41   -240.7 4092000.6  1.0  1.0  5  0 283701413
$GNGGA,000000.000,,,,,0,00,,,M,,,,0000*2B
$GNRMC,000000.000,A,,,,,,,000000,,*26
$GPGSA,A,1,,,,,,,,,,,,,,,*1E
$BDGSA,A,1,,,,,,,,,,,,,,,*0F
$GPGSV,2,1,06,01,00,000,45,11,00,000,32,17,00,000,45,18,00,000,40*77
$GPGSV,2,2,06,19,00,000,39,28,00,000,41*72
$BDGSV,1,1,01,08,00,000,41*54
$LOGTIM,0,0.000000,0.000000,0.000000,0.000000,0.000*0A
EndT:        0
---00000018--- Acq_st=3 2019-5-22 06:48:19 
[00]  G01  f 46   1402.8 2045998.1  1.0  1.0  5  0 283716465
[01]  G11  f 30   1550.0 2045997.9  0.9  1.1  5  0 283716463
[02]  G17  f 44  -1936.4 2046002.5  1.0  1.0  5  0 283716456
[03]  G18  f 40   2626.0 2045996.6  1.0  1.0  5  0 283716461
[04]  G19  f 40  -2750.9 2046003.6  1.0  1.0  5  0 283716451
[05]  G28  f 40  -2394.0 2046003.1  1.0  1.0  5  0 283716462
[16]  B08 1f 41   -242.9 4092000.6  1.0  1.0  5  0 283702413
$GNGGA,000000.000,,,,,0,00,,,M,,,,0000*2B
$GNRMC,000000.000,A,,,,,,,000000,,*26
$GPGSA,A,1,,,,,,,,,,,,,,,*1E
$BDGSA,A,1,,,,,,,,,,,,,,,*0F
$GPGSV,2,1,06,01,00,000,46,11,00,000,30,17,00,000,44,18,00,000,40*77
$GPGSV,2,2,06,19,00,000,40,28,00,000,40*7D
$BDGSV,1,1,01,08,00,000,41*54
$LOGTIM,0,0.000000,0.000000,0.000000,0.000000,0.000*0A
EndT:        0
---00000019--- Acq_st=3 2019-5-22 06:48:20 
[00]  G01  f 46   1410.4 2045998.1  1.0  1.0  5  0 283717465
[01]  G11  f 29   1556.4 2045997.9  0.9  0.9  5  0 283717463
[02]  G17  f 45  -1929.4 2046002.5  1.0  1.0  5  0 283717456
[03]  G18  f 40   2633.7 2045996.6  1.0  1.0  5  0 283717461
[04]  G19  f 40  -2743.9 2046003.5  1.0  1.0  5  0 283717451
[05]  G28  f 40  -2386.0 2046003.2  1.0  1.0  5  0 283717462
[16]  B08 1f 40   -234.9 4092000.6  1.0  1.0  5  0 283703413
[17]  B29  1  7  -1486.1 4092004.5  0.0  0.0  1  0         0
$GNGGA,000000.000,,,,,0,00,,,M,,,,0000*2B
$GNRMC,000000.000,A,,,,,,,000000,,*26
$GPGSA,A,1,,,,,,,,,,,,,,,*1E
$BDGSA,A,1,,,,,,,,,,,,,,,*0F
$GPGSV,2,1,06,01,00,000,46,11,00,000,29,17,00,000,45,18,00,000,40*7E
$GPGSV,2,2,06,19,00,000,40,28,00,000,40*7D
$BDGSV,1,1,01,08,00,000,40*55
$LOGTIM,0,0.000000,0.000000,0.000000,0.000000,0.000*0A
EndT:        0
---00000020--- Acq_st=3 2019-5-22 06:48:21 
[00]  G01  f 47   1412.5 2045998.2  1.0  1.0  5  0 283718465
[01]  G11  f 26   1557.7 2045998.1  0.9  0.5 10  0 283718463
[02]  G17  f 45  -1927.4 2046002.5  1.0  1.0  5  0 283718456
[03]  G18  f 40   2636.0 2045996.6  1.0  1.0  5  0 283718461
[04]  G19  f 40  -2742.3 2046003.6  1.0  1.0  5  0 283718451
[05]  G28  f 40  -2384.2 2046003.1  1.0  1.0  5  0 283718462
[16]  B08 1f 41   -233.8 4092000.6  1.0  1.0  5  0 283704413
[17]  B29  1  7  -1475.4 4092004.1  0.3  0.0  1  0       187
[18]  B30  1  7    564.1 4091998.2  0.0  0.0  1  0         0
$GNGGA,000000.000,,,,,0,00,,,M,,,,0000*2B
$GNRMC,000000.000,A,,,,,,,000000,,*26
$GPGSA,A,1,,,,,,,,,,,,,,,*1E
$BDGSA,A,1,,,,,,,,,,,,,,,*0F
$GPGSV,2,1,06,01,00,000,47,11,00,000,26,17,00,000,45,18,00,000,40*70
$GPGSV,2,2,06,19,00,000,40,28,00,000,40*7D
$BDGSV,1,1,01,08,00,000,41*54
$LOGTIM,0,0.000000,0.000000,0.000000,0.000000,0.000*0A
EndT:        0
---00000021--- Acq_st=7 2019-5-22 06:48:22 
[00]  G01  f 47   1413.8 2045998.1  1.0  1.0  5  0 283719465
[01]  G11  f 24   1561.2 2045997.9  0.7  0.6 10  0 283719463
[02]  G17  f 45  -1926.8 2046002.5  1.0  1.0  5  0 283719456
[03]  G18  f 40   2637.2 2045996.6  1.0  1.0  5  0 283719461
[04]  G19  f 40  -2741.6 2046003.6  1.0  1.0  5  0 283719451
[05]  G28  f 40  -2383.5 2046003.1  1.0  1.0  5  0 283719462
[16]  B08 1f 40   -233.1 4092000.6  1.0  1.0  5  0 283705413
[17]  B29  7 36  -1474.7 4092003.9  0.9  1.0  5  0      1187
[18]  B30  7 27    565.0 4091998.5  0.6  0.0 10  0       753
$GNGGA,000000.000,,,,,0,00,,,M,,,,0000*2B
$GNRMC,000000.000,A,,,,,,,000000,,*26
$GPGSA,A,1,,,,,,,,,,,,,,,*1E
$BDGSA,A,1,,,,,,,,,,,,,,,*0F
$GPGSV,2,1,06,01,00,000,47,11,00,000,24,17,00,000,45,18,00,000,40*72
$GPGSV,2,2,06,19,00,000,40,28,00,000,40*7D
$BDGSV,1,1,03,08,00,000,40,29,00,000,36,30,00,000,27*5F
$LOGTIM,0,0.000000,0.000000,0.000000,0.000000,0.000*0A
EndT:        0
---00000022--- Acq_st=7 2019-5-22 06:48:23 
[00]  G01  f 47   1412.7 2045998.2  1.0  1.0  5  0 283720465
[01]  G11  f 22   1547.2 2045998.0  0.5  0.7 10  0 283720463
[02]  G17  f 45  -1927.7 2046002.5  1.0  1.0  5  0 283720456
[03]  G18  f 40   2636.2 2045996.6  1.0  1.0  5  0 283720461
[04]  G19  f 39  -2742.9 2046003.6  1.0  1.0  5  0 283720451
[05]  G28  f 40  -2384.2 2046003.1  1.0  1.0  5  0 283720462
[16]  B08 1f 40   -234.0 4092000.6  1.0  1.0  5  0 283706413
[17]  B29  7 45  -1475.2 4092003.9  1.0  1.0  5  0      2176
[18]  B30  7 44    564.2 4091998.5  1.0  1.0  5  0      1739
$GNGGA,000000.000,,,,,0,00,,,M,,,,0000*2B
$GNRMC,000000.000,A,,,,,,,000000,,*26
$GPGSA,A,1,,,,,,,,,,,,,,,*1E
$BDGSA,A,1,,,,,,,,,,,,,,,*0F
$GPGSV,2,1,06,01,00,000,47,11,00,000,22,17,00,000,45,18,00,000,40*74
$GPGSV,2,2,06,19,00,000,39,28,00,000,40*73
$BDGSV,1,1,03,08,00,000,40,29,00,000,45,30,00,000,44*5E
$LOGTIM,0,0.000000,0.000000,0.000000,0.000000,0.000*0A
EndT:        0
---00000023--- Acq_st=3 2019-5-22 06:48:24 
[00]  G01  f 47   1412.3 2045998.2  1.0  1.0  5  0 283721465
[01]  G11  f 23   1557.5 2045997.8  0.4  0.5 10  0 283721463
[02]  G17  f 44  -1929.3 2046002.5  1.0  1.0  5  0 283721456
[03]  G18  f 40   2635.3 2045996.6  1.0  1.0  5  0 283721461
[04]  G19  f 39  -2744.1 2046003.5  1.0  1.0  5  0 283721451
[05]  G28  f 40  -2385.7 2046003.1  1.0  1.0  5  0 283721462
[16]  B08 1f 41   -235.0 4092000.6  1.0  1.0  5  0 283707413
[17]  B29  7 45  -1476.5 4092003.9  1.0  1.0  5  0      3176
[18]  B30  7 45    563.0 4091998.5  1.0  1.0  5  0      2739
$GNGGA,000000.000,,,,,0,00,,,M,,,,0000*2B
$GNRMC,000000.000,A,,,,,,,000000,,*26
$GPGSA,A,1,,,,,,,,,,,,,,,*1E
$BDGSA,A,1,,,,,,,,,,,,,,,*0F
$GPGSV,2,1,06,01,00,000,47,11,00,000,23,17,00,000,44,18,00,000,40*74
$GPGSV,2,2,06,19,00,000,39,28,00,000,40*73
$BDGSV,1,1,03,08,00,000,41,29,00,000,45,30,00,000,45*5E
$LOGTIM,0,0.000000,0.000000,0.000000,0.000000,0.000*0A
EndT:        0
---00000024--- Acq_st=3 2019-5-22 06:48:25 
[00]  G01  f 47   1410.1 2045998.1  1.0  1.0  5  0 283722465
[01]  G11  f 24   1555.7 2045997.8  0.8  0.7 10  0 283722463
[02]  G17  f 45  -1931.5 2046002.5  1.0  1.0  5  0 283722456
[03]  G18  f 40   2633.0 2045996.6  1.0  1.0  5  0 283722461
[04]  G19  f 39  -2746.2 2046003.6  1.0  1.0  5  0 283722451
[05]  G28  f 40  -2387.2 2046003.1  1.0  1.0  5  0 283722462
[16]  B08 1f 41   -237.7 4092000.6  1.0  1.0  5  0 283708413
[17]  B29  7 45  -1478.9 4092003.9  1.0  1.0  5  0      4176
[18]  B30  7 45    560.6 4091998.5  1.0  1.0  5  0      3739
$GNGGA,000000.000,,,,,0,00,,,M,,,,0000*2B
$GNRMC,000000.000,A,,,,,,,000000,,*26
$GPGSA,A,1,,,,,,,,,,,,,,,*1E
$BDGSA,A,1,,,,,,,,,,,,,,,*0F
$GPGSV,2,1,06,01,00,000,47,11,00,000,24,17,00,000,45,18,00,000,40*72
$GPGSV,2,2,06,19,00,000,39,28,00,000,40*73
$BDGSV,1,1,03,08,00,000,41,29,00,000,45,30,00,000,45*5E
$LOGTIM,0,0.000000,0.000000,0.000000,0.000000,0.000*0A
EndT:        0
---00000025--- Acq_st=3 2019-5-22 06:48:26 
[00]  G01  f 47   1409.0 2045998.2  1.0  1.0  5  0 283723465
[01]  G11  f 27   1554.8 2045997.9  0.8  0.7 10  0 283723463
[02]  G17  f 44  -1933.0 2046002.5  1.0  1.0  5  0 283723456
[03]  G18  f 40   2631.3 2045996.6  1.0  1.0  5  0 283723461
[04]  G19  f 40  -2747.8 2046003.6  1.0  1.0  5  0 283723451
[05]  G28  f 40  -2389.4 2046003.1  1.0  1.0  5  0 283723462
[16]  B08 1f 41   -238.6 4092000.6  1.0  1.0  5  0 283709413
[17]  B29  7 45  -1480.1 4092003.9  1.0  1.0  5  0      5176
[18]  B30  7 45    559.1 4091998.5  1.0  1.0  5  0      4739
$GNGGA,000000.000,,,,,0,00,,,M,,,,0000*2B
$GNRMC,000000.000,A,,,,,,,000000,,*26
$GPGSA,A,1,,,,,,,,,,,,,,,*1E
$BDGSA,A,1,,,,,,,,,,,,,,,*0F
$GPGSV,2,1,06,01,00,000,47,11,00,000,27,17,00,000,44,18,00,000,40*70
$GPGSV,2,2,06,19,00,000,40,28,00,000,40*7D
$BDGSV,1,1,03,08,00,000,41,29,00,000,45,30,00,000,45*5E
$LOGTIM,0,0.000000,0.000000,0.000000,0.000000,0.000*0A
EndT:        0
---00000026--- Acq_st=3 2019-5-22 06:48:27 
[00]  G01  f 47   1415.4 2045998.2  1.0  1.0  5  0 283724465
[01]  G11  f 28   1560.5 2045998.0  0.8  0.9 10  0 283724463
[02]  G17  f 44  -1926.8 2046002.5  1.0  1.0  5  0 283724456
[03]  G18  f 40   2637.8 2045996.5  1.0  1.0  5  0 283724461
[04]  G19  f 40  -2741.2 2046003.6  1.0  1.0  5  0 283724451
[05]  G28  f 40  -2382.5 2046003.1  1.0  1.0  5  0 283724462
[16]  B08 1f 41   -233.1 4092000.6  1.0  1.0  5  0 283710413
[17]  B29 1f 45  -1474.2 4092003.9  1.0  1.0  5  0      6176
[18]  B30 1f 44    565.5 4091998.5  1.0  1.0  5  0      5739
$GNGGA,000000.000,,,,,0,00,,,M,,,,0000*2B
$GNRMC,000000.000,A,,,,,,,000000,,*26
$GPGSA,A,1,,,,,,,,,,,,,,,*1E
$BDGSA,A,1,,,,,,,,,,,,,,,*0F
$GPGSV,2,1,06,01,00,000,47,11,00,000,28,17,00,000,44,18,00,000,40*7F
$GPGSV,2,2,06,19,00,000,40,28,00,000,40*7D
$BDGSV,1,1,03,08,00,000,41,29,00,000,45,30,00,000,44*5F
$LOGTIM,0,0.000000,0.000000,0.000000,0.000000,0.000*0A
EndT:        0
---00000027--- Acq_st=3 2019-5-22 06:48:28 
[00]  G01  f 47   1415.5 2045998.2  1.0  1.0  5  0 283725465
[01]  G11  f 30   1559.7 2045998.0  0.9  0.8  5  0 283725463
[02]  G17  f 44  -1927.6 2046002.5  1.0  1.0  5  0 283725456
[03]  G18  f 40   2637.6 2045996.6  1.0  1.0  5  0 283725461
[04]  G19  f 40  -2742.5 2046003.6  1.0  1.0  5  0 283725451
[05]  G28  f 40  -2382.5 2046003.1  1.0  1.0  5  0 283725462
[16]  B08 1f 41   -233.1 4092000.6  1.0  1.0  5  0 283711413
[17]  B29 1f 45  -1474.6 4092003.9  1.0  1.0  5  0 283711456
[18]  B30 1f 44    564.6 4091998.5  1.0  1.0  5  0 283711459
$GNGGA,000000.000,,,,,0,00,,,M,,,,0000*2B
$GNRMC,000000.000,A,,,,,,,000000,,*26
$GPGSA,A,1,,,,,,,,,,,,,,,*1E
$BDGSA,A,1,,,,,,,,,,,,,,,*0F
$GPGSV,2,1,06,01,00,000,47,11,00,000,30,17,00,000,44,18,00,000,40*76
$GPGSV,2,2,06,19,00,000,40,28,00,000,40*7D
$BDGSV,1,1,03,08,00,000,41,29,00,000,45,30,00,000,44*5F
$LOGTIM,0,0.000000,0.000000,0.000000,0.000000,0.000*0A
EndT:        0
---00000028--- Acq_st=3 2019-5-22 06:48:29 
[00]  G01  f 47   1412.8 2045998.2  1.0  1.0  5  0 283726465
[01]  G11  f 31   1558.3 2045998.1  1.0  0.9  5  0 283726463
[02]  G17  f 43  -1930.6 2046002.5  1.0  1.0  5  0 283726456
[03]  G18  f 40   2634.4 2045996.5  1.0  1.0  5  0 283726461
[04]  G19  f 40  -2746.0 2046003.6  1.0  1.0  5  0 283726451
[05]  G28  f 40  -2385.9 2046003.1  1.0  1.0  5  0 283726462
[16]  B08 1f 41   -236.7 4092000.6  1.0  1.0  5  0 283712413
[17]  B29 1f 44  -1477.5 4092003.9  1.0  1.0  5  0 283712456
[18]  B30 1f 45    561.7 4091998.5  1.0  1.0  5  0 283712459
$GNGGA,000000.000,,,,,0,00,,,M,,,,0000*2B
$GNRMC,000000.000,A,,,,,,,000000,,*26
$GPGSA,A,1,,,,,,,,,,,,,,,*1E
$BDGSA,A,1,,,,,,,,,,,,,,,*0F
$GPGSV,2,1,06,01,00,000,47,11,00,000,31,17,00,000,43,18,00,000,40*70
$GPGSV,2,2,06,19,00,000,40,28,00,000,40*7D
$BDGSV,1,1,03,08,00,000,41,29,00,000,44,30,00,000,45*5F
$LOGTIM,0,0.000000,0.000000,0.000000,0.000000,0.000*0A
EndT:        0
---00000029--- Acq_st=3 2019-5-22 06:48:30 
[00]  G01  f 47   1409.7 2045998.2  1.0  1.0  5  0 283727465
[01]  G11  f 31   1554.5 2045998.0  1.0  0.9  5  0 283727463
[02]  G17  f 43  -1934.0 2046002.5  1.0  1.0  5  0 283727456
[03]  G18  f 40   2631.3 2045996.6  1.0  1.0  5  0 283727461
[04]  G19  f 40  -2749.2 2046003.5  1.0  1.0  5  0 283727451
[05]  G28  f 40  -2388.7 2046003.1  1.0  1.0  5  0 283727462
[16]  B08 1f 41   -239.9 4092000.6  1.0  1.0  5  0 283713413
[17]  B29 1f 45  -1480.8 4092003.9  1.0  1.0  5  0 283713456
[18]  B30 1f 44    558.4 4091998.5  1.0  1.0  5  0 283713459
lsq: nits= 4
$GNGGA,064830.534,3112.7587,N,12136.4316,E,1,05,5.1,31.5,M,,,,0000*27
$GNRMC,064830.534,A,3112.7587,N,12136.4316,E,0.22,0.00,220519,,*10
$GPGSA,A,3,01,17,18,19,28,,,,,,,,5.7,5.1,2.4*3E
$BDGSA,A,3,,,,,,,,,,,,,5.7,5.1,2.4*23
$GPGSV,2,1,06,01,00,000,47,11,00,000,31,17,00,000,43,18,00,000,40*70
$GPGSV,2,2,06,19,00,000,40,28,00,000,40*7D
$BDGSV,1,1,03,08,00,000,41,29,00,000,45,30,00,000,44*5F
$LOGTIM,1,9484651.861387,0.000000,0.000000,0.000000,-62.330*12
EndT:        1
---00000030--- Acq_st=3 2019-5-22 06:48:31 
[00]  G01  f 47   1404.1 2045998.2  1.0  1.0  5  0 283728465
[01]  G11  f 30   1549.3 2045998.0  0.9  0.9  5  0 283728463
[02]  G17  f 43  -1940.0 2046002.5  1.0  1.0  5  0 283728456
[03]  G18  f 40   2625.5 2045996.6  1.0  1.0  5  0 283728461
[04]  G19  f 40  -2754.4 2046003.6  1.0  1.0  5  0 283728451
[05]  G28  f 40  -2394.6 2046003.1  1.0  1.0  5  0 283728462
[16]  B08 1f 41   -245.8 4092000.6  1.0  1.0  5  0 283714413
[17]  B29 1f 45  -1486.9 4092003.9  1.0  1.0  5  0 283714456
[18]  B30 1f 45    552.4 4091998.5  1.0  1.0  5  0 283714459
lsq: nits= 2
$GNGGA,064832.000,3112.7573,N,12136.4282,E,1,05,5.1,34.7,M,,,,0000*27
$GNRMC,064832.000,A,3112.7573,N,12136.4282,E,0.25,0.00,220519,,*10
$GPGSA,A,3,01,17,18,19,28,,,,,,,,5.7,5.1,2.4*3E
$BDGSA,A,3,,,,,,,,,,,,,5.7,5.1,2.4*23
$GPGSV,2,1,06,01,00,000,47,11,00,000,30,17,00,000,43,18,00,000,40*71
$GPGSV,2,2,06,19,00,000,40,28,00,000,40*7D
$BDGSV,1,1,03,08,00,000,41,29,00,000,45,30,00,000,45*5E
$LOGTIM,1,-92.037776,0.000000,0.000000,0.000000,-62.961*08
EndT:        2
---00000031--- Acq_st=3 2019-5-22 06:48:32 
[00]  G01  f 47   1411.7 2045998.2  1.0  1.0  5  0 283729931
[01]  G11  f 30   1555.9 2045998.1  1.0  0.9  5  0 283729929
[02]  G17  f 43  -1933.0 2046002.5  1.0  1.0  5  0 283729922
[03]  G18  f 41   2633.0 2045996.6  1.0  0.9  5  0 283729926
[04]  G19  f 40  -2747.8 2046003.6  1.0  1.0  5  0 283729917
[05]  G28  f 40  -2387.8 2046003.1  1.0  1.0  5  0 283729928
[16]  B08 1f 41   -239.1 4092000.6  1.0  1.0  5  0 283715879
[17]  B29 1f 45  -1479.8 4092003.9  1.0  1.0  5  0 283715922
[18]  B30 1f 44    559.3 4091998.5  1.0  1.0  5  0 283715925
lsq: nits= 2
$GNGGA,064833.000,3112.7557,N,12136.4276,E,1,05,5.2,36.6,M,,,,0000*2B
$GNRMC,064833.000,A,3112.7557,N,12136.4276,E,0.24,0.00,220519,,*1D
$GPGSA,A,3,01,17,18,19,28,,,,,,,,5.7,5.2,2.4*3D
$BDGSA,A,3,,,,,,,,,,,,,5.7,5.2,2.4*20
$GPGSV,2,1,06,01,63,033,47,11,00,000,30,17,28,292,43,18,35,041,41*75
$GPGSV,2,2,06,19,10,277,40,28,54,326,40*78
$BDGSV,1,1,04,08,00,000,41,29,00,000,45,30,00,000,44,09,55,060,00*67
$LOGTIM,1,-153.278647,0.000000,0.000000,0.000000,-62.049*3D
EndT:        2
---00000032--- Acq_st=3 2019-5-22 06:48:33 
[00]  G01  f 47   1411.8 2045998.2  1.0  1.0  5  0 283730931
[01]  G11  f 32   1557.6 2045998.0  1.0  1.0  5  0 283730929
[02]  G17  f 44  -1932.9 2046002.5  1.0  1.0  5  0 283730922
[03]  G18  f 41   2632.8 2045996.5  1.0  1.0  5  0 283730926
[04]  G19  f 40  -2747.7 2046003.6  1.0  1.0  5  0 283730917
[05]  G28  f 40  -2387.3 2046003.1  1.0  1.0  5  0 283730928
[16]  B08 1f 41   -239.0 4092000.6  1.0  1.0  5  0 283716879
[17]  B29 1f 45  -1479.8 4092003.8  1.0  1.0  5  0 283716922
[18]  B30 1f 45    559.1 4091998.5  1.0  1.0  5  0 283716925
lsq: nits= 2
$GNGGA,064834.000,3112.7548,N,12136.4274,E,1,05,5.2,37.2,M,,,,0000*25
$GNRMC,064834.000,A,3112.7548,N,12136.4274,E,0.09,0.00,220519,,*19
$GPGSA,A,3,01,17,18,19,28,,,,,,,,5.7,5.2,2.4*3D
$BDGSA,A,3,,,,,,,,,,,,,5.7,5.2,2.4*20
$GPGSV,2,1,06,01,63,033,47,11,00,000,32,17,28,292,44,18,35,041,41*70
$GPGSV,2,2,06,19,10,277,40,28,54,326,40*78
$BDGSV,1,1,04,08,00,000,41,29,00,000,45,30,00,000,45,09,55,060,00*66
$LOGTIM,1,-214.687858,0.000000,0.000000,0.000000,-62.205*33
EndT:        2
---00000033--- Acq_st=3 2019-5-22 06:48:34 
[00]  G01  f 47   1409.7 2045998.2  1.0  1.0  5  0 283731931
[01]  G11  f 32   1554.4 2045998.1  1.0  1.0  5  0 283731929
[02]  G17  f 44  -1935.9 2046002.5  1.0  1.0  5  0 283731922
[03]  G18  f 41   2630.6 2045996.6  1.0  1.0  5  0 283731926
[04]  G19  f 40  -2750.5 2046003.6  1.0  1.0  5  0 283731917
[05]  G28  f 39  -2390.2 2046003.1  1.0  1.0  5  0 283731928
[16]  B08 1f 41   -241.5 4092000.6  1.0  1.0  5  0 283717879
[17]  B29 1f 45  -1482.7 4092003.9  1.0  1.0  5  0 283717922
[18]  B30 1f 44    556.5 4091998.5  1.0  1.0  5  0 283717925
lsq: nits= 2
$GNGGA,064835.000,3112.7571,N,12136.4266,E,1,05,5.2,40.7,M,,,,0000*28
$GNRMC,064835.000,A,3112.7571,N,12136.4266,E,0.98,0.00,220519,,*19
$GPGSA,A,3,01,17,18,19,28,,,,,,,,5.7,5.2,2.4*3D
$BDGSA,A,3,,,,,,,,,,,,,5.7,5.2,2.4*20
$GPGSV,2,1,06,01,63,033,47,11,00,000,32,17,28,292,44,18,35,041,41*70
$GPGSV,2,2,06,19,10,277,40,28,54,326,39*76
$BDGSV,1,1,04,08,00,000,41,29,00,000,45,30,00,000,44,09,55,060,00*67
$LOGTIM,1,-271.989128,0.000000,0.000000,0.000000,-62.228*30
EndT:        2
---00000034--- Acq_st=3 2019-5-22 06:48:35 
[00]  G01  f 47   1409.3 2045998.2  1.0  1.0  5  0 283732931
[01]  G11  f 34   1553.9 2045998.0  1.0  0.9  5  0 283732929
[02]  G17  f 44  -1936.2 2046002.5  1.0  1.0  5  0 283732922
[03]  G18  f 41   2629.9 2045996.6  1.0  1.0  5  0 283732926
[04]  G19  f 41  -2751.0 2046003.6  1.0  1.0  5  0 283732917
[05]  G28  f 39  -2390.9 2046003.2  1.0  1.0  5  0 283732928
[16]  B08 1f 41   -241.6 4092000.6  1.0  1.0  5  0 283718879
[17]  B29 1f 45  -1482.7 4092003.9  1.0  1.0  5  0 283718922
[18]  B30 1f 45    556.6 4091998.5  1.0  1.0  5  0 283718925
lsq: nits= 2
$GNGGA,064836.000,3112.7582,N,12136.4257,E,1,05,5.2,42.6,M,,,,0000*26
$GNRMC,064836.000,A,3112.7582,N,12136.4257,E,1.09,0.00,220519,,*1D
$GPGSA,A,3,01,17,18,19,28,,,,,,,,5.7,5.2,2.4*3D
$BDGSA,A,3,,,,,,,,,,,,,5.7,5.2,2.4*20
$GPGSV,2,1,06,01,63,033,47,11,00,000,34,17,28,292,44,18,35,041,41*76
$GPGSV,2,2,06,19,10,277,41,28,54,326,39*77
$BDGSV,1,1,04,08,00,000,41,29,00,000,45,30,00,000,45,09,55,060,00*66
$LOGTIM,1,-332.059751,0.000000,0.000000,0.000000,-62.176*32
EndT:        2
---00000035--- Acq_st=3 2019-5-22 06:48:36 
[00]  G01  f 47   1409.7 2045998.2  1.0  1.0  5  0 283733931
[01]  G11  f 34   1554.0 2045998.0  1.0  0.9  5  0 283733929
[02]  G17  f 44  -1936.5 2046002.5  1.0  1.0  5  0 283733922
[03]  G18  f 41   2630.0 2045996.6  1.0  1.0  5  0 283733926
[04]  G19  f 41  -2751.3 2046003.5  1.0  1.0  5  0 283733917
[05]  G28  f 40  -2390.6 2046003.1  1.0  1.0  5  0 283733928
[16]  B08 1f 41   -242.3 4092000.6  1.0  1.0  5  0 283719879
[17]  B29 1f 45  -1482.9 4092003.9  1.0  1.0  5  0 283719922
[18]  B30 1f 45    556.3 4091998.5  1.0  1.0  5  0 283719925
lsq: nits= 2
$GNGGA,064837.000,3112.7593,N,12136.4251,E,1,05,5.2,44.1,M,,,,0000*20
$GNRMC,064837.000,A,3112.7593,N,12136.4251,E,1.28,0.00,220519,,*19
$GPGSA,A,3,01,17,18,19,28,,,,,,,,5.7,5.2,2.4*3D
$BDGSA,A,3,,,,,,,,,,,,,5.7,5.2,2.4*20
$GPGSV,2,1,06,01,63,033,47,11,00,000,34,17,28,292,44,18,35,041,41*76
$GPGSV,2,2,06,19,10,277,41,28,54,326,40*79
$BDGSV,1,1,04,08,00,000,41,29,00,000,45,30,00,000,45,09,55,060,00*66
$LOGTIM,1,-392.830295,0.000000,0.000000,0.000000,-62.230*33
EndT:        2
---00000036--- Acq_st=3 2019-5-22 06:48:37 
[00]  G01  f 46   1408.2 2045998.2  1.0  1.0  5  0 283734931
[01]  G11  f 35   1552.8 2045998.1  1.0  1.0  5  0 283734929
[02]  G17  f 44  -1938.2 2046002.5  1.0  1.0  5  0 283734922
[03]  G18  f 41   2628.4 2045996.6  1.0  1.0  5  0 283734926
[04]  G19  f 41  -2753.0 2046003.6  1.0  1.0  5  0 283734917
[05]  G28  f 39  -2391.9 2046003.1  1.0  1.0  5  0 283734928
[16]  B08 1f 41   -243.6 4092000.6  1.0  1.0  5  0 283720879
[17]  B29 1f 45  -1484.4 4092003.9  1.0  1.0  5  0 283720922
[18]  B30 1f 45    554.4 4091998.5  1.0  1.0  5  0 283720925
lsq: nits= 2
$GNGGA,064838.000,3112.7595,N,12136.4253,E,1,05,5.2,45.1,M,,,,0000*2A
$GNRMC,064838.000,A,3112.7595,N,12136.4253,E,1.32,0.00,220519,,*19
$GPGSA,A,3,01,17,18,19,28,,,,,,,,5.7,5.2,2.4*3D
$BDGSA,A,3,,,,,,,,,,,,,5.7,5.2,2.4*20
$GPGSV,2,1,07,01,63,033,46,11,00,000,35,17,28,292,44,18,35,041,41*77
$GPGSV,2,2,07,19,10,277,41,28,54,326,39,30,38,230,00*4F
$BDGSV,1,1,04,08,00,000,41,29,00,000,45,30,00,000,45,09,55,060,00*66
$LOGTIM,1,-455.152902,0.000000,0.000000,0.000000,-62.575*31
EndT:        2
---00000037--- Acq_st=3 2019-5-22 06:48:38 
[00]  G01  f 46   1408.9 2045998.2  1.0  1.0  5  0 283735931
[01]  G11  f 35   1552.4 2045998.0  1.0  1.0  5  0 283735929
[02]  G17  f 44  -1938.3 2046002.5  1.0  1.0  5  0 283735922
[03]  G18  f 41   2628.9 2045996.6  1.0  1.0  5  0 283735926
[04]  G19  f 41  -2753.0 2046003.5  1.0  1.0  5  0 283735917
[05]  G28  f 39  -2391.7 2046003.1  1.0  1.0  5  0 283735928
[16]  B08 1f 41   -243.2 4092000.6  1.0  1.0  5  0 283721879
[17]  B29 1f 45  -1484.4 4092003.9  1.0  1.0  5  0 283721922
[18]  B30 1f 45    554.7 4091998.5  1.0  1.0  5  0 283721925
lsq: nits= 2
$GNGGA,064839.000,3112.7590,N,12136.4253,E,1,05,5.2,46.5,M,,,,0000*29
$GNRMC,064839.000,A,3112.7590,N,12136.4253,E,0.49,0.00,220519,,*10
$GPGSA,A,3,01,17,18,19,28,,,,,,,,5.7,5.2,2.4*3D
$BDGSA,A,3,,,,,,,,,,,,,5.7,5.2,2.4*20
$GPGSV,2,1,07,01,63,033,46,11,00,000,35,17,28,292,44,18,35,041,41*77
$GPGSV,2,2,07,19,10,277,41,28,54,326,39,30,38,230,00*4F
$BDGSV,1,1,04,08,00,000,41,29,00,000,45,30,00,000,45,09,55,060,00*66
$LOGTIM,1,-517.859257,0.000000,0.000000,0.000000,-62.293*30
EndT:        2
---00000038--- Acq_st=3 2019-5-22 06:48:39 
[00]  G01  f 46   1415.3 2045998.2  1.0  1.0  5  0 283736931
[01]  G11  f 36   1558.7 2045998.0  1.0  1.0  5  0 283736929
[02]  G17  f 44  -1932.3 2046002.5  1.0  1.0  5  0 283736922
[03]  G18  f 42   2634.9 2045996.6  1.0  1.0  5  0 283736926
[04]  G19  f 41  -2747.1 2046003.6  1.0  1.0  5  0 283736917
[05]  G28  f 39  -2385.5 2046003.1  1.0  1.0  5  0 283736928
[16]  B08 1f 41   -237.6 4092000.6  1.0  1.0  5  0 283722879
[17]  B29 1f 46  -1478.2 4092003.9  1.0  1.0  5  0 283722922
[18]  B30 1f 45    560.6 4091998.5  1.0  1.0  5  0 283722925
lsq: nits= 2
$GNGGA,064840.000,3112.7576,N,12136.4247,E,1,05,5.2,48.7,M,,,,0000*26
$GNRMC,064840.000,A,3112.7576,N,12136.4247,E,0.57,0.00,220519,,*1C
$GPGSA,A,3,01,17,18,19,28,,,,,,,,5.7,5.2,2.4*3D
$BDGSA,A,3,,,,,,,,,,,,,5.7,5.2,2.4*20
$GPGSV,2,1,07,01,63,033,46,11,00,000,36,17,28,292,44,18,35,041,42*77
$GPGSV,2,2,07,19,10,277,41,28,54,326,39,30,38,230,00*4F
$BDGSV,1,1,04,08,00,000,41,29,00,000,46,30,00,000,45,09,55,060,00*65
$LOGTIM,1,-580.172670,0.000000,0.000000,0.000000,-61.925*3A
EndT:        2
---00000039--- Acq_st=3 2019-5-22 06:48:40 
[00]  G01  f 46   1414.3 2045998.2  1.0  1.0  5  0 283737931
[01]  G11  f 37   1557.6 2045998.0  1.0  0.9  5  0 283737929
[02]  G17  f 44  -1933.6 2046002.5  1.0  1.0  5  0 283737922
[03]  G18  f 42   2634.2 2045996.6  1.0  1.0  5  0 283737926
[04]  G19  f 41  -2748.7 2046003.6  1.0  1.0  5  0 283737917
[05]  G28  f 39  -2386.5 2046003.1  1.0  0.9  5  0 283737928
[16]  B08 1f 40   -239.3 4092000.6  1.0  1.0  5  0 283723879
[17]  B29 1f 45  -1479.6 4092003.9  1.0  1.0  5  0 283723922
[18]  B30 1f 45    559.3 4091998.5  1.0  1.0  5  0 283723925
lsq: nits= 2
$GNGGA,064841.000,3112.7560,N,12136.4242,E,1,05,5.2,51.0,M,,,,0000*2A
$GNRMC,064841.000,A,3112.7560,N,12136.4242,E,1.10,0.00,220519,,*1D
$GPGSA,A,3,01,17,18,19,28,,,,,,,,5.7,5.2,2.4*3D
$BDGSA,A,3,,,,,,,,,,,,,5.7,5.2,2.4*20
$GPGSV,2,1,07,01,63,033,46,11,00,000,37,17,28,292,44,18,35,041,42*76
$GPGSV,2,2,07,19,10,277,41,28,54,326,39,30,38,230,00*4F
$BDGSV,1,1,04,08,00,000,40,29,00,000,45,30,00,000,45,09,55,060,00*67
$LOGTIM,1,-642.369216,0.000000,0.000000,0.000000,-61.863*38
EndT:        2
---00000040--- Acq_st=7 2019-5-22 06:48:41 
[00]  G01  f 46   1420.2 2045998.2  1.0  1.0  5  0 283738931
[01]  G11  f 37   1562.7 2045998.0  1.0  0.9  5  0 283738929
[02]  G17  f 44  -1928.2 2046002.5  1.0  1.0  5  0 283738922
[03]  G18  f 42   2639.8 2045996.5  1.0  1.0  5  0 283738926
[04]  G19  f 41  -2743.5 2046003.6  1.0  1.0  5  0 283738917
[05]  G28  f 39  -2381.0 2046003.1  1.0  1.0  5  0 283738928
[16]  B08 1f 41   -233.4 4092000.6  1.0  1.0  5  0 283724879
[17]  B29 1f 45  -1474.0 4092003.8  1.0  1.0  5  0 283724922
[18]  B30 1f 45    564.8 4091998.5  1.0  1.0  5  0 283724925
lsq: nits= 2
$GNGGA,064842.000,3112.7541,N,12136.4237,E,1,05,5.2,54.7,M,,,,0000*2A
$GNRMC,064842.000,A,3112.7541,N,12136.4237,E,2.32,273.92,220519,,*11
$GPGSA,A,3,01,17,18,19,28,,,,,,,,5.7,5.2,2.4*3D
$BDGSA,A,3,,,,,,,,,,,,,5.7,5.2,2.4*20
$GPGSV,2,1,07,01,63,033,46,11,00,000,37,17,28,292,44,18,35,041,42*76
$GPGSV,2,2,07,19,10,277,41,28,54,326,39,30,38,230,00*4F
$BDGSV,1,1,04,08,00,000,41,29,00,000,45,30,00,000,45,09,55,060,00*66
$LOGTIM,1,-703.645921,0.000000,0.000000,0.000000,-61.206*31
EndT:        2
---00000041--- Acq_st=3 2019-5-22 06:48:42 
[00]  G01  f 45   1424.4 2045998.2  1.0  1.0  5  0 283739931
[01]  G11  f 38   1567.0 2045997.9  1.0  1.0  5  0 283739929
[02]  G17  f 44  -1924.3 2046002.5  1.0  1.0  5  0 283739922
[03]  G18  f 43   2643.5 2045996.5  1.0  1.0  5  0 283739926
[04]  G19  f 41  -2739.0 2046003.6  1.0  1.0  5  0 283739917
[05]  G28  f 39  -2377.0 2046003.1  1.0  1.0  5  0 283739928
[16]  B08 1f 41   -229.8 4092000.6  1.0  1.0  5  0 283725879
[17]  B29 1f 45  -1470.4 4092003.8  1.0  1.0  5  0 283725922
[18]  B30 1f 45    568.5 4091998.5  1.0  1.0  5  0 283725925
lsq: nits= 2
$GNGGA,064843.000,3112.7523,N,12136.4231,E,1,05,5.2,57.7,M,,,,0000*2A
$GNRMC,064843.000,A,3112.7523,N,12136.4231,E,2.73,274.71,220519,,*1D
$GPGSA,A,3,01,17,18,19,28,,,,,,,,5.7,5.2,2.4*3D
$BDGSA,A,3,,,,,,,,,,,,,5.7,5.2,2.4*20
$GPGSV,2,1,07,01,63,033,45,11,00,000,38,17,28,292,44,18,35,041,43*7B
$GPGSV,2,2,07,19,10,277,41,28,54,326,39,30,38,230,00*4F
$BDGSV,1,1,04,08,00,000,41,29,00,000,45,30,00,000,45,09,55,060,00*66
$LOGTIM,1,-764.050491,0.000000,0.000000,0.000000,-60.954*39
EndT:        2
---00000042--- Acq_st=3 2019-5-22 06:48:43 
[00]  G01  f 45   1424.2 2045998.2  1.0  1.0  5  0 283740931
[01]  G11  f 38   1566.6 2045997.9  1.0  1.0  5  0 283740929
[02]  G17  f 44  -1924.8 2046002.5  1.0  1.0  5  0 283740922
[03]  G18  f 43   2643.2 2045996.5  1.0  1.0  5  0 283740926
[04]  G19  f 41  -2739.7 2046003.6  1.0  1.0  5  0 283740917
[05]  G28  f 39  -2377.1 2046003.1  1.0  1.0  5  0 283740928
[16]  B08 1f 41   -230.4 4092000.6  1.0  1.0  5  0 283726879
[17]  B29 1f 46  -1470.6 4092003.9  1.0  1.0  5  0 283726922
[18]  B30 1f 45    568.0 4091998.5  1.0  1.0  5  0 283726925
lsq: nits= 2
$GNGGA,064844.000,3112.7506,N,12136.4228,E,1,05,5.2,61.2,M,,,,0000*22
$GNRMC,064844.000,A,3112.7506,N,12136.4228,E,2.82,274.17,220519,,*1B
$GPGSA,A,3,01,17,18,19,28,,,,,,,,5.7,5.2,2.4*3D
$BDGSA,A,3,,,,,,,,,,,,,5.7,5.2,2.4*20
$GPGSV,2,1,08,01,63,033,45,11,00,000,38,17,28,292,44,18,35,041,43*74
$GPGSV,2,2,08,19,10,277,41,28,54,326,39,08,21,073,00,30,38,230,00*7F
$BDGSV,1,1,04,08,00,000,41,29,00,000,46,30,00,000,45,09,55,060,00*65
$LOGTIM,1,-824.925667,0.000000,0.000000,0.000000,-60.938*38
EndT:        2
---00000043--- Acq_st=3 2019-5-22 06:48:44 
[00]  G01  f 45   1423.7 2045998.2  1.0  1.0  5  0 283741931
[01]  G11  f 38   1565.6 2045998.0  1.0  1.0  5  0 283741929
[02]  G17  f 44  -1925.9 2046002.5  1.0  1.0  5  0 283741922
[03]  G18  f 42   2642.4 2045996.5  1.0  1.0  5  0 283741926
[04]  G19  f 41  -2741.3 2046003.6  1.0  1.0  5  0 283741917
[05]  G28  f 39  -2378.5 2046003.1  1.0  1.0  5  0 283741928
[16]  B08 1f 41   -231.1 4092000.6  1.0  1.0  5  0 283727879
[17]  B29 1f 46  -1471.5 4092003.8  1.0  1.0  5  0 283727922
[18]  B30 1f 45    567.2 4091998.5  1.0  1.0  5  0 283727925
lsq: nits= 2
$GNGGA,064845.000,3112.7473,N,12136.4232,E,1,08,5.2,62.9,M,,,,0000*2E
$GNRMC,064845.000,A,3112.7473,N,12136.4232,E,3.32,276.82,220519,,*16
$GPGSA,A,3,01,17,18,19,28,,,,,,,,5.7,5.2,2.4*3D
$BDGSA,A,3,08,29,30,,,,,,,,,,5.7,5.2,2.4*20
$GPGSV,2,1,08,01,63,033,45,11,00,000,38,17,28,292,44,18,35,041,42*75
$GPGSV,2,2,08,19,10,277,41,28,54,326,39,08,21,073,00,30,38,230,00*7F
$BDGSV,1,1,04,08,00,000,41,29,00,000,46,30,00,000,45,09,55,060,00*65
$LOGTIM,3,-887.281331,-1082.998363,0.000000,0.000000,-61.026*2F
EndT:        3
---00000044--- Acq_st=3 2019-5-22 06:48:45 
[00]  G01  f 45   1426.6 2045998.2  1.0  1.0  5  0 283742931
[01]  G11  f 39   1568.3 2045998.0  1.0  1.0  5  0 283742929
[02]  G17  f 44  -1924.0 2046002.5  1.0  1.0  5  0 283742922
[03]  G18  f 42   2644.8 2045996.6  1.0  1.0  5  0 283742926
[04]  G19  f 41  -2738.3 2046003.6  1.0  1.0  5  0 283742917
[05]  G28  f 39  -2375.4 2046003.1  1.0  1.0  5  0 283742928
[16]  B08 1f 41   -228.5 4092000.6  1.0  1.0  5  0 283728879
[17]  B29 1f 46  -1469.0 4092003.9  1.0  1.0  5  0 283728922
[18]  B30 1f 45    569.5 4091998.5  1.0  1.0  5  0 283728925
lsq: nits= 2
$GNGGA,064846.000,3112.7435,N,12136.4239,E,1,08,2.4,65.5,M,,,,0000*2E
$GNRMC,064846.000,A,3112.7435,N,12136.4239,E,2.34,276.53,220519,,*17
$GPGSA,A,3,01,17,18,19,28,,,,,,,,2.6,2.4,1.0*3D
$BDGSA,A,3,08,29,30,,,,,,,,,,2.6,2.4,1.0*20
$GPGSV,2,1,08,01,63,033,45,11,00,000,39,17,28,292,44,18,35,041,42*74
$GPGSV,2,2,08,19,10,277,41,28,54,326,39,08,21,073,00,30,38,230,00*7F
$BDGSV,1,1,04,08,71,268,41,29,42,288,46,30,56,019,45,09,55,060,00*60
$LOGTIM,3,-949.743626,-1099.702827,0.000000,0.000000,-60.654*2A
EndT:        3
---00000045--- Acq_st=3 2019-5-22 06:48:46 
[00]  G01  f 44   1425.4 2045998.2  1.0  1.0  5  0 283743931
[01]  G11  f 39   1567.6 2045997.9  1.0  1.0  5  0 283743929
[02]  G17  f 44  -1924.8 2046002.5  1.0  1.0  5  0 283743922
[03]  G18  f 42   2643.7 2045996.6  1.0  1.0  5  0 283743926
[04]  G19  f 41  -2739.6 2046003.6  1.0  1.0  5  0 283743917
[05]  G28  f 39  -2377.5 2046003.1  1.0  1.0  5  0 283743928
[16]  B08 1f 41   -229.7 4092000.6  1.0  1.0  5  0 283729879
[17]  B29 1f 46  -1470.0 4092003.8  1.0  1.0  5  0 283729922
[18]  B30 1f 45    568.3 4091998.5  1.0  1.0  5  0 283729925
lsq: nits= 2
$GNGGA,064847.000,3112.7412,N,12136.4244,E,1,08,2.4,68.6,M,,,,0000*2E
$GNRMC,064847.000,A,3112.7412,N,12136.4244,E,1.86,276.53,220519,,*13
$GPGSA,A,3,01,17,18,19,28,,,,,,,,2.6,2.4,1.0*3D
$BDGSA,A,3,08,29,30,,,,,,,,,,2.6,2.4,1.0*20
$GPGSV,2,1,08,01,63,033,44,11,00,000,39,17,28,292,44,18,35,041,42*75
$GPGSV,2,2,08,19,10,277,41,28,54,326,39,08,21,073,00,30,38,230,00*7F
$BDGSV,1,1,04,08,71,268,41,29,42,288,46,30,56,019,45,09,55,060,00*60
$LOGTIM,3,-1011.399613,-1159.857864,0.000000,0.000000,-60.835*16
EndT:        3
---00000046--- Acq_st=3 2019-5-22 06:48:47 
[00]  G01  f 45   1421.2 2045998.2  1.0  1.0  5  0 283744931
[01]  G11  f 39   1563.1 2045998.0  1.0  1.0  5  0 283744929
[02]  G17  f 44  -1929.3 2046002.5  1.0  1.0  5  0 283744922
[03]  G18  f 42   2639.5 2045996.6  1.0  1.0  5  0 283744926
[04]  G19  f 40  -2744.1 2046003.6  1.0  1.0  5  0 283744917
[05]  G28  f 39  -2380.8 2046003.1  1.0  1.0  5  0 283744928
[16]  B08 1f 41   -234.4 4092000.6  1.0  1.0  5  0 283730879
[17]  B29 1f 45  -1474.8 4092003.9  1.0  1.0  5  0 283730922
[18]  B30 1f 45    563.9 4091998.5  1.0  1.0  5  0 283730925
lsq: nits= 2
$GNGGA,064848.000,3112.7386,N,12136.4251,E,1,08,2.4,70.8,M,,,,0000*28
$GNRMC,064848.000,A,3112.7386,N,12136.4251,E,1.37,276.53,220519,,*18
$GPGSA,A,3,01,17,18,19,28,,,,,,,,2.6,2.4,1.0*3D
$BDGSA,A,3,08,29,30,,,,,,,,,,2.6,2.4,1.0*20
$GPGSV,2,1,08,01,63,033,45,11,00,000,39,17,28,292,44,18,35,041,42*74
$GPGSV,2,2,08,19,10,277,40,28,54,326,39,08,21,073,00,30,38,230,00*7E
$BDGSV,1,1,04,08,71,268,41,29,42,288,45,30,56,019,45,09,55,060,00*63
$LOGTIM,3,-1074.159934,-1221.685065,0.000000,0.000000,-61.656*1F
EndT:        3
---00000047--- Acq_st=3 2019-5-22 06:48:48 
[00]  G01  f 44   1420.5 2045998.1  1.0  1.0  5  0 283745931
[01]  G11  f 39   1561.4 2045998.0  1.0  1.0  5  0 283745929
[02]  G17  f 45  -1931.2 2046002.5  1.0  1.0  5  0 283745922
[03]  G18  f 42   2638.5 2045996.6  1.0  1.0  5  0 283745926
[04]  G19  f 41  -2746.1 2046003.6  1.0  1.0  5  0 283745917
[05]  G28  f 39  -2382.4 2046003.1  1.0  1.0  5  0 283745928
[16]  B08 1f 41   -235.5 4092000.6  1.0  1.0  5  0 283731879
[17]  B29 1f 45  -1476.2 4092003.9  1.0  1.0  5  0 283731922
[18]  B30 1f 45    562.3 4091998.5  1.0  1.0  5  0 283731925
lsq: nits= 2
$GNGGA,064849.000,3112.7365,N,12136.4257,E,1,08,2.4,72.3,M,,,,0000*2B
$GNRMC,064849.000,A,3112.7365,N,12136.4257,E,1.58,276.53,220519,,*1B
$GPGSA,A,3,01,17,18,19,28,,,,,,,,2.6,2.4,1.0*3D
$BDGSA,A,3,08,29,30,,,,,,,,,,2.6,2.4,1.0*20
$GPGSV,2,1,08,01,63,033,44,11,00,000,39,17,28,292,45,18,35,041,42*74
$GPGSV,2,2,08,19,10,277,41,28,54,326,39,08,21,073,00,30,38,230,00*7F
$BDGSV,1,1,04,08,71,268,41,29,42,288,45,30,56,019,45,09,55,060,00*63
$LOGTIM,3,-1136.994043,-1284.028236,0.000000,0.000000,-61.719*18
EndT:        3
---00000048--- Acq_st=3 2019-5-22 06:48:49 
[00]  G01  f 44   1421.6 2045998.2  1.0  1.0  5  0 283746931
[01]  G11  f 39   1562.8 2045998.0  1.0  1.0  5  0 283746929
[02]  G17  f 45  -1930.2 2046002.5  1.0  1.0  5  0 283746922
[03]  G18  f 41   2639.0 2045996.6  1.0  1.0  5  0 283746926
[04]  G19  f 41  -2744.7 2046003.6  1.0  1.0  5  0 283746917
[05]  G28  f 39  -2381.2 2046003.1  1.0  1.0  5  0 283746928
[16]  B08 1f 41   -235.4 4092000.6  1.0  1.0  5  0 283732879
[17]  B29 1f 45  -1475.0 4092003.9  1.0  1.0  5  0 283732922
[18]  B30 1f 45    563.0 4091998.5  1.0  1.0  5  0 283732925
lsq: nits= 2
$GNGGA,064850.000,3112.7346,N,12136.4266,E,1,08,2.4,73.3,M,,,,0000*21
$GNRMC,064850.000,A,3112.7346,N,12136.4266,E,1.99,283.57,220519,,*13
$GPGSA,A,3,01,17,18,19,28,,,,,,,,2.6,2.4,1.0*3D
$BDGSA,A,3,08,29,30,,,,,,,,,,2.6,2.4,1.0*20
$GPGSV,2,1,08,01,63,033,44,11,00,000,39,17,28,292,45,18,35,041,41*77
$GPGSV,2,2,08,19,10,277,41,28,54,326,39,08,21,073,00,30,38,230,00*7F
$BDGSV,1,1,04,08,71,268,41,29,42,288,45,30,56,019,45,09,55,060,00*63
$LOGTIM,3,-1199.773118,-1346.550417,0.000000,0.000000,-61.564*1D
EndT:        3
---00000049--- Acq_st=3 2019-5-22 06:48:50 
[00]  G01  f 44   1424.8 2045998.1  1.0  1.0  5  0 283747931
[01]  G11  f 39   1565.7 2045998.0  1.0  1.0  5  0 283747929
[02]  G17  f 45  -1927.6 2046002.5  1.0  1.0  5  0 283747922
[03]  G18  f 42   2642.6 2045996.6  1.0  1.0  5  0 283747926
[04]  G19  f 41  -2742.2 2046003.5  1.0  1.0  5  0 283747917
[05]  G28  f 39  -2379.0 2046003.1  1.0  1.0  5  0 283747928
[16]  B08 1f 40   -232.6 4092000.6  1.0  1.0  5  0 283733879
[17]  B29 1f 45  -1472.8 4092003.9  1.0  1.0  5  0 283733922
[18]  B30 1f 46    565.9 4091998.5  1.0  1.0  5  0 283733925
lsq: nits= 2
$GNGGA,064851.000,3112.7318,N,12136.4277,E,1,08,2.4,74.9,M,,,,0000*26
$GNRMC,064851.000,A,3112.7318,N,12136.4277,E,1.90,283.57,220519,,*10
$GPGSA,A,3,01,17,18,19,28,,,,,,,,2.6,2.4,1.0*3D
$BDGSA,A,3,08,29,30,,,,,,,,,,2.6,2.4,1.0*20
$GPGSV,2,1,08,01,63,033,44,11,00,000,39,17,28,292,45,18,35,041,42*74
$GPGSV,2,2,08,19,10,277,41,28,54,326,39,08,21,073,00,30,38,230,00*7F
$BDGSV,1,1,04,08,71,268,40,29,42,288,45,30,56,019,46,09,55,060,00*61
$LOGTIM,3,-1263.235696,-1409.913957,0.000000,0.000000,-61.938*16
EndT:        3
---00000050--- Acq_st=3 2019-5-22 06:48:51 
[00]  G01  f 44   1417.4 2045998.2  1.0  1.0  5  0 283748931
[01]  G11  f 38   1558.1 2045998.0  1.0  1.0  5  0 283748929
[02]  G17  f 45  -1935.5 2046002.5  1.0  1.0  5  0 283748922
[03]  G18  f 41   2634.6 2045996.5  1.0  1.0  5  0 283748926
[04]  G19  f 40  -2750.3 2046003.7  1.0  1.0  5  0 283748917
[05]  G28  f 39  -2386.1 2046003.1  1.0  1.0  5  0 283748928
[16]  B08 1f 40   -240.2 4092000.6  1.0  1.0  5  0 283734879
[17]  B29 1f 45  -1480.3 4092003.8  1.0  1.0  5  0 283734922
[18]  B30 1f 46    558.1 4091998.5  1.0  1.0  5  0 283734925
lsq: nits= 2
$GNGGA,064852.000,3112.7268,N,12136.4296,E,1,07,2.7,77.0,M,,,,0000*2A
$GNRMC,064852.000,A,3112.7268,N,12136.4296,E,1.93,283.57,220519,,*19
$GPGSA,A,3,01,17,18,19,28,,,,,,,,2.9,2.7,1.0*31
$BDGSA,A,3,08,30,,,,,,,,,,,2.9,2.7,1.0*27
$GPGSV,2,1,08,01,63,033,44,11,00,000,38,17,29,292,45,18,35,041,41*77
$GPGSV,2,2,08,19,10,277,40,28,54,326,39,08,21,073,00,30,38,230,00*7E
$BDGSV,2,1,05,08,71,268,40,29,42,288,45,30,56,019,46,02,35,235,00*6C
$BDGSV,2,2,05,09,55,060,00*52
$LOGTIM,3,-1328.895477,-1475.215436,0.000000,0.000000,-63.263*1E
EndT:        3
---00000051--- Acq_st=3 2019-5-22 06:48:52 
[00]  G01  f 44   1409.9 2045998.1  1.0  1.0  5  0 283749931
[01]  G11  f 38   1550.3 2045998.0  1.0  1.0  5  0 283749929
[02]  G17  f 45  -1943.0 2046002.5  1.0  1.0  5  0 283749922
[03]  G18  f 41   2626.6 2045996.6  1.0  1.0  5  0 283749926
[04]  G19  f 41  -2757.9 2046003.6  1.0  1.0  5  0 283749917
[05]  G28  f 39  -2394.1 2046003.1  1.0  1.0  5  0 283749928
[16]  B08 1f 40   -247.6 4092000.6  1.0  1.0  5  0 283735879
[17]  B29 1f 45  -1487.7 4092003.9  1.0  1.0  5  0 283735922
[18]  B30 1f 46    550.5 4091998.6  1.0  1.0  5  0 283735925
lsq: nits= 2
$GNGGA,064853.000,3112.7269,N,12136.4296,E,1,08,2.4,76.6,M,,,,0000*21
$GNRMC,064853.000,A,3112.7269,N,12136.4296,E,0.82,283.57,220519,,*18
$GPGSA,A,3,01,17,18,19,28,,,,,,,,2.6,2.4,1.0*3D
$BDGSA,A,3,08,29,30,,,,,,,,,,2.6,2.4,1.0*20
$GPGSV,2,1,08,01,63,033,44,11,00,000,38,17,29,292,45,18,35,041,41*77
$GPGSV,2,2,08,19,10,277,41,28,54,326,39,08,21,073,00,30,38,230,00*7F
$BDGSV,2,1,05,08,71,268,40,29,42,288,45,30,56,019,46,02,35,235,00*6C
$BDGSV,2,2,05,09,55,060,00*52
$LOGTIM,3,-1393.558309,-1539.702234,0.000000,0.000000,-64.054*13
EndT:        3
---00000052--- Acq_st=3 2019-5-22 06:48:53 
[00]  G01  f 44   1409.0 2045998.2  1.0  1.0  5  0 283750931
[01]  G11  f 38   1549.6 2045998.0  1.0  0.9  5  0 283750929
[02]  G17  f 45  -1944.4 2046002.5  1.0  1.0  5  0 283750922
[03]  G18  f 42   2625.9 2045996.6  1.0  1.0  5  0 283750926
[04]  G19  f 41  -2759.0 2046003.6  1.0  1.0  5  0 283750917
[05]  G28  f 39  -2395.2 2046003.1  1.0  1.0  5  0 283750928
[16]  B08 1f 41   -249.0 4092000.6  1.0  1.0  5  0 283736879
[17]  B29 1f 45  -1489.1 4092003.9  1.0  1.0  5  0 283736922
[18]  B30 1f 46    549.2 4091998.5  1.0  1.0  5  0 283736925
lsq: nits= 2
$GNGGA,064854.000,3112.7269,N,12136.4297,E,1,08,2.4,76.6,M,,,,0000*27
$GNRMC,064854.000,A,3112.7269,N,12136.4297,E,0.49,283.57,220519,,*19
$GPGSA,A,3,01,17,18,19,28,,,,,,,,2.6,2.4,1.0*3D
$BDGSA,A,3,08,29,30,,,,,,,,,,2.6,2.4,1.0*20
$GPGSV,2,1,08,01,63,033,44,11,00,000,38,17,29,292,45,18,35,041,42*74
$GPGSV,2,2,08,19,10,277,41,28,54,326,39,08,21,073,00,30,38,230,00*7F
$BDGSV,2,1,05,08,71,268,41,29,42,288,45,30,56,019,46,02,35,235,00*6D
$BDGSV,2,2,05,09,55,060,00*52
$LOGTIM,3,-1458.520021,-1604.505526,0.000000,0.000000,-64.299*1A
EndT:        3
---00000053--- Acq_st=3 2019-5-22 06:48:54 
[00]  G01  f 44   1409.5 2045998.2  1.0  1.0  5  0 283751931
[01]  G11  f 38   1549.7 2045998.1  1.0  1.0  5  0 283751929
[02]  G17  f 45  -1944.2 2046002.5  1.0  1.0  5  0 283751922
[03]  G18  f 41   2626.0 2045996.6  1.0  1.0  5  0 283751926
[04]  G19  f 41  -2759.4 2046003.6  1.0  1.0  5  0 283751917
[05]  G28  f 39  -2394.7 2046003.1  1.0  1.0  5  0 283751928
[16]  B08 1f 41   -248.8 4092000.7  1.0  1.0  5  0 283737879
[17]  B29 1f 45  -1488.6 4092003.9  1.0  1.0  5  0 283737922
[18]  B30 1f 46    549.4 4091998.5  1.0  1.0  5  0 283737925
lsq: nits= 2
$GNGGA,064855.000,3112.7291,N,12136.4303,E,1,08,3.2,78.2,M,,,,0000*20
$GNRMC,064855.000,A,3112.7291,N,12136.4303,E,0.16,283.57,220519,,*19
$GPGSA,A,3,01,11,17,18,19,28,,,,,,,3.3,3.2,1.0*3E
$BDGSA,A,3,08,29,,,,,,,,,,,3.3,3.2,1.0*20
$GPGSV,2,1,08,01,63,033,44,11,00,000,38,17,29,292,45,18,35,041,41*77
$GPGSV,2,2,08,19,10,277,41,28,54,326,39,08,21,073,00,30,38,230,00*7F
$BDGSV,2,1,05,08,71,268,41,29,42,288,45,30,56,019,46,02,35,235,00*6D
$BDGSV,2,2,05,09,55,060,00*52
$LOGTIM,3,-1522.037416,-1668.106694,0.000000,0.000000,-64.169*1E
EndT:        3
---00000054--- Acq_st=3 2019-5-22 06:48:55 
[00]  G01  f 44   1410.2 2045998.2  1.0  1.0  5  0 283752931
[01]  G11  f 38   1550.3 2045998.0  1.0  1.0  5  0 283752929
[02]  G17  f 45  -1944.1 2046002.5  1.0  1.0  5  0 283752922
[03]  G18  f 41   2626.7 2045996.6  1.0  1.0  5  0 283752926
[04]  G19  f 41  -2759.1 2046003.6  1.0  1.0  5  0 283752917
[05]  G28  f 39  -2394.4 2046003.1  1.0  1.0  5  0 283752928
[16]  B08 1f 41   -248.5 4092000.6  1.0  1.0  5  0 283738879
[17]  B29 1f 44  -1488.6 4092003.9  1.0  1.0  5  0 283738922
[18]  B30 1f 46    549.7 4091998.5  1.0  1.0  5  0 283738925
lsq: nits= 2
$GNGGA,064856.000,3112.7255,N,12136.4304,E,1,08,3.7,79.2,M,,,,0000*28
$GNRMC,064856.000,A,3112.7255,N,12136.4304,E,0.98,283.57,220519,,*13
$GPGSA,A,3,01,11,17,18,19,28,,,,,,,4.1,3.7,1.9*37
$BDGSA,A,3,29,30,,,,,,,,,,,4.1,3.7,1.9*22
$GPGSV,2,1,08,01,63,033,44,11,50,038,38,17,29,292,45,18,35,041,41*79
$GPGSV,2,2,08,19,10,277,41,28,54,326,39,08,21,073,00,30,38,230,00*7F
$BDGSV,2,1,05,08,71,268,41,29,42,288,44,30,56,019,46,02,35,235,00*6C
$BDGSV,2,2,05,09,55,060,00*52
$LOGTIM,3,-1588.268700,-1734.113375,0.000000,0.000000,-64.290*11
EndT:        3
---00000055--- Acq_st=3 2019-5-22 06:48:56 
[00]  G01  f 44   1413.2 2045998.2  1.0  1.0  5  0 283753931
[01]  G11  f 38   1553.3 2045998.0  1.0  1.0  5  0 283753929
[02]  G17  f 45  -1941.3 2046002.5  1.0  1.0  5  0 283753922
[03]  G18  f 41   2629.7 2045996.6  1.0  1.0  5  0 283753926
[04]  G19  f 40  -2756.0 2046003.6  1.0  1.0  5  0 283753917
[05]  G28  f 39  -2391.4 2046003.1  1.0  1.0  5  0 283753928
[16]  B08 1f 41   -246.4 4092000.6  1.0  1.0  5  0 283739879
[17]  B29 1f 44  -1485.8 4092003.9  1.0  1.0  5  0 283739922
[18]  B30 1f 46    552.0 4091998.5  1.0  1.0  5  0 283739925
lsq: nits= 2
$GNGGA,064857.000,3112.7249,N,12136.4297,E,1,09,2.4,77.8,M,,,,0000*28
$GNRMC,064857.000,A,3112.7249,N,12136.4297,E,1.11,283.57,220519,,*14
$GPGSA,A,3,01,11,17,18,19,28,,,,,,,2.6,2.4,1.0*3D
$BDGSA,A,3,08,29,30,,,,,,,,,,2.6,2.4,1.0*20
$GPGSV,2,1,08,01,63,033,44,11,50,038,38,17,29,292,45,18,35,041,41*79
$GPGSV,2,2,08,19,10,277,40,28,54,326,39,08,21,073,00,30,38,230,00*7E
$BDGSV,2,1,05,08,71,268,41,29,42,288,44,30,56,019,46,02,35,235,00*6C
$BDGSV,2,2,05,09,55,060,00*52
$LOGTIM,3,-1652.718778,-1798.336136,0.000000,0.000000,-64.021*16
EndT:        3
---00000056--- Acq_st=3 2019-5-22 06:48:57 
[00]  G01  f 44   1413.9 2045998.1  1.0  1.0  5  0 283754931
[01]  G11  f 39   1553.6 2045997.9  1.0  1.0  5  0 283754929
[02]  G17  f 45  -1941.2 2046002.5  1.0  1.0  5  0 283754922
[03]  G18  f 41   2630.0 2045996.6  1.0  1.0  5  0 283754926
[04]  G19  f 40  -2755.8 2046003.6  1.0  1.0  5  0 283754917
[05]  G28  f 40  -2390.9 2046003.1  1.0  0.9  5  0 283754928
[16]  B08 1f 41   -246.0 4092000.6  1.0  1.0  5  0 283740879
[17]  B29 1f 44  -1485.8 4092003.9  1.0  1.0  5  0 283740922
[18]  B30 1f 46    552.5 4091998.5  1.0  1.0  5  0 283740925
lsq: nits= 2
$GNGGA,064858.000,3112.7254,N,12136.4297,E,1,09,2.4,77.5,M,,,,0000*26
$GNRMC,064858.000,A,3112.7254,N,12136.4297,E,0.65,283.57,220519,,*15
$GPGSA,A,3,01,11,17,18,19,28,,,,,,,2.6,2.4,1.0*3D
$BDGSA,A,3,08,29,30,,,,,,,,,,2.6,2.4,1.0*20
$GPGSV,2,1,08,01,63,033,44,11,50,038,39,17,29,292,45,18,35,041,41*78
$GPGSV,2,2,08,19,10,277,40,28,54,326,40,08,21,073,00,30,38,230,00*70
$BDGSV,2,1,05,08,71,268,41,29,42,288,44,30,56,019,46,02,35,235,00*6C
$BDGSV,2,2,05,09,55,060,00*52
$LOGTIM,3,-1716.420941,-1861.937386,0.000000,0.000000,-64.009*1A
EndT:        3
---00000057--- Acq_st=3 2019-5-22 06:48:58 
[00]  G01  f 44   1416.6 2045998.1  1.0  1.0  5  0 283755931
[01]  G11  f 38   1556.1 2045998.0  1.0  1.0  5  0 283755929
[02]  G17  f 45  -1939.0 2046002.5  1.0  1.0  5  0 283755922
[03]  G18  f 41   2632.4 2045996.6  1.0  1.0  5  0 283755926
[04]  G19  f 40  -2754.0 2046003.6  1.0  0.9  5  0 283755917
[05]  G28  f 40  -2388.2 2046003.1  1.0  1.0  5  0 283755928
[16]  B08 1f 41   -243.3 4092000.6  1.0  1.0  5  0 283741879
[17]  B29 1f 44  -1483.2 4092003.9  1.0  1.0  5  0 283741922
[18]  B30 1f 46    555.0 4091998.5  1.0  1.0  5  0 283741925
lsq: nits= 2
$GNGGA,064859.000,3112.7257,N,12136.4314,E,1,08,2.6,74.9,M,,,,0000*22
$GNRMC,064859.000,A,3112.7257,N,12136.4314,E,1.22,283.57,220519,,*1F
$GPGSA,A,3,01,11,17,18,19,28,,,,,,,2.8,2.6,1.0*31
$BDGSA,A,3,08,30,,,,,,,,,,,2.8,2.6,1.0*27
$GPGSV,2,1,08,01,63,033,44,11,50,038,38,17,29,292,45,18,35,041,41*79
$GPGSV,2,2,08,19,10,277,40,28,54,326,40,08,21,073,00,30,38,230,00*70
$BDGSV,2,1,05,08,71,268,41,29,42,288,44,30,56,019,46,02,35,235,00*6C
$BDGSV,2,2,05,09,55,060,00*52
$LOGTIM,3,-1780.509603,-1925.625557,0.000000,0.000000,-63.391*14
EndT:        3
---00000058--- Acq_st=7 2019-5-22 06:48:59 
[00]  G01  f 44   1422.5 2045998.1  1.0  1.0  5  0 283756931
[01]  G11  f 38   1561.8 2045997.9  1.0  1.0  5  0 283756929
[02]  G17  f 45  -1933.3 2046002.5  1.0  1.0  5  0 283756922
[03]  G18  f 41   2638.3 2045996.6  1.0  1.0  5  0 283756926
[04]  G19  f 40  -2748.1 2046003.6  1.0  1.0  5  0 283756917
[05]  G28  f 40  -2382.5 2046003.1  1.0  1.0  5  0 283756928
