FlashID=0x1 0x20 0x18
BBram_blkflag1: fe53: 01ac
FW Ver: 1.30  
GPS00 Init Dop:   5000, 40
GPS01 Init Dop:   5000, 40
GPS02 Init Dop:   5000, 40
GPS03 Init Dop:   5000, 40
GPS04 Init Dop:   5000, 40
GPS05 Init Dop:   5000, 40
GPS06 Init Dop:   5000, 40
GPS07 Init Dop:   5000, 40
GPS08 Init Dop:   5000, 40
GPS09 Init Dop:   5000, 40
GPS10 Init Dop:   5000, 40
GPS11 Init Dop:   5000, 40
GPS12 Init Dop:   5000, 40
GPS13 Init Dop:   5000, 40
GPS14 Init Dop:   5000, 40
GPS15 Init Dop:   5000, 40
GPS16 Init Dop:   5000, 40
GPS17 Init Dop:   5000, 40
GPS18 Init Dop:   5000, 40
GPS19 Init Dop:   5000, 40
GPS20 Init Dop:   5000, 40
GPS21 Init Dop:   5000, 40
GPS22 Init Dop:   5000, 40
GPS23 Init Dop:   5000, 40
GPS24 Init Dop:   5000, 40
GPS25 Init Dop:   5000, 40
GPS26 Init Dop:   5000, 40
GPS27 Init Dop:   5000, 40
GPS28 Init Dop:   5000, 40
GPS29 Init Dop:   5000, 40
GPS30 Init Dop:   5000, 40
GPS31 Init Dop:   5000, 40
BDS00 Init Dop:   5000, 40
BDS01 Init Dop:   5000, 40
BDS02 Init Dop:   5000, 40
BDS03 Init Dop:   5000, 40
BDS04 Init Dop:   5000, 40
BDS05 Init Dop:   5000, 40
BDS06 Init Dop:   5000, 40
BDS07 Init Dop:   5000, 40
BDS08 Init Dop:   5000, 40
BDS09 Init Dop:   5000, 40
BDS10 Init Dop:   5000, 40
BDS11 Init Dop:   5000, 40
BDS12 Init Dop:   5000, 40
BDS13 Init Dop:   5000, 40
BDS14 Init Dop:   5000, 40
BDS15 Init Dop:   5000, 40
BDS16 Init Dop:   5000, 40
BDS17 Init Dop:   5000, 40
BDS18 Init Dop:   5000, 40
BDS19 Init Dop:   5000, 40
BDS20 Init Dop:   5000, 40
BDS21 Init Dop:   5000, 40
BDS22 Init Dop:   5000, 40
BDS23 Init Dop:   5000, 40
BDS24 Init Dop:   5000, 40
BDS25 Init Dop:   5000, 40
BDS26 Init Dop:   5000, 40
BDS27 Init Dop:   5000, 40
BDS28 Init Dop:   5000, 40
BDS29 Init Dop:   5000, 40
BDS30 Init Dop:   5000, 40
BDS31 Init Dop:   5000, 40
good luck!
---00000001--- Acq_st=5 2019-5-22 06:49:51 
[00]  G01  1 27   1454.6 2045998.0  0.1  0.0  1  0         0
$GNGGA,000000.000,,,,,0,00,,,M,,,,0000*2B
$GNRMC,000000.000,A,,,,,,,000000,,*26
$GPGSA,A,1,,,,,,,,,,,,,,,*1E
$BDGSA,A,1,,,,,,,,,,,,,,,*0F
$LOGTIM,0,0.000000,0.000000,0.000000,0.000000,0.000*0A
EndT:        0
---00000002--- Acq_st=3 2019-5-22 06:49:52 
[00]  G01  7 28   1459.3 2045998.1  0.1  1.0 10  0        13
$GNGGA,000000.000,,,,,0,00,,,M,,,,0000*2B
$GNRMC,000000.000,A,,,,,,,000000,,*26
$GPGSA,A,1,,,,,,,,,,,,,,,*1E
$BDGSA,A,1,,,,,,,,,,,,,,,*0F
$GPGSV,1,1,01,01,00,000,28*43
$LOGTIM,0,0.000000,0.000000,0.000000,0.000000,0.000*0A
EndT:        0
---00000003--- Acq_st=3 2019-5-22 06:49:53 
[00]  G01  7 45   1449.2 2045998.1  0.9  1.0  5  0        16
[01]  G11  1 25   1572.6 2045998.8  0.0  0.0  1  0         0
$GNGGA,000000.000,,,,,0,00,,,M,,,,0000*2B
$GNRMC,000000.000,A,,,,,,,000000,,*26
$GPGSA,A,1,,,,,,,,,,,,,,,*1E
$BDGSA,A,1,,,,,,,,,,,,,,,*0F
$GPGSV,1,1,01,01,00,000,45*48
$LOGTIM,0,0.000000,0.000000,0.000000,0.000000,0.000*0A
EndT:        0
---00000004--- Acq_st=3 2019-5-22 06:49:54 
[00]  G01  7 45   1449.0 2045998.1  1.0  1.0  5  0        16
[01]  G11  7 28   1577.4 2045997.8  0.4  1.0 10  0        10
[02]  G17  1 24  -1933.1 2046004.5  0.0  0.0  1  0         0
[03]  G18  1  7   2680.0 2045998.9  0.0  0.0  1  0         0
[04]  G19  1  7  -2749.3 2046004.8 -0.1  0.0  1  0         0
$GNGGA,000000.000,,,,,0,00,,,M,,,,0000*2B
$GNRMC,000000.000,A,,,,,,,000000,,*26
$GPGSA,A,1,,,,,,,,,,,,,,,*1E
$BDGSA,A,1,,,,,,,,,,,,,,,*0F
$GPGSV,1,1,02,01,00,000,45,11,00,000,28*71
$LOGTIM,0,0.000000,0.000000,0.000000,0.000000,0.000*0A
EndT:        1
---00000005--- Acq_st=3 2019-5-22 06:49:55 
[00]  G01  f 45   1447.7 2045998.1  1.0  1.0  5  0        16
[01]  G11  f 39   1575.2 2045997.8  1.0  1.0  5  0        14
[02]  G17  7 25  -1931.8 2046002.4  0.2  0.0 20  0         1
[03]  G18  7 16   2651.1 2045996.4  0.2  0.0 20  0         3
[04]  G19  1 31  -2746.4 2046004.4  0.1  0.0  1  0         4
$GNGGA,000000.000,,,,,0,00,,,M,,,,0000*2B
$GNRMC,000000.000,A,,,,,,,000000,,*26
$GPGSA,A,1,,,,,,,,,,,,,,,*1E
$BDGSA,A,1,,,,,,,,,,,,,,,*0F
$GPGSV,1,1,04,01,00,000,45,11,00,000,39,17,00,000,24,18,00,000,16*79
$LOGTIM,0,0.000000,0.000000,0.000000,0.000000,0.000*0A
EndT:        0
---00000006--- Acq_st=3 2019-5-22 06:49:56 
[00]  G01  f 45   1448.3 2045998.1  1.0  1.0  5  0 283813436
[01]  G11  f 40   1576.4 2045997.9  1.0  1.0  5  0 283813434
[02]  G17  7 45  -1931.5 2046002.4  1.0  1.0  5  0         8
[03]  G18  7 40   2652.0 2045996.5  0.9  1.0  5  0        12
[04]  G19  7 37  -2745.8 2046003.5  0.9  1.0  5  0         4
[05]  G28  1  7  -2401.3 2046003.8 -0.0  0.0  1  0         0
$GNGGA,000000.000,,,,,0,00,,,M,,,,0000*2B
$GNRMC,000000.000,A,,,,,,,000000,,*26
$GPGSA,A,1,,,,,,,,,,,,,,,*1E
$BDGSA,A,1,,,,,,,,,,,,,,,*0F
$GPGSV,2,1,05,01,00,000,45,11,00,000,40,17,00,000,45,18,00,000,40*71
$GPGSV,2,2,05,19,00,000,37*40
$LOGTIM,0,0.000000,0.000000,0.000000,0.000000,0.000*0A
EndT:        0
---00000007--- Acq_st=3 2019-5-22 06:49:57 
[00]  G01  f 45   1449.5 2045998.1  1.0  1.0  5  0 283814436
[01]  G11  f 39   1577.2 2045997.9  1.0  1.0  5  0 283814434
[02]  G17  7 45  -1930.5 2046002.5  1.0  1.0  5  0         8
[03]  G18  7 40   2653.1 2045996.5  1.0  1.0  5  0        12
[04]  G19  7 41  -2745.1 2046003.5  1.0  1.0  5  0         3
[05]  G28  7 17  -2369.0 2046003.0  0.1  0.0 20  0        19
$GNGGA,000000.000,,,,,0,00,,,M,,,,0000*2B
$GNRMC,000000.000,A,,,,,,,000000,,*26
$GPGSA,A,1,,,,,,,,,,,,,,,*1E
$BDGSA,A,1,,,,,,,,,,,,,,,*0F
$GPGSV,2,1,06,01,00,000,45,11,00,000,39,17,00,000,45,18,00,000,40*7C
$GPGSV,2,2,06,19,00,000,41,28,00,000,17*7E
$LOGTIM,0,0.000000,0.000000,0.000000,0.000000,0.000*0A
EndT:        0
---00000008--- Acq_st=3 2019-5-22 06:49:58 
[00]  G01  f 44   1455.5 2045998.1  1.0  1.0  5  0 283815436
[01]  G11  f 39   1582.8 2045997.9  1.0  1.0  5  0 283815434
[02]  G17  7 45  -1925.0 2046002.5  1.0  1.0  5  0         8
[03]  G18  7 40   2658.4 2045996.5  1.0  1.0  5  0        12
[04]  G19  7 41  -2740.0 2046003.5  1.0  1.0  5  0         3
[05]  G28  7 36  -2361.9 2046003.0  0.2  1.0  5  0        14
$GNGGA,000000.000,,,,,0,00,,,M,,,,0000*2B
$GNRMC,000000.000,A,,,,,,,000000,,*26
$GPGSA,A,1,,,,,,,,,,,,,,,*1E
$BDGSA,A,1,,,,,,,,,,,,,,,*0F
$GPGSV,2,1,06,01,00,000,44,11,00,000,39,17,00,000,45,18,00,000,40*7D
$GPGSV,2,2,06,19,00,000,41,28,00,000,36*7D
$LOGTIM,0,0.000000,0.000000,0.000000,0.000000,0.000*0A
EndT:        0
---00000009--- Acq_st=3 2019-5-22 06:49:59 
[00]  G01  f 44   1459.8 2045998.1  1.0  1.0  5  0 283816436
[01]  G11  f 38   1586.4 2045997.9  1.0  0.9  5  0 283816434
[02]  G17  7 45  -1921.2 2046002.5  1.0  1.0  5  0         8
[03]  G18  7 40   2662.8 2045996.5  1.0  1.0  5  0        12
[04]  G19  7 42  -2735.7 2046003.5  1.0  0.9  5  0         3
[05]  G28  7 37  -2358.8 2046003.0  1.0  1.0  5  0        14
[16]  B05  1 10   -327.9 4092000.8 -0.1  0.0  1  0         0
$GNGGA,000000.000,,,,,0,00,,,M,,,,0000*2B
$GNRMC,000000.000,A,,,,,,,000000,,*26
$GPGSA,A,1,,,,,,,,,,,,,,,*1E
$BDGSA,A,1,,,,,,,,,,,,,,,*0F
$GPGSV,2,1,06,01,00,000,44,11,00,000,38,17,00,000,45,18,00,000,40*7C
$GPGSV,2,2,06,19,00,000,42,28,00,000,37*7F
$LOGTIM,0,0.000000,0.000000,0.000000,0.000000,0.000*0A
EndT:        1
---00000010--- Acq_st=3 2019-5-22 06:50:0 
[00]  G01  f 44   1459.4 2045998.1  1.0  1.0  5  0 283817436
[01]  G11  f 37   1586.6 2045997.9  1.0  1.0  5  0 283817434
[02]  G17  7 45  -1921.6 2046002.5  1.0  1.0  5  0         8
[03]  G18  7 40   2662.1 2045996.5  1.0  1.0  5  0        12
[04]  G19  7 42  -2736.2 2046003.5  1.0  1.0  5  0         3
[05]  G28  7 38  -2358.4 2046003.0  1.0  1.0  5  0        14
[16]  B05  7 30   -343.0 4092000.9  0.6  0.0  2  0       442
[17]  B08  1  7     60.5 4092000.8  0.0  0.0  1  0         0
$GNGGA,000000.000,,,,,0,00,,,M,,,,0000*2B
$GNRMC,000000.000,A,,,,,,,000000,,*26
$GPGSA,A,1,,,,,,,,,,,,,,,*1E
$BDGSA,A,1,,,,,,,,,,,,,,,*0F
$GPGSV,2,1,06,01,00,000,44,11,00,000,37,17,00,000,45,18,00,000,40*73
$GPGSV,2,2,06,19,00,000,42,28,00,000,38*70
$BDGSV,1,1,01,05,00,000,30*5F
$LOGTIM,0,0.000000,0.000000,0.000000,0.000000,0.000*0A
EndT:        0
---00000011--- Acq_st=3 2019-5-22 06:50:1 
[00]  G01  f 44   1467.6 2045998.1  1.0  1.0  5  0 283818436
[01]  G11  f 36   1594.3 2045997.9  1.0  0.9  5  0 283818434
[02]  G17  f 45  -1914.3 2046002.5  1.0  1.0  5  0         8
[03]  G18  f 40   2670.4 2045996.5  1.0  1.0  5  0        12
[04]  G19  f 41  -2729.2 2046003.5  1.0  1.0  5  0         3
[05]  G28  f 38  -2350.8 2046003.0  1.0  1.0  5  0        14
[16]  B05  7 30   -335.5 4092001.0  0.9  0.0  2  0      1441
[17]  B08  1  7   -215.9 4092001.4  0.0  0.0  1  0       120
[18]  B10  1  7   -309.0 4092001.0 -0.0  0.0  1  0         0
$GNGGA,000000.000,,,,,0,00,,,M,,,,0000*2B
$GNRMC,000000.000,A,,,,,,,000000,,*26
$GPGSA,A,1,,,,,,,,,,,,,,,*1E
$BDGSA,A,1,,,,,,,,,,,,,,,*0F
$GPGSV,2,1,06,01,00,000,44,11,00,000,36,17,00,000,45,18,00,000,40*72
$GPGSV,2,2,06,19,00,000,41,28,00,000,38*73
$BDGSV,1,1,01,05,00,000,30*5F
$LOGTIM,0,0.000000,0.000000,0.000000,0.000000,0.000*0A
EndT:        0
---00000012--- Acq_st=3 2019-5-22 06:50:2 
[00]  G01  f 44   1467.8 2045998.1  1.0  1.0  5  0 283819436
[01]  G11  f 36   1594.2 2045998.0  1.0  0.9  5  0 283819434
[02]  G17  f 45  -1914.7 2046002.5  1.0  1.0  5  0 283819428
[03]  G18  f 41   2669.9 2045996.6  1.0  1.0  5  0 283819432
[04]  G19  f 41  -2729.2 2046003.5  1.0  1.0  5  0 283819423
[05]  G28  f 38  -2351.1 2046003.0  1.0  1.0  5  0 283819434
[16]  B05  f 29   -335.2 4092001.0  0.9  0.0  2  0       571
[17]  B08  7 32   -216.4 4092000.6  0.5  0.9  5  0      1120
[18]  B10  1  7   -466.5 4092001.7 -0.1  0.0  1  0       239
$GNGGA,000000.000,,,,,0,00,,,M,,,,0000*2B
$GNRMC,000000.000,A,,,,,,,000000,,*26
$GPGSA,A,1,,,,,,,,,,,,,,,*1E
$BDGSA,A,1,,,,,,,,,,,,,,,*0F
$GPGSV,2,1,06,01,00,000,44,11,00,000,36,17,00,000,45,18,00,000,41*73
$GPGSV,2,2,06,19,00,000,41,28,00,000,38*73
$BDGSV,1,1,02,05,00,000,29,08,00,000,32*6D
$LOGTIM,0,0.000000,0.000000,0.000000,0.000000,0.000*0A
EndT:        0
---00000013--- Acq_st=3 2019-5-22 06:50:3 
[00]  G01  f 44   1462.8 2045998.1  1.0  1.0  5  0 283820436
[01]  G11  f 35   1589.7 2045998.0  1.0  0.9  5  0 283820434
[02]  G17  f 45  -1919.8 2046002.5  1.0  1.0  5  0 283820428
[03]  G18  f 41   2665.1 2045996.5  1.0  1.0  5  0 283820432
[04]  G19  f 41  -2734.8 2046003.5  1.0  1.0  5  0 283820423
[05]  G28  f 39  -2356.1 2046003.0  1.0  1.0  5  0 283820434
[16]  B05  f 30   -340.8 4092001.0  0.8  0.0  2  0 283806971
[17]  B08 1f 36   -221.2 4092000.6  1.0  1.0  5  0      2104
[18]  B10  7 31   -476.2 4092001.4 -0.0  0.8  5  0      1239
$GNGGA,000000.000,,,,,0,00,,,M,,,,0000*2B
$GNRMC,000000.000,A,,,,,,,000000,,*26
$GPGSA,A,1,,,,,,,,,,,,,,,*1E
$BDGSA,A,1,,,,,,,,,,,,,,,*0F
$GPGSV,2,1,06,01,00,000,44,11,00,000,35,17,00,000,45,18,00,000,41*70
$GPGSV,2,2,06,19,00,000,41,28,00,000,39*72
$BDGSV,1,1,03,05,00,000,30,08,00,000,36,10,00,000,31*53
$LOGTIM,0,0.000000,0.000000,0.000000,0.000000,0.000*0A
EndT:        0
---00000014--- Acq_st=3 2019-5-22 06:50:4 
[00]  G01  f 43   1463.2 2045998.1  1.0  1.0  5  0 283821436
[01]  G11  f 34   1589.1 2045997.8  1.0  0.9  5  0 283821434
[02]  G17  f 46  -1920.0 2046002.5  1.0  1.0  5  0 283821428
[03]  G18  f 41   2664.9 2045996.6  1.0  1.0  5  0 283821432
[04]  G19  f 41  -2734.8 2046003.5  1.0  1.0  5  0 283821423
[05]  G28  f 40  -2356.1 2046003.0  1.0  1.0  5  0 283821434
[16]  B05  f 28   -340.8 4092000.8  0.9  0.0  2  0 283807971
[17]  B08 1f 36   -221.6 4092000.6  1.0  1.0  5  0 283807384
[18]  B10  7 34   -474.8 4092001.4  1.0  0.9  5  0      2224
$GNGGA,000000.000,,,,,0,00,,,M,,,,0000*2B
$GNRMC,000000.000,A,,,,,,,000000,,*26
$GPGSA,A,1,,,,,,,,,,,,,,,*1E
$BDGSA,A,1,,,,,,,,,,,,,,,*0F
$GPGSV,2,1,06,01,00,000,43,11,00,000,34,17,00,000,46,18,00,000,41*75
$GPGSV,2,2,06,19,00,000,41,28,00,000,40*7C
$BDGSV,1,1,03,05,00,000,28,08,00,000,36,10,00,000,34*5F
$LOGTIM,0,0.000000,0.000000,0.000000,0.000000,0.000*0A
EndT:        0
---00000015--- Acq_st=3 2019-5-22 06:50:5 
[00]  G01  f 44   1464.7 2045998.1  1.0  1.0  5  0 283822436
[01]  G11  f 33   1591.1 2045997.9  1.0  0.9  5  0 283822434
[02]  G17  f 46  -1918.7 2046002.5  1.0  1.0  5  0 283822428
[03]  G18  f 41   2666.1 2045996.5  1.0  1.0  5  0 283822432
[04]  G19  f 41  -2733.5 2046003.6  1.0  1.0  5  0 283822423
[05]  G28  f 40  -2354.8 2046003.1  1.0  1.0  5  0 283822434
[16]  B05  f 30   -340.3 4092001.0  0.8  0.0  2  0 283808971
[17]  B08 1f 36   -220.8 4092000.5  1.0  1.0  5  0 283808384
[18]  B10  7 34   -474.6 4092001.3  1.0  0.9  5  0      3224
$GNGGA,000000.000,,,,,0,00,,,M,,,,0000*2B
$GNRMC,000000.000,A,,,,,,,000000,,*26
$GPGSA,A,1,,,,,,,,,,,,,,,*1E
$BDGSA,A,1,,,,,,,,,,,,,,,*0F
$GPGSV,2,1,06,01,00,000,44,11,00,000,33,17,00,000,46,18,00,000,41*75
$GPGSV,2,2,06,19,00,000,41,28,00,000,40*7C
$BDGSV,1,1,03,05,00,000,30,08,00,000,36,10,00,000,34*56
$LOGTIM,0,0.000000,0.000000,0.000000,0.000000,0.000*0A
EndT:        0
---00000016--- Acq_st=3 2019-5-22 06:50:6 
[00]  G01  f 43   1461.7 2045998.1  1.0  1.0  5  0 283823436
[01]  G11  f 32   1588.2 2045998.0  1.0  0.8  5  0 283823434
[02]  G17  f 46  -1921.9 2046002.5  1.0  1.0  5  0 283823428
[03]  G18  f 41   2663.8 2045996.6  1.0  1.0  5  0 283823432
[04]  G19  f 42  -2736.5 2046003.5  1.0  1.0  5  0 283823423
[05]  G28  f 40  -2357.5 2046003.0  1.0  1.0  5  0 283823434
[16]  B05  f 30   -344.1 4092000.9  0.8  0.0  2  0 283809971
[17]  B08 1f 36   -223.2 4092000.6  1.0  1.0  5  0 283809384
[18]  B10  7 35   -477.2 4092001.3  1.0  1.0  5  0      4224
$GNGGA,000000.000,,,,,0,00,,,M,,,,0000*2B
$GNRMC,000000.000,A,,,,,,,000000,,*26
$GPGSA,A,1,,,,,,,,,,,,,,,*1E
$BDGSA,A,1,,,,,,,,,,,,,,,*0F
$GPGSV,2,1,06,01,00,000,43,11,00,000,32,17,00,000,46,18,00,000,41*73
$GPGSV,2,2,06,19,00,000,42,28,00,000,40*7F
$BDGSV,1,1,03,05,00,000,30,08,00,000,36,10,00,000,35*57
$LOGTIM,0,0.000000,0.000000,0.000000,0.000000,0.000*0A
EndT:        0
---00000017--- Acq_st=3 2019-5-22 06:50:7 
[00]  G01  f 43   1465.2 2045998.1  1.0  1.0  5  0 283824436
[01]  G11  f 30   1592.0 2045997.9  0.9  0.9  5  0 283824434
[02]  G17  f 46  -1919.0 2046002.5  1.0  1.0  5  0 283824428
[03]  G18  f 42   2666.8 2045996.5  1.0  1.0  5  0 283824432
[04]  G19  f 41  -2733.5 2046003.6  1.0  1.0  5  0 283824423
[05]  G28  f 40  -2354.3 2046003.0  1.0  1.0  5  0 283824434
[16]  B05  f 30   -339.9 4092000.9  0.9  0.0  2  0 283810971
[17]  B08 1f 36   -220.8 4092000.6  1.0  1.0  5  0 283810384
[18]  B10  7 35   -475.0 4092001.2  1.0  0.9  5  0      5224
$GNGGA,000000.000,,,,,0,00,,,M,,,,0000*2B
$GNRMC,000000.000,A,,,,,,,000000,,*26
$GPGSA,A,1,,,,,,,,,,,,,,,*1E
$BDGSA,A,1,,,,,,,,,,,,,,,*0F
$GPGSV,2,1,06,01,00,000,43,11,00,000,30,17,00,000,46,18,00,000,42*72
$GPGSV,2,2,06,19,00,000,41,28,00,000,40*7C
$BDGSV,1,1,03,05,00,000,30,08,00,000,36,10,00,000,35*57
$LOGTIM,0,0.000000,0.000000,0.000000,0.000000,0.000*0A
EndT:        0
---00000018--- Acq_st=3 2019-5-22 06:50:8 
[00]  G01  f 43   1457.4 2045998.1  1.0  1.0  5  0 283825436
[01]  G11  f 30   1582.8 2045998.0  0.9  0.9  5  0 283825434
[02]  G17  f 46  -1927.3 2046002.5  1.0  1.0  5  0 283825428
[03]  G18  f 41   2658.7 2045996.5  1.0  1.0  5  0 283825432
[04]  G19  f 40  -2742.3 2046003.6  1.0  1.0  5  0 283825423
[05]  G28  f 40  -2362.8 2046003.0  1.0  1.0  5  0 283825434
[16]  B05  f 29   -349.0 4092001.0  0.8  0.0  2  0 283811971
[17]  B08 1f 36   -228.2 4092000.5  1.0  1.0  5  0 283811384
[18]  B10  7 34   -482.9 4092001.3  1.0  1.0  5  0      6224
$GNGGA,000000.000,,,,,0,00,,,M,,,,0000*2B
$GNRMC,000000.000,A,,,,,,,000000,,*26
$GPGSA,A,1,,,,,,,,,,,,,,,*1E
$BDGSA,A,1,,,,,,,,,,,,,,,*0F
$GPGSV,2,1,06,01,00,000,43,11,00,000,30,17,00,000,46,18,00,000,41*71
$GPGSV,2,2,06,19,00,000,40,28,00,000,40*7D
$BDGSV,1,1,03,05,00,000,29,08,00,000,36,10,00,000,34*5E
$LOGTIM,0,0.000000,0.000000,0.000000,0.000000,0.000*0A
EndT:        0
---00000019--- Acq_st=3 2019-5-22 06:50:9 
[00]  G01  f 43   1456.2 2045998.1  1.0  1.0  5  0 283826436
[01]  G11  f 28   1581.1 2045998.0  0.9  0.9  5  0 283826434
[02]  G17  f 46  -1928.9 2046002.6  1.0  1.0  5  0 283826428
[03]  G18  f 42   2657.2 2045996.5  1.0  1.0  5  0 283826432
[04]  G19  f 41  -2743.5 2046003.5  1.0  1.0  5  0 283826423
[05]  G28  f 41  -2363.8 2046003.1  1.0  1.0  5  0 283826434
[16]  B05 1f 28   -350.3 4092001.1  0.8  0.0  2  0 283812971
[17]  B08 1f 36   -231.2 4092000.6  1.0  1.0  5  0 283812384
[18]  B10 1f 35   -484.9 4092001.2  1.0  1.0  5  0      7224
$GNGGA,000000.000,,,,,0,00,,,M,,,,0000*2B
$GNRMC,000000.000,A,,,,,,,000000,,*26
$GPGSA,A,1,,,,,,,,,,,,,,,*1E
$BDGSA,A,1,,,,,,,,,,,,,,,*0F
$GPGSV,2,1,06,01,00,000,43,11,00,000,28,17,00,000,46,18,00,000,42*7B
$GPGSV,2,2,06,19,00,000,41,28,00,000,41*7D
$BDGSV,1,1,03,05,00,000,28,08,00,000,36,10,00,000,35*5E
$LOGTIM,0,0.000000,0.000000,0.000000,0.000000,0.000*0A
EndT:        0
---00000020--- Acq_st=3 2019-5-22 06:50:10 
[00]  G01  f 44   1454.4 2045998.1  1.0  1.0  5  0 283827436
[01]  G11  f 27   1579.0 2045997.9  0.9  0.8  5  0 283827434
[02]  G17  f 45  -1931.0 2046002.5  1.0  1.0  5  0 283827428
[03]  G18  f 42   2655.9 2045996.6  1.0  1.0  5  0 283827432
[04]  G19  f 41  -2745.4 2046003.5  1.0  1.0  5  0 283827423
[05]  G28  f 42  -2365.6 2046003.1  1.0  1.0  5  0 283827434
[16]  B05 1f 30   -351.7 4092001.0  0.9  0.0  2  0 283813371
[17]  B08 1f 36   -232.3 4092000.7  1.0  1.0  5  0 283813384
[18]  B10 1f 35   -486.2 4092001.2  1.0  0.9  5  0 283813384
[19]  B29  1  7  -1468.7 4092004.5  0.1  0.0  1  0         0
[20]  B30  1  7    553.5 4091999.3 -0.0  0.0  1  0         0
$GNGGA,000000.000,,,,,0,00,,,M,,,,0000*2B
$GNRMC,000000.000,A,,,,,,,000000,,*26
$GPGSA,A,1,,,,,,,,,,,,,,,*1E
$BDGSA,A,1,,,,,,,,,,,,,,,*0F
$GPGSV,2,1,06,01,00,000,44,11,00,000,27,17,00,000,45,18,00,000,42*70
$GPGSV,2,2,06,19,00,000,41,28,00,000,42*7E
$BDGSV,1,1,03,05,00,000,30,08,00,000,36,10,00,000,35*57
$LOGTIM,0,0.000000,0.000000,0.000000,0.000000,0.000*0A
EndT:        0
---00000021--- Acq_st=7 2019-5-22 06:50:11 
[00]  G01  f 44   1455.6 2045998.1  1.0  1.0  5  0 283828436
[01]  G11  f 29   1581.1 2045998.0  0.9  0.9  5  0 283828434
[02]  G17  f 45  -1930.1 2046002.5  1.0  1.0  5  0 283828428
[03]  G18  f 42   2655.8 2045996.5  1.0  1.0  5  0 283828432
[04]  G19  f 41  -2745.5 2046003.6  1.0  1.0  5  0 283828423
[05]  G28  f 42  -2365.1 2046003.1  1.0  1.0  5  0 283828434
[16]  B05 1f 29   -352.5 4092001.0  0.8  0.0  2  0 283814371
[17]  B08 1f 36   -231.1 4092000.6  1.0  1.0  5  0 283814384
[18]  B10 1f 34   -486.3 4092001.2  1.0  0.9  5  0 283814384
[19]  B29  7 29  -1467.8 4092003.8  0.8  1.0  5  0       868
[20]  B30  7 11    566.7 4091998.5  0.0  0.0 20  0       428
$GNGGA,000000.000,,,,,0,00,,,M,,,,0000*2B
$GNRMC,000000.000,A,,,,,,,000000,,*26
$GPGSA,A,1,,,,,,,,,,,,,,,*1E
$BDGSA,A,1,,,,,,,,,,,,,,,*0F
$GPGSV,2,1,06,01,00,000,44,11,00,000,29,17,00,000,45,18,00,000,42*7E
$GPGSV,2,2,06,19,00,000,41,28,00,000,42*7E
$BDGSV,1,1,04,05,00,000,29,08,00,000,36,10,00,000,34,29,00,000,29*69
$LOGTIM,0,0.000000,0.000000,0.000000,0.000000,0.000*0A
EndT:        0
---00000022--- Acq_st=7 2019-5-22 06:50:12 
[00]  G01  f 44   1458.6 2045998.1  1.0  1.0  5  0 283829436
[01]  G11  f 27   1585.0 2045997.9  0.9  0.9  5  0 283829434
[02]  G17  f 46  -1927.9 2046002.5  1.0  1.0  5  0 283829428
[03]  G18  f 42   2658.6 2045996.6  1.0  1.0  5  0 283829432
[04]  G19  f 41  -2742.6 2046003.6  1.0  1.0  5  0 283829423
[05]  G28  f 42  -2362.0 2046003.1  1.0  1.0  5  0 283829434
[16]  B05 1f 30   -349.4 4092000.8  0.8  0.0  2  0 283815371
[17]  B08 1f 36   -229.5 4092000.5  1.0  1.0  5  0 283815384
[18]  B10 1f 34   -482.6 4092001.3  1.0  0.9  5  0 283815384
[19]  B29  7 45  -1465.5 4092003.8  1.0  1.0  5  0      1867
[20]  B30  7 45    569.4 4091998.5  0.8  1.0  5  0      1410
$GNGGA,000000.000,,,,,0,00,,,M,,,,0000*2B
$GNRMC,000000.000,A,,,,,,,000000,,*26
$GPGSA,A,1,,,,,,,,,,,,,,,*1E
$BDGSA,A,1,,,,,,,,,,,,,,,*0F
$GPGSV,2,1,06,01,00,000,44,11,00,000,27,17,00,000,46,18,00,000,42*73
$GPGSV,2,2,06,19,00,000,41,28,00,000,42*7E
$BDGSV,2,1,05,05,00,000,30,08,00,000,36,10,00,000,34,29,00,000,45*69
$BDGSV,2,2,05,30,00,000,45*5F
$LOGTIM,0,0.000000,0.000000,0.000000,0.000000,0.000*0A
EndT:        0
---00000023--- Acq_st=3 2019-5-22 06:50:13 
[00]  G01  f 44   1457.4 2045998.1  1.0  1.0  5  0 283830436
[01]  G11  f 25   1582.0 2045997.8  0.8  0.8 10  0 283830434
[02]  G17  f 45  -1929.2 2046002.5  1.0  1.0  5  0 283830428
[03]  G18  f 42   2657.5 2045996.6  1.0  1.0  5  0 283830432
[04]  G19  f 41  -2744.2 2046003.6  1.0  1.0  5  0 283830423
[05]  G28  f 41  -2363.9 2046003.1  1.0  1.0  5  0 283830434
[16]  B05 1f 31   -350.9 4092000.8  0.8  0.0  2  0 283816371
[17]  B08 1f 36   -230.4 4092000.6  1.0  1.1  5  0 283816384
[18]  B10 1f 34   -484.1 4092001.3  1.0  0.9  5  0 283816384
[19]  B29  7 45  -1466.7 4092003.8  1.0  1.0  5  0      2867
[20]  B30  7 45    568.4 4091998.5  1.0  1.0  5  0      2410
$GNGGA,000000.000,,,,,0,00,,,M,,,,0000*2B
$GNRMC,000000.000,A,,,,,,,000000,,*26
$GPGSA,A,1,,,,,,,,,,,,,,,*1E
$BDGSA,A,1,,,,,,,,,,,,,,,*0F
$GPGSV,2,1,06,01,00,000,44,11,00,000,25,17,00,000,45,18,00,000,42*72
$GPGSV,2,2,06,19,00,000,41,28,00,000,41*7D
$BDGSV,2,1,05,05,00,000,31,08,00,000,36,10,00,000,34,29,00,000,45*68
$BDGSV,2,2,05,30,00,000,45*5F
$LOGTIM,0,0.000000,0.000000,0.000000,0.000000,0.000*0A
EndT:        0
---00000024--- Acq_st=3 2019-5-22 06:50:14 
[00]  G01  f 44   1462.1 2045998.1  1.0  1.0  5  0 283831436
[01]  G11  f 27   1586.9 2045998.0  0.8  0.9 10  0 283831434
[02]  G17  f 45  -1925.0 2046002.5  1.0  1.0  5  0 283831428
[03]  G18  f 42   2661.9 2045996.6  1.0  1.0  5  0 283831432
[04]  G19  f 41  -2739.7 2046003.6  1.0  1.0  5  0 283831423
[05]  G28  f 41  -2359.0 2046003.0  1.0  1.0  5  0 283831434
[16]  B05 1f 30   -346.9 4092000.7  0.9  0.0  2  0 283817371
[17]  B08 1f 36   -226.2 4092000.6  1.0  1.0  5  0 283817384
[18]  B10 1f 34   -480.8 4092001.3  1.0  0.9  5  0 283817384
[19]  B29  7 45  -1462.7 4092003.8  1.0  1.0  5  0      3867
[20]  B30  7 44    572.2 4091998.5  1.0  1.0  5  0      3410
$GNGGA,000000.000,,,,,0,00,,,M,,,,0000*2B
$GNRMC,000000.000,A,,,,,,,000000,,*26
$GPGSA,A,1,,,,,,,,,,,,,,,*1E
$BDGSA,A,1,,,,,,,,,,,,,,,*0F
$GPGSV,2,1,06,01,00,000,44,11,00,000,27,17,00,000,45,18,00,000,42*70
$GPGSV,2,2,06,19,00,000,41,28,00,000,41*7D
$BDGSV,2,1,05,05,00,000,30,08,00,000,36,10,00,000,34,29,00,000,45*69
$BDGSV,2,2,05,30,00,000,44*5E
$LOGTIM,0,0.000000,0.000000,0.000000,0.000000,0.000*0A
EndT:        0
---00000025--- Acq_st=3 2019-5-22 06:50:15 
[00]  G01  f 44   1460.9 2045998.1  1.0  1.0  5  0 283832436
[01]  G11  f 28   1587.0 2045998.1  0.9  0.9  5  0 283832434
[02]  G17  f 46  -1926.4 2046002.5  1.0  1.0  5  0 283832428
[03]  G18  f 42   2661.0 2045996.5  1.0  1.0  5  0 283832432
[04]  G19  f 41  -2741.2 2046003.6  1.0  1.0  5  0 283832423
[05]  G28  f 41  -2360.3 2046003.0  1.0  1.0  5  0 283832434
[16]  B05 1f 29   -347.9 4092000.9  0.7  0.0  2  0 283818371
[17]  B08 1f 36   -228.1 4092000.6  1.0  1.0  5  0 283818384
[18]  B10 1f 34   -482.0 4092001.3  1.0  1.0  5  0 283818384
[19]  B29 1f 45  -1464.1 4092003.8  1.0  1.0  5  0      4867
[20]  B30 1f 44    571.2 4091998.5  1.0  1.0  5  0      4410
$GNGGA,000000.000,,,,,0,00,,,M,,,,0000*2B
$GNRMC,000000.000,A,,,,,,,000000,,*26
$GPGSA,A,1,,,,,,,,,,,,,,,*1E
$BDGSA,A,1,,,,,,,,,,,,,,,*0F
$GPGSV,2,1,06,01,00,000,44,11,00,000,28,17,00,000,46,18,00,000,42*7C
$GPGSV,2,2,06,19,00,000,41,28,00,000,41*7D
$BDGSV,2,1,05,05,00,000,29,08,00,000,36,10,00,000,34,29,00,000,45*61
$BDGSV,2,2,05,30,00,000,44*5E
$LOGTIM,0,0.000000,0.000000,0.000000,0.000000,0.000*0A
EndT:        0
---00000026--- Acq_st=3 2019-5-22 06:50:16 
[00]  G01  f 45   1456.9 2045998.1  1.0  1.0  5  0 283833436
[01]  G11  f 30   1579.2 2045998.0  0.9  0.9  5  0 283833434
[02]  G17  f 46  -1930.9 2046002.5  1.0  1.0  5  0 283833428
[03]  G18  f 42   2656.5 2045996.5  1.0  1.0  5  0 283833432
[04]  G19  f 41  -2745.9 2046003.6  1.0  1.0  5  0 283833423
[05]  G28  f 41  -2364.5 2046003.1  1.0  1.0  5  0 283833434
[16]  B05 1f 30   -352.7 4092000.8  0.8  0.0  2  0 283819371
[17]  B08 1f 36   -231.7 4092000.6  1.0  0.9  5  0 283819384
[18]  B10 1f 34   -485.4 4092001.3  1.0  1.0  5  0 283819384
[19]  B29 1f 45  -1467.8 4092003.8  1.0  1.0  5  0 283819427
[20]  B30 1f 44    567.0 4091998.5  1.0  1.0  5  0 283819430
$GNGGA,000000.000,,,,,0,00,,,M,,,,0000*2B
$GNRMC,000000.000,A,,,,,,,000000,,*26
$GPGSA,A,1,,,,,,,,,,,,,,,*1E
$BDGSA,A,1,,,,,,,,,,,,,,,*0F
$GPGSV,2,1,06,01,00,000,45,11,00,000,30,17,00,000,46,18,00,000,42*74
$GPGSV,2,2,06,19,00,000,41,28,00,000,41*7D
$BDGSV,2,1,05,05,00,000,30,08,00,000,36,10,00,000,34,29,00,000,45*69
$BDGSV,2,2,05,30,00,000,44*5E
$LOGTIM,0,0.000000,0.000000,0.000000,0.000000,0.000*0A
EndT:        0
---00000027--- Acq_st=3 2019-5-22 06:50:17 
[00]  G01  f 46   1458.4 2045998.1  1.0  1.0  5  0 283834436
[01]  G11  f 30   1582.0 2045997.9  1.0  0.8  5  0 283834434
[02]  G17  f 46  -1930.1 2046002.5  1.0  1.0  5  0 283834428
[03]  G18  f 42   2657.8 2045996.6  1.0  1.0  5  0 283834432
[04]  G19  f 40  -2745.1 2046003.5  1.0  1.0  5  0 283834423
[05]  G28  f 41  -2363.7 2046003.1  1.0  1.0  5  0 283834434
[16]  B05 1f 30   -352.0 4092000.9  0.9  0.0  2  0 283820371
[17]  B08 1f 36   -231.1 4092000.6  1.0  1.0  5  0 283820384
[18]  B10 1f 34   -484.8 4092001.3  1.0  0.9  5  0 283820384
[19]  B29 1f 45  -1467.3 4092003.8  1.0  1.0  5  0 283820427
[20]  B30 1f 44    567.3 4091998.5  1.0  1.0  5  0 283820430
$GNGGA,000000.000,,,,,0,00,,,M,,,,0000*2B
$GNRMC,000000.000,A,,,,,,,000000,,*26
$GPGSA,A,1,,,,,,,,,,,,,,,*1E
$BDGSA,A,1,,,,,,,,,,,,,,,*0F
$GPGSV,2,1,06,01,00,000,46,11,00,000,30,17,00,000,46,18,00,000,42*77
$GPGSV,2,2,06,19,00,000,40,28,00,000,41*7C
$BDGSV,2,1,05,05,00,000,30,08,00,000,36,10,00,000,34,29,00,000,45*69
$BDGSV,2,2,05,30,00,000,44*5E
$LOGTIM,0,0.000000,0.000000,0.000000,0.000000,0.000*0A
EndT:        0
---00000028--- Acq_st=3 2019-5-22 06:50:18 
[00]  G01  f 45   1456.9 2045998.1  1.0  1.0  5  0 283835436
[01]  G11  f 31   1579.7 2045997.8  1.0  0.9  5  0 283835434
[02]  G17  f 46  -1931.8 2046002.5  1.0  1.0  5  0 283835428
[03]  G18  f 41   2656.2 2045996.6  1.0  1.0  5  0 283835432
[04]  G19  f 41  -2746.3 2046003.6  1.0  1.0  5  0 283835423
[05]  G28  f 41  -2364.9 2046003.1  1.0  1.0  5  0 283835434
[16]  B05 1f 28   -354.0 4092000.9  0.8  0.0  2  0 283821371
[17]  B08 1f 36   -233.1 4092000.7  1.0  1.0  5  0 283821384
[18]  B10 1f 34   -486.9 4092001.2  1.0  0.9  5  0 283821384
[19]  B29 1f 45  -1468.9 4092003.8  1.0  1.0  5  0 283821427
[20]  B30 1f 44    565.8 4091998.5  1.0  1.0  5  0 283821430
$GNGGA,000000.000,,,,,0,00,,,M,,,,0000*2B
$GNRMC,000000.000,A,,,,,,,000000,,*26
$GPGSA,A,1,,,,,,,,,,,,,,,*1E
$BDGSA,A,1,,,,,,,,,,,,,,,*0F
$GPGSV,2,1,06,01,00,000,45,11,00,000,31,17,00,000,46,18,00,000,41*76
$GPGSV,2,2,06,19,00,000,41,28,00,000,41*7D
$BDGSV,2,1,05,05,00,000,28,08,00,000,36,10,00,000,34,29,00,000,45*60
$BDGSV,2,2,05,30,00,000,44*5E
$LOGTIM,0,0.000000,0.000000,0.000000,0.000000,0.000*0A
EndT:        0
---00000029--- Acq_st=3 2019-5-22 06:50:19 
[00]  G01  f 46   1455.1 2045998.1  1.0  1.0  5  0 283836436
[01]  G11  f 33   1578.1 2045997.9  1.0  0.9  5  0 283836434
[02]  G17  f 46  -1933.9 2046002.5  1.0  1.0  5  0 283836428
[03]  G18  f 42   2654.0 2045996.6  1.0  1.0  5  0 283836432
[04]  G19  f 41  -2749.2 2046003.6  1.0  1.0  5  0 283836423
[05]  G28  f 41  -2367.3 2046003.1  1.0  1.0  5  0 283836434
[16]  B05 1f 28   -355.8 4092001.1  0.8  0.0  2  0 283822371
[17]  B08 1f 36   -235.5 4092000.5  1.0  1.0  5  0 283822384
[18]  B10 1f 35   -488.8 4092001.2  1.0  1.0  5  0 283822384
[19]  B29 1f 45  -1470.8 4092003.9  1.0  1.0  5  0 283822427
[20]  B30 1f 44    563.7 4091998.5  1.0  1.0  5  0 283822430
$GNGGA,000000.000,,,,,0,00,,,M,,,,0000*2B
$GNRMC,000000.000,A,,,,,,,000000,,*26
$GPGSA,A,1,,,,,,,,,,,,,,,*1E
$BDGSA,A,1,,,,,,,,,,,,,,,*0F
$GPGSV,2,1,06,01,00,000,46,11,00,000,33,17,00,000,46,18,00,000,42*74
$GPGSV,2,2,06,19,00,000,41,28,00,000,41*7D
$BDGSV,2,1,05,05,00,000,28,08,00,000,36,10,00,000,35,29,00,000,45*61
$BDGSV,2,2,05,30,00,000,44*5E
$LOGTIM,0,0.000000,0.000000,0.000000,0.000000,0.000*0A
EndT:        0
---00000030--- Acq_st=3 2019-5-22 06:50:20 
[00]  G01  f 46   1454.3 2045998.1  1.0  1.0  5  0 283837436
[01]  G11  f 33   1577.1 2045998.0  1.0  1.0  5  0 283837434
[02]  G17  f 46  -1935.2 2046002.5  1.0  1.0  5  0 283837428
[03]  G18  f 41   2652.9 2045996.5  1.0  1.0  5  0 283837432
[04]  G19  f 40  -2750.0 2046003.6  1.0  1.0  5  0 283837423
[05]  G28  f 41  -2368.4 2046003.2  1.0  1.0  5  0 283837434
[16]  B05 1f 28   -357.9 4092000.9  0.8  0.0  2  0 283823371
[17]  B08 1f 36   -235.9 4092000.5  1.0  1.0  5  0 283823384
[18]  B10 1f 34   -489.3 4092001.3  1.0  1.0  5  0 283823384
[19]  B29 1f 45  -1472.0 4092003.8  1.0  1.0  5  0 283823427
[20]  B30 1f 44    562.6 4091998.5  1.0  1.0  5  0 283823430
$GNGGA,000000.000,,,,,0,00,,,M,,,,0000*2B
$GNRMC,000000.000,A,,,,,,,000000,,*26
$GPGSA,A,1,,,,,,,,,,,,,,,*1E
$BDGSA,A,1,,,,,,,,,,,,,,,*0F
$GPGSV,2,1,06,01,00,000,46,11,00,000,33,17,00,000,46,18,00,000,41*77
$GPGSV,2,2,06,19,00,000,40,28,00,000,41*7C
$BDGSV,2,1,05,05,00,000,28,08,00,000,36,10,00,000,34,29,00,000,45*60
$BDGSV,2,2,05,30,00,000,44*5E
$LOGTIM,0,0.000000,0.000000,0.000000,0.000000,0.000*0A
EndT:        0
---00000031--- Acq_st=3 2019-5-22 06:50:21 
[00]  G01  f 46   1452.3 2045998.1  1.0  1.0  5  0 283838436
[01]  G11  f 35   1575.9 2045997.9  1.0  1.0  5  0 283838434
[02]  G17  f 46  -1937.5 2046002.5  1.0  1.0  5  0 283838428
[03]  G18  f 41   2650.9 2045996.6  1.0  1.0  5  0 283838432
[04]  G19  f 41  -2752.2 2046003.6  1.0  1.0  5  0 283838423
[05]  G28  f 40  -2370.3 2046003.1  1.0  1.0  5  0 283838434
[16]  B05 1f 28   -359.2 4092000.8  0.8  0.0  2  0 283824371
[17]  B08 1f 36   -237.6 4092000.6  1.0  1.0  5  0 283824384
[18]  B10 1f 34   -491.8 4092001.3  1.0  1.0  5  0 283824384
[19]  B29 1f 45  -1474.4 4092003.8  1.0  1.0  5  0 283824427
[20]  B30 1f 44    560.5 4091998.5  1.0  1.0  5  0 283824430
$GNGGA,000000.000,,,,,0,00,,,M,,,,0000*2B
$GNRMC,000000.000,A,,,,,,,000000,,*26
$GPGSA,A,1,,,,,,,,,,,,,,,*1E
$BDGSA,A,1,,,,,,,,,,,,,,,*0F
$GPGSV,2,1,06,01,00,000,46,11,00,000,35,17,00,000,46,18,00,000,41*71
$GPGSV,2,2,06,19,00,000,41,28,00,000,40*7C
$BDGSV,2,1,05,05,00,000,28,08,00,000,36,10,00,000,34,29,00,000,45*60
$BDGSV,2,2,05,30,00,000,44*5E
$LOGTIM,0,0.000000,0.000000,0.000000,0.000000,0.000*0A
EndT:        0
---00000032--- Acq_st=3 2019-5-22 06:50:22 
[00]  G01  f 46   1450.6 2045998.1  1.0  1.0  5  0 283839436
[01]  G11  f 35   1572.8 2045998.0  1.0  1.0  5  0 283839434
[02]  G17  f 46  -1939.5 2046002.5  1.0  1.0  5  0 283839428
[03]  G18  f 41   2649.1 2045996.6  1.0  1.0  5  0 283839432
[04]  G19  f 41  -2754.1 2046003.6  1.0  1.0  5  0 283839423
[05]  G28  f 39  -2372.1 2046003.1  1.0  0.9  5  0 283839434
[16]  B05 1f 26   -361.1 4092001.0  0.8  0.0  2  0 283825371
[17]  B08 1f 36   -240.1 4092000.5  1.0  1.0  5  0 283825384
[18]  B10 1f 34   -494.2 4092001.3  1.0  1.0  5  0 283825384
[19]  B29 1f 45  -1476.3 4092003.9  1.0  1.0  5  0 283825427
[20]  B30 1f 44    558.7 4091998.6  1.0  1.0  5  0 283825430
$GNGGA,000000.000,,,,,0,00,,,M,,,,0000*2B
$GNRMC,000000.000,A,,,,,,,000000,,*26
$GPGSA,A,1,,,,,,,,,,,,,,,*1E
$BDGSA,A,1,,,,,,,,,,,,,,,*0F
$GPGSV,2,1,06,01,00,000,46,11,00,000,35,17,00,000,45,18,00,000,41*72
$GPGSV,2,2,06,19,00,000,41,28,00,000,39*72
$BDGSV,2,1,05,05,00,000,26,08,00,000,36,10,00,000,34,29,00,000,45*6E
$BDGSV,2,2,05,30,00,000,44*5E
$LOGTIM,0,0.000000,0.000000,0.000000,0.000000,0.000*0A
EndT:        0
---00000033--- Acq_st=3 2019-5-22 06:50:23 
[00]  G01  f 46   1458.1 2045998.1  1.0  1.0  5  0 283840436
[01]  G11  f 37   1579.4 2045997.9  1.0  1.0  5  0 283840434
[02]  G17  f 46  -1932.8 2046002.5  1.0  1.0  5  0 283840428
[03]  G18  f 41   2655.7 2045996.5  1.0  1.0  5  0 283840432
[04]  G19  f 41  -2747.9 2046003.6  1.0  1.0  5  0 283840423
[05]  G28  f 40  -2364.8 2046003.1  1.0  1.0  5  0 283840434
[16]  B05 1f 29   -355.5 4092001.0  0.8  0.0  2  0 283826371
[17]  B08 1f 36   -233.8 4092000.6  1.0  1.0  5  0 283826384
[18]  B10 1f 34   -488.4 4092001.3  1.0  0.9  5  0 283826384
[19]  B29 1f 45  -1469.8 4092003.8  1.0  1.0  5  0 283826427
[20]  B30 1f 44    564.7 4091998.5  1.0  1.0  5  0 283826430
$GNGGA,000000.000,,,,,0,00,,,M,,,,0000*2B
$GNRMC,000000.000,A,,,,,,,000000,,*26
$GPGSA,A,1,,,,,,,,,,,,,,,*1E
$BDGSA,A,1,,,,,,,,,,,,,,,*0F
$GPGSV,2,1,06,01,00,000,46,11,00,000,37,17,00,000,46,18,00,000,41*73
$GPGSV,2,2,06,19,00,000,41,28,00,000,40*7C
$BDGSV,2,1,05,05,00,000,29,08,00,000,36,10,00,000,34,29,00,000,45*61
$BDGSV,2,2,05,30,00,000,44*5E
$LOGTIM,0,0.000000,0.000000,0.000000,0.000000,0.000*0A
EndT:        0
---00000034--- Acq_st=3 2019-5-22 06:50:24 
[00]  G01  f 47   1460.8 2045998.1  1.0  1.0  5  0 283841436
[01]  G11  f 37   1582.9 2045997.9  1.0  1.0  5  0 283841434
[02]  G17  f 45  -1930.2 2046002.5  1.0  1.0  5  0 283841428
[03]  G18  f 41   2658.9 2045996.5  1.0  1.0  5  0 283841432
[04]  G19  f 40  -2745.3 2046003.6  1.0  1.0  5  0 283841423
[05]  G28  f 39  -2361.8 2046003.1  1.0  1.0  5  0 283841434
[16]  B05 1f 28   -352.7 4092001.1  0.8  0.0  2  0 283827371
[17]  B08 1f 36   -231.7 4092000.6  1.0  1.0  5  0 283827384
[18]  B10 1f 34   -484.5 4092001.3  1.0  0.9  5  0 283827384
[19]  B29 1f 45  -1466.6 4092003.8  1.0  1.0  5  0 283827427
[20]  B30 1f 44    567.5 4091998.5  1.0  1.0  5  0 283827430
$GNGGA,000000.000,,,,,0,00,,,M,,,,0000*2B
$GNRMC,000000.000,A,,,,,,,000000,,*26
$GPGSA,A,1,,,,,,,,,,,,,,,*1E
$BDGSA,A,1,,,,,,,,,,,,,,,*0F
$GPGSV,2,1,06,01,00,000,47,11,00,000,37,17,00,000,45,18,00,000,41*71
$GPGSV,2,2,06,19,00,000,40,28,00,000,39*73
$BDGSV,2,1,05,05,00,000,28,08,00,000,36,10,00,000,34,29,00,000,45*60
$BDGSV,2,2,05,30,00,000,44*5E
$LOGTIM,0,0.000000,0.000000,0.000000,0.000000,0.000*0A
EndT:        0
---00000035--- Acq_st=3 2019-5-22 06:50:25 
[00]  G01  f 47   1467.3 2045998.1  1.0  1.0  5  0 283842436
[01]  G11  f 37   1589.4 2045997.9  1.0  1.0  5  0 283842434
[02]  G17  f 45  -1924.3 2046002.5  1.0  1.0  5  0 283842428
[03]  G18  f 41   2665.0 2045996.5  1.0  1.0  5  0 283842432
[04]  G19  f 40  -2739.0 2046003.5  1.0  1.0  5  0 283842423
[05]  G28  f 39  -2355.9 2046003.0  1.0  1.0  5  0 283842434
[16]  B05 1f 27   -346.7 4092001.0  0.8  0.0  2  0 283828371
[17]  B08 1f 36   -225.2 4092000.6  1.0  1.0  5  0 283828384
[18]  B10 1f 34   -479.2 4092001.3  1.0  0.9  5  0 283828384
[19]  B29 1f 45  -1460.9 4092003.8  1.0  1.0  5  0 283828427
[20]  B30 1f 44    573.6 4091998.5  1.0  1.0  5  0 283828430
$GNGGA,000000.000,,,,,0,00,,,M,,,,0000*2B
$GNRMC,000000.000,A,,,,,,,000000,,*26
$GPGSA,A,1,,,,,,,,,,,,,,,*1E
$BDGSA,A,1,,,,,,,,,,,,,,,*0F
$GPGSV,2,1,06,01,00,000,47,11,00,000,37,17,00,000,45,18,00,000,41*71
$GPGSV,2,2,06,19,00,000,40,28,00,000,39*73
$BDGSV,2,1,05,05,00,000,27,08,00,000,36,10,00,000,34,29,00,000,45*6F
$BDGSV,2,2,05,30,00,000,44*5E
$LOGTIM,0,0.000000,0.000000,0.000000,0.000000,0.000*0A
EndT:        0
---00000036--- Acq_st=3 2019-5-22 06:50:26 
[00]  G01  f 47   1467.4 2045998.1  1.0  1.0  5  0 283843436
[01]  G11  f 38   1589.0 2045997.9  1.0  1.0  5  0 283843434
[02]  G17  f 45  -1924.6 2046002.5  1.0  1.0  5  0 283843428
[03]  G18  f 41   2664.8 2045996.5  1.0  1.0  5  0 283843432
[04]  G19  f 41  -2739.7 2046003.6  1.0  1.0  5  0 283843423
[05]  G28  f 39  -2355.8 2046003.0  1.0  1.0  5  0 283843434
[16]  B05 1f 26   -347.2 4092000.9  0.8  0.0  2  0 283829371
[17]  B08 1f 36   -225.5 4092000.6  1.0  1.0  5  0 283829384
[18]  B10 1f 34   -478.0 4092001.3  1.0  1.0  5  0 283829384
[19]  B29 1f 45  -1461.1 4092003.8  1.0  1.0  5  0 283829427
[20]  B30 1f 44    573.3 4091998.5  1.0  1.0  5  0 283829430
$GNGGA,000000.000,,,,,0,00,,,M,,,,0000*2B
$GNRMC,000000.000,A,,,,,,,000000,,*26
$GPGSA,A,1,,,,,,,,,,,,,,,*1E
$BDGSA,A,1,,,,,,,,,,,,,,,*0F
$GPGSV,2,1,06,01,00,000,47,11,00,000,38,17,00,000,45,18,00,000,41*7E
$GPGSV,2,2,06,19,00,000,41,28,00,000,39*72
$BDGSV,2,1,05,05,00,000,26,08,00,000,36,10,00,000,34,29,00,000,45*6E
$BDGSV,2,2,05,30,00,000,44*5E
$LOGTIM,0,0.000000,0.000000,0.000000,0.000000,0.000*0A
EndT:        0
---00000037--- Acq_st=3 2019-5-22 06:50:27 
[00]  G01  f 47   1466.9 2045998.1  1.0  1.0  5  0 283844436
[01]  G11  f 38   1588.2 2045998.0  1.0  1.0  5  0 283844434
[02]  G17  f 45  -1925.8 2046002.5  1.0  1.0  5  0 283844428
[03]  G18  f 41   2663.7 2045996.5  1.0  1.0  5  0 283844432
[04]  G19  f 41  -2740.7 2046003.6  1.0  1.0  5  0 283844423
[05]  G28  f 38  -2356.7 2046003.1  1.0  1.0  5  0 283844434
[16]  B05 1f 29   -348.4 4092000.8  0.9  0.0  2  0 283830371
[17]  B08 1f 36   -226.7 4092000.6  1.0  1.0  5  0 283830384
[18]  B10 1f 34   -479.8 4092001.2  1.0  1.0  5  0 283830384
[19]  B29 1f 45  -1462.2 4092003.8  1.0  1.0  5  0 283830427
[20]  B30 1f 44    572.0 4091998.5  1.0  1.0  5  0 283830430
$GNGGA,000000.000,,,,,0,00,,,M,,,,0000*2B
$GNRMC,000000.000,A,,,,,,,000000,,*26
$GPGSA,A,1,,,,,,,,,,,,,,,*1E
$BDGSA,A,1,,,,,,,,,,,,,,,*0F
$GPGSV,2,1,06,01,00,000,47,11,00,000,38,17,00,000,45,18,00,000,41*7E
$GPGSV,2,2,06,19,00,000,41,28,00,000,38*73
$BDGSV,2,1,05,05,00,000,29,08,00,000,36,10,00,000,34,29,00,000,45*61
$BDGSV,2,2,05,30,00,000,44*5E
$LOGTIM,0,0.000000,0.000000,0.000000,0.000000,0.000*0A
EndT:        0
---00000038--- Acq_st=3 2019-5-22 06:50:28 
[00]  G01  f 47   1464.2 2045998.1  1.0  1.0  5  0 283845436
[01]  G11  f 39   1585.3 2045997.9  1.0  1.0  5  0 283845434
[02]  G17  f 45  -1928.8 2046002.5  1.0  1.0  5  0 283845428
[03]  G18  f 41   2661.0 2045996.6  1.0  1.0  5  0 283845432
[04]  G19  f 41  -2743.6 2046003.6  1.0  1.0  5  0 283845423
[05]  G28  f 37  -2359.9 2046003.1  1.0  0.9  5  0 283845434
[16]  B05 1f 28   -350.6 4092000.7  0.9  0.0  2  0 283831371
[17]  B08 1f 36   -229.2 4092000.5  1.0  1.0  5  0 283831384
[18]  B10 1f 34   -482.4 4092001.2  1.0  0.9  5  0 283831384
[19]  B29 1f 45  -1464.6 4092003.8  1.0  1.0  5  0 283831427
[20]  B30 1f 44    569.8 4091998.5  1.0  1.0  5  0 283831430
$GNGGA,000000.000,,,,,0,00,,,M,,,,0000*2B
$GNRMC,000000.000,A,,,,,,,000000,,*26
$GPGSA,A,1,,,,,,,,,,,,,,,*1E
$BDGSA,A,1,,,,,,,,,,,,,,,*0F
$GPGSV,2,1,06,01,00,000,47,11,00,000,39,17,00,000,45,18,00,000,41*7F
$GPGSV,2,2,06,19,00,000,41,28,00,000,37*7C
$BDGSV,2,1,05,05,00,000,28,08,00,000,36,10,00,000,34,29,00,000,45*60
$BDGSV,2,2,05,30,00,000,44*5E
$LOGTIM,0,0.000000,0.000000,0.000000,0.000000,0.000*0A
EndT:        0
---00000039--- Acq_st=3 2019-5-22 06:50:29 
[00]  G01  f 47   1458.3 2045998.1  1.0  1.0  5  0 283846436
[01]  G11  f 39   1579.5 2045997.9  1.0  1.0  5  0 283846434
[02]  G17  f 45  -1934.9 2046002.5  1.0  1.0  5  0 283846428
[03]  G18  f 41   2655.3 2045996.5  1.0  1.0  5  0 283846432
[04]  G19  f 41  -2749.1 2046003.6  1.0  1.0  5  0 283846423
[05]  G28  f 38  -2365.9 2046003.1  1.0  1.0  5  0 283846434
[16]  B05 1f 27   -357.3 4092000.8  0.8  0.0  2  0 283832371
[17]  B08 1f 37   -235.3 4092000.6  1.0  1.0  5  0 283832384
[18]  B10 1f 34   -489.2 4092001.3  1.0  0.9  5  0 283832384
[19]  B29 1f 45  -1470.9 4092003.8  1.0  1.0  5  0 283832427
[20]  B30 1f 44    563.2 4091998.5  1.0  1.0  5  0 283832430
$GNGGA,000000.000,,,,,0,00,,,M,,,,0000*2B
$GNRMC,000000.000,A,,,,,,,000000,,*26
$GPGSA,A,1,,,,,,,,,,,,,,,*1E
$BDGSA,A,1,,,,,,,,,,,,,,,*0F
$GPGSV,2,1,06,01,00,000,47,11,00,000,39,17,00,000,45,18,00,000,41*7F
$GPGSV,2,2,06,19,00,000,41,28,00,000,38*73
$BDGSV,2,1,05,05,00,000,27,08,00,000,37,10,00,000,34,29,00,000,45*6E
$BDGSV,2,2,05,30,00,000,44*5E
$LOGTIM,0,0.000000,0.000000,0.000000,0.000000,0.000*0A
EndT:        0
---00000040--- Acq_st=7 2019-5-22 06:50:30 
[00]  G01  f 47   1456.5 2045998.1  1.0  1.0  5  0 283847436
[01]  G11  f 39   1577.2 2045997.9  1.0  1.0  5  0 283847434
[02]  G17  f 45  -1937.3 2046002.5  1.0  1.0  5  0 283847428
[03]  G18  f 41   2652.8 2045996.5  1.0  1.0  5  0 283847432
[04]  G19  f 40  -2752.1 2046003.6  1.0  1.0  5  0 283847423
[05]  G28  f 38  -2368.0 2046003.1  1.0  1.0  5  0 283847434
[16]  B05 1f 27   -359.7 4092000.9  0.9  0.0  2  0 283833371
[17]  B08 1f 36   -237.9 4092000.5  1.0  0.9  5  0 283833384
[18]  B10 1f 34   -490.8 4092001.2  1.0  1.0  5  0 283833384
[19]  B29 1f 45  -1473.3 4092003.9  1.0  1.0  5  0 283833427
[20]  B30 1f 44    560.9 4091998.5  1.0  1.0  5  0 283833430
lsq: nits= 4
$GNGGA,065030.505,3112.7455,N,12136.4267,E,1,06,5.4,46.4,M,,,,0000*22
$GNRMC,065030.505,A,3112.7455,N,12136.4267,E,0.11,0.00,220519,,*12
$GPGSA,A,3,01,11,17,18,19,28,,,,,,,5.9,5.4,2.4*35
$BDGSA,A,3,,,,,,,,,,,,,5.9,5.4,2.4*28
$GPGSV,2,1,06,01,00,000,47,11,00,000,39,17,00,000,45,18,00,000,41*7F
$GPGSV,2,2,06,19,00,000,40,28,00,000,38*72
$BDGSV,2,1,05,05,00,000,27,08,00,000,36,10,00,000,34,29,00,000,45*6F
$BDGSV,2,2,05,30,00,000,44*5E
$LOGTIM,1,9447881.504461,0.000000,0.000000,0.000000,-63.952*10
EndT:        1
---00000041--- Acq_st=3 2019-5-22 06:50:31 
[00]  G01  f 47   1459.0 2045998.1  1.0  1.0  5  0 283848436
[01]  G11  f 38   1579.4 2045998.0  1.0  1.1  5  0 283848434
[02]  G17  f 45  -1935.2 2046002.5  1.0  1.0  5  0 283848428
[03]  G18  f 41   2655.5 2045996.5  1.0  1.0  5  0 283848431
[04]  G19  f 41  -2750.0 2046003.6  1.0  1.0  5  0 283848423
[05]  G28  f 37  -2365.8 2046003.1  1.0  1.0  5  0 283848434
[16]  B05 1f 28   -358.6 4092001.0  0.8  0.0  2  0 283834371
[17]  B08 1f 36   -235.7 4092000.6  1.0  0.9  5  0 283834384
[18]  B10 1f 34   -488.9 4092001.2  1.0  0.9  5  0 283834384
[19]  B29 1f 44  -1471.2 4092003.9  1.0  1.0  5  0 283834427
[20]  B30 1f 44    563.2 4091998.5  1.0  1.0  5  0 283834430
lsq: nits= 2
$GNGGA,065032.000,3112.7477,N,12136.4244,E,1,06,5.4,52.7,M,,,,0000*27
$GNRMC,065032.000,A,3112.7477,N,12136.4244,E,1.39,0.00,220519,,*1A
$GPGSA,A,3,01,11,17,18,19,28,,,,,,,5.9,5.4,2.4*35
$BDGSA,A,3,,,,,,,,,,,,,5.9,5.4,2.4*28
$GPGSV,2,1,06,01,00,000,47,11,00,000,38,17,00,000,45,18,00,000,41*7E
$GPGSV,2,2,06,19,00,000,41,28,00,000,37*7C
$BDGSV,2,1,05,05,00,000,28,08,00,000,36,10,00,000,34,29,00,000,44*61
$BDGSV,2,2,05,30,00,000,44*5E
$LOGTIM,1,-91.550117,0.000000,0.000000,0.000000,-63.555*04
EndT:        2
---00000042--- Acq_st=3 2019-5-22 06:50:32 
[00]  G01  f 47   1457.1 2045998.1  1.0  1.0  5  0 283849931
[01]  G11  f 39   1578.0 2045998.0  1.0  1.0  5  0 283849929
[02]  G17  f 45  -1937.4 2046002.5  1.0  1.0  5  0 283849922
[03]  G18  f 41   2653.4 2045996.5  1.0  1.0  5  0 283849926
[04]  G19  f 41  -2752.1 2046003.6  1.0  1.0  5  0 283849918
[05]  G28  f 37  -2367.5 2046003.1  1.0  1.0  5  0 283849928
[16]  B05 1f 28   -359.9 4092000.9  0.8  0.0  2  0 283835866
[17]  B08 1f 36   -236.9 4092000.7  1.0  1.0  5  0 283835879
[18]  B10 1f 34   -491.3 4092001.2  1.0  1.0  5  0 283835879
[19]  B29 1f 44  -1473.0 4092003.9  1.0  1.0  5  0 283835922
[20]  B30 1f 44    561.2 4091998.5  1.0  1.0  5  0 283835925
lsq: nits= 2
$GNGGA,065033.000,3112.7488,N,12136.4239,E,1,06,5.4,54.4,M,,,,0000*29
$GNRMC,065033.000,A,3112.7488,N,12136.4239,E,1.05,0.00,220519,,*1E
$GPGSA,A,3,01,11,17,18,19,28,,,,,,,5.9,5.4,2.4*35
$BDGSA,A,3,,,,,,,,,,,,,5.9,5.4,2.4*28
$GPGSV,2,1,06,01,62,033,47,11,49,038,39,17,29,293,45,18,35,041,41*7D
$GPGSV,2,2,06,19,10,278,41,28,55,326,37*77
$BDGSV,2,1,06,05,14,254,28,08,71,270,36,10,75,291,34,29,42,289,44*6A
$BDGSV,2,2,06,30,00,000,44,13,10,234,00*6B
$LOGTIM,1,-153.158026,0.000000,0.000000,0.000000,-63.358*3F
EndT:        2
---00000043--- Acq_st=3 2019-5-22 06:50:33 
[00]  G01  f 46   1459.8 2045998.1  1.0  1.0  5  0 283850931
[01]  G11  f 38   1580.3 2045998.0  1.0  1.0  5  0 283850929
[02]  G17  f 45  -1935.1 2046002.5  1.0  1.0  5  0 283850922
[03]  G18  f 42   2655.8 2045996.5  1.0  1.0  5  0 283850926
[04]  G19  f 41  -2749.7 2046003.6  1.0  1.0  5  0 283850918
[05]  G28  f 38  -2365.7 2046003.0  1.0  1.0  5  0 283850928
[16]  B05 1f 29   -357.4 4092000.9  0.9  0.0  2  0 283836866
[17]  B08 1f 36   -235.1 4092000.6  1.0  1.0  5  0 283836879
[18]  B10 1f 35   -488.4 4092001.2  1.0  1.0  5  0 283836879
[19]  B29 1f 44  -1470.4 4092003.9  1.0  1.0  5  0 283836922
[20]  B30 1f 45    563.6 4091998.5  1.0  1.0  5  0 283836925
lsq: nits= 2
$GNGGA,065034.000,3112.7486,N,12136.4231,E,1,06,5.4,57.0,M,,,,0000*2F
$GNRMC,065034.000,A,3112.7486,N,12136.4231,E,0.96,0.00,220519,,*14
$GPGSA,A,3,01,11,17,18,19,28,,,,,,,5.9,5.4,2.4*35
$BDGSA,A,3,,,,,,,,,,,,,5.9,5.4,2.4*28
$GPGSV,2,1,06,01,62,033,46,11,49,038,38,17,29,293,45,18,35,041,42*7E
$GPGSV,2,2,06,19,10,278,41,28,55,326,38*78
$BDGSV,2,1,06,05,14,254,29,08,71,270,37,10,75,291,35,29,42,289,44*6B
$BDGSV,2,2,06,30,00,000,45,13,10,234,00*6A
$LOGTIM,1,-215.244764,0.000000,0.000000,0.000000,-63.325*3B
EndT:        2
---00000044--- Acq_st=3 2019-5-22 06:50:34 
[00]  G01  f 46   1460.3 2045998.1  1.0  1.0  5  0 283851931
[01]  G11  f 39   1580.0 2045997.9  1.0  1.0  5  0 283851929
[02]  G17  f 45  -1935.2 2046002.5  1.0  1.0  5  0 283851922
[03]  G18  f 42   2655.7 2045996.5  1.0  1.0  5  0 283851926
[04]  G19  f 41  -2749.9 2046003.5  1.0  0.9  5  0 283851918
[05]  G28  f 38  -2365.1 2046003.1  1.0  1.0  5  0 283851928
[16]  B05 1f 28   -357.5 4092001.0  0.9  0.0  2  0 283837866
[17]  B08 1f 36   -234.9 4092000.5  1.0  1.0  5  0 283837879
[18]  B10 1f 34   -488.8 4092001.3  1.0  0.9  5  0 283837879
[19]  B29 1f 44  -1470.4 4092003.8  1.0  1.0  5  0 283837922
[20]  B30 1f 44    563.3 4091998.5  1.0  1.0  5  0 283837925
lsq: nits= 2
$GNGGA,065035.000,3112.7484,N,12136.4227,E,1,06,5.4,60.0,M,,,,0000*2F
$GNRMC,065035.000,A,3112.7484,N,12136.4227,E,0.78,0.00,220519,,*10
$GPGSA,A,3,01,11,17,18,19,28,,,,,,,5.9,5.4,2.4*35
$BDGSA,A,3,,,,,,,,,,,,,5.9,5.4,2.4*28
$GPGSV,2,1,06,01,62,033,46,11,49,038,39,17,29,293,45,18,35,041,42*7F
$GPGSV,2,2,06,19,10,278,41,28,55,326,38*78
$BDGSV,2,1,06,05,14,254,28,08,71,270,36,10,75,291,34,29,42,289,44*6A
$BDGSV,2,2,06,30,00,000,44,13,10,234,00*6B
$LOGTIM,1,-277.498115,0.000000,0.000000,0.000000,-63.170*3A
EndT:        2
---00000045--- Acq_st=3 2019-5-22 06:50:35 
[00]  G01  f 46   1461.0 2045998.1  1.0  1.0  5  0 283852931
[01]  G11  f 39   1580.9 2045998.0  1.0  1.0  5  0 283852929
[02]  G17  f 45  -1934.7 2046002.5  1.0  1.0  5  0 283852922
[03]  G18  f 42   2656.8 2045996.6  1.0  1.0  5  0 283852926
[04]  G19  f 41  -2749.1 2046003.6  1.0  1.0  5  0 283852918
[05]  G28  f 38  -2364.3 2046003.0  1.0  1.0  5  0 283852928
[16]  B05 1f 28   -357.1 4092001.0  0.9  0.0  2  0 283838866
[17]  B08 1f 37   -233.8 4092000.6  1.0  1.0  5  0 283838879
[18]  B10 1f 34   -487.5 4092001.3  1.0  1.0  5  0 283838879
[19]  B29 1f 44  -1470.0 4092003.9  1.0  1.0  5  0 283838922
[20]  B30 1f 45    564.1 4091998.5  1.0  1.0  5  0 283838925
lsq: nits= 2
$GNGGA,065036.000,3112.7482,N,12136.4226,E,1,06,5.4,62.1,M,,,,0000*28
$GNRMC,065036.000,A,3112.7482,N,12136.4226,E,0.73,0.00,220519,,*1F
$GPGSA,A,3,01,11,17,18,19,28,,,,,,,5.9,5.4,2.4*35
$BDGSA,A,3,,,,,,,,,,,,,5.9,5.4,2.4*28
$GPGSV,2,1,06,01,62,033,46,11,49,038,39,17,29,293,45,18,35,041,42*7F
$GPGSV,2,2,06,19,10,278,41,28,55,326,38*78
$BDGSV,2,1,06,05,14,254,28,08,71,270,37,10,75,291,34,29,42,289,44*6B
$BDGSV,2,2,06,30,00,000,45,13,10,234,00*6A
$LOGTIM,1,-340.096064,0.000000,0.000000,0.000000,-63.185*38
EndT:        3
---00000046--- Acq_st=3 2019-5-22 06:50:36 
[00]  G01  f 46   1461.4 2045998.1  1.0  1.0  5  0 283853931
[01]  G11  f 39   1581.1 2045997.9  1.0  1.0  5  0 283853929
[02]  G17  f 45  -1934.9 2046002.5  1.0  1.0  5  0 283853922
[03]  G18  f 42   2656.4 2045996.6  1.0  1.0  5  0 283853926
[04]  G19  f 41  -2749.4 2046003.6  1.0  1.0  5  0 283853918
[05]  G28  f 38  -2363.9 2046003.1  1.0  1.0  5  0 283853928
[16]  B05 1f 30   -357.9 4092000.9  0.8  0.0  2  0 283839866
[17]  B08 1f 37   -235.1 4092000.7  1.0  1.0  5  0 283839879
[18]  B10 1f 34   -488.0 4092001.3  1.0  1.0  5  0 283839879
[19]  B29 1f 44  -1470.2 4092003.8  1.0  1.0  5  0 283839922
[20]  B30 1f 44    563.5 4091998.5  1.0  1.0  5  0 283839925
lsq: nits= 2
$GNGGA,065037.000,3112.7470,N,12136.4232,E,1,06,5.4,63.4,M,,,,0000*25
$GNRMC,065037.000,A,3112.7470,N,12136.4232,E,0.23,0.00,220519,,*13
$GPGSA,A,3,01,11,17,18,19,28,,,,,,,5.9,5.4,2.4*35
$BDGSA,A,3,,,,,,,,,,,,,5.9,5.4,2.4*28
$GPGSV,2,1,06,01,62,033,46,11,49,038,39,17,29,293,45,18,35,041,42*7F
$GPGSV,2,2,06,19,10,278,41,28,55,326,38*78
$BDGSV,2,1,06,05,14,254,30,08,71,270,37,10,75,291,34,29,42,289,44*62
$BDGSV,2,2,06,30,00,000,44,13,10,234,00*6B
$LOGTIM,1,-403.713170,0.000000,0.000000,0.000000,-63.173*3F
EndT:        3
---00000047--- Acq_st=3 2019-5-22 06:50:37 
[00]  G01  f 46   1463.0 2045998.1  1.0  1.0  5  0 283854931
[01]  G11  f 39   1582.4 2045997.9  1.0  1.0  5  0 283854929
[02]  G17  f 45  -1933.4 2046002.5  1.0  1.0  5  0 283854922
[03]  G18  f 42   2658.7 2045996.6  1.0  1.0  5  0 283854926
[04]  G19  f 41  -2747.9 2046003.6  1.0  1.0  5  0 283854918
[05]  G28  f 38  -2362.6 2046003.1  1.0  0.9  5  0 283854928
[16]  B05 1f 28   -355.9 4092001.0  0.8  0.0  2  0 283840866
[17]  B08 1f 37   -232.7 4092000.6  1.0  1.0  5  0 283840879
[18]  B10 1f 34   -486.1 4092001.2  1.0  0.9  5  0 283840879
[19]  B29 1f 44  -1468.1 4092003.8  1.0  1.0  5  0 283840922
[20]  B30 1f 44    565.7 4091998.5  1.0  1.0  5  0 283840925
lsq: nits= 2
$GNGGA,065038.000,3112.7454,N,12136.4238,E,1,06,5.4,64.3,M,,,,0000*26
$GNRMC,065038.000,A,3112.7454,N,12136.4238,E,0.66,0.00,220519,,*11
$GPGSA,A,3,01,11,17,18,19,28,,,,,,,5.9,5.4,2.4*35
$BDGSA,A,3,,,,,,,,,,,,,5.9,5.4,2.4*28
$GPGSV,2,1,06,01,62,033,46,11,49,038,39,17,29,293,45,18,35,041,42*7F
$GPGSV,2,2,06,19,10,278,41,28,55,326,38*78
$BDGSV,2,1,06,05,14,254,28,08,71,270,37,10,75,291,34,29,42,289,44*6B
$BDGSV,2,2,06,30,00,000,44,13,10,234,00*6B
$LOGTIM,1,-468.257035,0.000000,0.000000,0.000000,-63.188*33
EndT:        3
---00000048--- Acq_st=3 2019-5-22 06:50:38 
[00]  G01  f 46   1465.5 2045998.1  1.0  1.0  5  0 283855931
[01]  G11  f 40   1584.5 2045998.0  1.0  1.0  5  0 283855929
[02]  G17  f 45  -1931.5 2046002.5  1.0  1.0  5  0 283855922
[03]  G18  f 42   2660.3 2045996.6  1.0  1.0  5  0 283855926
[04]  G19  f 41  -2746.0 2046003.6  1.0  1.0  5  0 283855918
[05]  G28  f 37  -2360.5 2046003.1  1.0  1.0  5  0 283855928
[16]  B05 1f 28   -355.4 4092000.8  0.7  0.0  2  0 283841866
[17]  B08 1f 37   -231.9 4092000.6  1.0  1.0  5  0 283841879
[18]  B10 1f 35   -484.8 4092001.2  1.0  1.0  5  0 283841879
[19]  B29 1f 44  -1466.6 4092003.8  1.0  1.0  5  0 283841922
[20]  B30 1f 45    567.3 4091998.5  1.0  1.0  5  0 283841925
lsq: nits= 2
$GNGGA,065039.000,3112.7431,N,12136.4247,E,1,06,5.5,64.5,M,,,,0000*2B
$GNRMC,065039.000,A,3112.7431,N,12136.4247,E,1.89,0.00,220519,,*1B
$GPGSA,A,3,01,11,17,18,19,28,,,,,,,5.9,5.5,2.4*34
$BDGSA,A,3,,,,,,,,,,,,,5.9,5.5,2.4*29
$GPGSV,2,1,06,01,62,033,46,11,49,038,40,17,29,293,45,18,35,041,42*71
$GPGSV,2,2,06,19,10,278,41,28,55,326,37*77
$BDGSV,2,1,06,05,14,254,28,08,71,270,37,10,75,291,35,29,42,289,44*6A
$BDGSV,2,2,06,30,00,000,45,13,10,234,00*6A
$LOGTIM,1,-533.441354,0.000000,0.000000,0.000000,-62.944*30
EndT:        3
---00000049--- Acq_st=3 2019-5-22 06:50:39 
[00]  G01  f 46   1471.9 2045998.1  1.0  1.0  5  0 283856931
[01]  G11  f 40   1590.6 2045997.9  1.0  1.0  5  0 283856929
[02]  G17  f 45  -1925.7 2046002.5  1.0  1.0  5  0 283856922
[03]  G18  f 42   2666.1 2045996.5  1.0  1.0  5  0 283856926
[04]  G19  f 41  -2740.1 2046003.6  1.0  1.0  5  0 283856918
[05]  G28  f 38  -2354.8 2046003.1  1.0  1.0  5  0 283856928
[16]  B05 1f 29   -348.1 4092000.7  0.9  0.0  2  0 283842866
[17]  B08 1f 37   -225.8 4092000.6  1.0  1.0  5  0 283842879
[18]  B10 1f 35   -478.8 4092001.2  1.0  1.0  5  0 283842879
[19]  B29 1f 44  -1460.7 4092003.8  1.0  1.0  5  0 283842922
[20]  B30 1f 45    573.3 4091998.5  1.0  1.0  5  0 283842925
lsq: nits= 2
$GNGGA,065040.000,3112.7405,N,12136.4261,E,1,06,5.5,65.7,M,,,,0000*25
$GNRMC,065040.000,A,3112.7405,N,12136.4261,E,2.89,281.96,220519,,*11
$GPGSA,A,3,01,11,17,18,19,28,,,,,,,5.9,5.5,2.4*34
$BDGSA,A,3,,,,,,,,,,,,,5.9,5.5,2.4*29
$GPGSV,2,1,06,01,62,033,46,11,49,038,40,17,29,293,45,18,35,041,42*71
$GPGSV,2,2,06,19,10,278,41,28,55,326,38*78
$BDGSV,2,1,06,05,14,254,29,08,71,270,37,10,75,291,35,29,42,289,44*6B
$BDGSV,2,2,06,30,00,000,45,13,10,234,00*6A
$LOGTIM,1,-597.419148,0.000000,0.000000,0.000000,-62.664*31
EndT:        3
---00000050--- Acq_st=3 2019-5-22 06:50:40 
[00]  G01  f 45   1470.8 2045998.1  1.0  1.0  5  0 283857931
[01]  G11  f 39   1589.8 2045997.9  1.0  1.0  5  0 283857929
[02]  G17  f 45  -1927.0 2046002.5  1.0  1.0  5  0 283857922
[03]  G18  f 42   2665.2 2045996.6  1.0  1.0  5  0 283857926
[04]  G19  f 42  -2741.4 2046003.6  1.0  1.0  5  0 283857918
[05]  G28  f 37  -2355.5 2046003.1  1.0  1.0  5  0 283857928
[16]  B05 1f 27   -349.6 4092001.0  0.8  0.0  2  0 283843866
[17]  B08 1f 37   -226.5 4092000.6  1.0  1.0  5  0 283843879
[18]  B10 1f 35   -480.1 4092001.2  1.0  1.0  5  0 283843879
[19]  B29 1f 44  -1461.8 4092003.8  1.0  1.0  5  0 283843922
[20]  B30 1f 45    572.0 4091998.5  1.0  1.0  5  0 283843925
lsq: nits= 2
$GNGGA,065041.000,3112.7378,N,12136.4276,E,1,06,5.5,68.1,M,,,,0000*24
$GNRMC,065041.000,A,3112.7378,N,12136.4276,E,3.44,280.74,220519,,*16
$GPGSA,A,3,01,11,17,18,19,28,,,,,,,5.9,5.5,2.4*34
$BDGSA,A,3,,,,,,,,,,,,,5.9,5.5,2.4*29
$GPGSV,2,1,06,01,62,033,45,11,49,038,39,17,29,293,45,18,35,041,42*7C
$GPGSV,2,2,06,19,10,278,42,28,55,326,37*74
$BDGSV,2,1,06,05,14,254,27,08,71,270,37,10,75,291,35,29,42,289,44*65
$BDGSV,2,2,06,30,00,000,45,13,10,234,00*6A
$LOGTIM,1,-661.031600,0.000000,0.000000,0.000000,-62.739*37
EndT:        3
---00000051--- Acq_st=3 2019-5-22 06:50:41 
[00]  G01  f 45   1472.7 2045998.1  1.0  1.0  5  0 283858931
[01]  G11  f 39   1591.5 2045997.9  1.0  1.0  5  0 283858929
[02]  G17  f 46  -1925.2 2046002.5  1.0  1.0  5  0 283858922
[03]  G18  f 42   2667.1 2045996.5  1.0  1.0  5  0 283858926
[04]  G19  f 41  -2740.2 2046003.5  1.0  1.0  5  0 283858918
[05]  G28  f 37  -2354.4 2046003.1  1.0  1.0  5  0 283858928
[16]  B05 1f 29   -348.3 4092001.0  0.8  0.0  2  0 283844866
[17]  B08 1f 37   -225.3 4092000.6  1.0  1.0  5  0 283844879
[18]  B10 1f 35   -478.5 4092001.3  1.0  1.0  5  0 283844879
[19]  B29 1f 44  -1460.4 4092003.8  1.0  1.0  5  0 283844922
[20]  B30 1f 45    573.4 4091998.5  1.0  1.0  5  0 283844925
lsq: nits= 2
$GNGGA,065042.000,3112.7356,N,12136.4287,E,1,06,5.5,69.7,M,,,,0000*22
$GNRMC,065042.000,A,3112.7356,N,12136.4287,E,3.47,279.77,220519,,*11
$GPGSA,A,3,01,11,17,18,19,28,,,,,,,6.0,5.5,2.4*3E
$BDGSA,A,3,,,,,,,,,,,,,6.0,5.5,2.4*23
$GPGSV,2,1,06,01,62,033,45,11,49,038,39,17,29,293,46,18,35,041,42*7F
$GPGSV,2,2,06,19,10,278,41,28,55,326,37*77
$BDGSV,2,1,06,05,14,254,29,08,71,270,37,10,75,291,35,29,42,289,44*6B
$BDGSV,2,2,06,30,00,000,45,13,10,235,00*6B
$LOGTIM,1,-724.408502,0.000000,0.000000,0.000000,-62.831*3F
EndT:        3
---00000052--- Acq_st=3 2019-5-22 06:50:42 
[00]  G01  f 46   1470.1 2045998.1  1.0  1.0  5  0 283859931
[01]  G11  f 39   1588.6 2045997.9  1.0  1.0  5  0 283859929
[02]  G17  f 46  -1928.6 2046002.5  1.0  1.0  5  0 283859922
[03]  G18  f 42   2663.9 2045996.5  1.0  1.0  5  0 283859926
[04]  G19  f 40  -2743.5 2046003.6  1.0  1.0  5  0 283859918
[05]  G28  f 36  -2356.7 2046003.1  1.0  1.0  5  0 283859928
[16]  B05 1f 28   -352.1 4092001.0  0.8  0.0  2  0 283845866
[17]  B08 1f 37   -228.6 4092000.6  1.0  1.0  5  0 283845879
[18]  B10 1f 35   -481.9 4092001.3  1.0  1.0  5  0 283845879
[19]  B29 1f 44  -1463.4 4092003.8  1.0  1.0  5  0 283845922
[20]  B30 1f 45    570.1 4091998.5  1.0  1.0  5  0 283845925
lsq: nits= 2
$GNGGA,065043.000,3112.7339,N,12136.4296,E,1,06,5.5,71.0,M,,,,0000*24
$GNRMC,065043.000,A,3112.7339,N,12136.4296,E,3.02,275.51,220519,,*10
$GPGSA,A,3,01,11,17,18,19,28,,,,,,,6.0,5.5,2.4*3E
$BDGSA,A,3,,,,,,,,,,,,,6.0,5.5,2.4*23
$GPGSV,2,1,06,01,62,033,46,11,49,038,39,17,29,293,46,18,35,041,42*7C
$GPGSV,2,2,06,19,10,278,40,28,55,326,36*77
$BDGSV,2,1,06,05,14,254,28,08,71,270,37,10,75,291,35,29,42,289,44*6A
$BDGSV,2,2,06,30,00,000,45,13,10,235,00*6B
$LOGTIM,1,-787.874450,0.000000,0.000000,0.000000,-63.074*3F
EndT:        3
---00000053--- Acq_st=3 2019-5-22 06:50:43 
[00]  G01  f 45   1467.7 2045998.1  1.0  1.0  5  0 283860931
[01]  G11  f 39   1586.3 2045997.9  1.0  1.0  5  0 283860929
[02]  G17  f 46  -1931.4 2046002.5  1.0  1.0  5  0 283860922
[03]  G18  f 41   2661.3 2045996.6  1.0  1.0  5  0 283860926
[04]  G19  f 40  -2745.8 2046003.6  1.0  1.0  5  0 283860918
[05]  G28  f 36  -2359.2 2046003.1  1.0  1.0  5  0 283860928
[16]  B05 1f 27   -354.1 4092001.1  0.9  0.0  2  0 283846866
[17]  B08 1f 37   -230.7 4092000.6  1.0  1.0  5  0 283846879
[18]  B10 1f 35   -484.1 4092001.3  1.0  0.9  5  0 283846879
[19]  B29 1f 44  -1465.7 4092003.9  1.0  1.0  5  0 283846922
[20]  B30 1f 45    568.0 4091998.5  1.0  1.0  5  0 283846925
lsq: nits= 2
$GNGGA,065044.000,3112.7321,N,12136.4302,E,1,06,5.5,71.0,M,,,,0000*26
$GNRMC,065044.000,A,3112.7321,N,12136.4302,E,2.97,276.14,220519,,*1D
$GPGSA,A,3,01,11,17,18,19,28,,,,,,,6.0,5.5,2.4*3E
$BDGSA,A,3,,,,,,,,,,,,,6.0,5.5,2.4*23
$GPGSV,2,1,06,01,62,033,45,11,49,038,39,17,29,293,46,18,35,041,41*7C
$GPGSV,2,2,06,19,10,278,40,28,55,326,36*77
$BDGSV,2,1,06,05,14,254,27,08,71,270,37,10,75,291,35,29,42,289,44*65
$BDGSV,2,2,06,30,00,000,45,13,10,235,00*6B
$LOGTIM,1,-852.716873,0.000000,0.000000,0.000000,-63.326*3A
EndT:        3
---00000054--- Acq_st=3 2019-5-22 06:50:44 
[00]  G01  f 45   1470.0 2045998.1  1.0  1.0  5  0 283861931
[01]  G11  f 38   1588.1 2045998.0  1.0  1.0  5  0 283861929
[02]  G17  f 46  -1929.6 2046002.5  1.0  1.0  5  0 283861922
[03]  G18  f 41   2663.6 2045996.6  1.0  1.0  5  0 283861926
[04]  G19  f 41  -2744.3 2046003.6  1.0  1.0  5  0 283861918
[05]  G28  f 35  -2357.4 2046003.1  1.0  0.9  5  0 283861928
[16]  B05 1f 28   -352.6 4092000.9  0.9  0.0  2  0 283847866
[17]  B08 1f 37   -229.4 4092000.5  1.0  1.0  5  0 283847879
[18]  B10 1f 35   -482.4 4092001.3  1.0  0.9  5  0 283847879
[19]  B29 1f 44  -1464.3 4092003.8  1.0  1.0  5  0 283847922
[20]  B30 1f 45    569.5 4091998.5  1.0  1.0  5  0 283847925
lsq: nits= 2
$GNGGA,065045.000,3112.7322,N,12136.4299,E,1,10,5.5,71.7,M,,,,0000*27
$GNRMC,065045.000,A,3112.7322,N,12136.4299,E,2.51,281.00,220519,,*1B
$GPGSA,A,3,01,11,17,18,19,28,,,,,,,6.0,5.5,2.4*3E
$BDGSA,A,3,08,10,29,30,,,,,,,,,6.0,5.5,2.4*22
$GPGSV,2,1,06,01,62,033,45,11,49,038,38,17,29,293,46,18,35,041,41*7D
$GPGSV,2,2,06,19,10,278,41,28,55,326,35*75
$BDGSV,2,1,06,05,14,254,28,08,71,270,37,10,75,291,35,29,42,289,44*6A
$BDGSV,2,2,06,30,00,000,45,13,10,235,00*6B
$LOGTIM,3,-916.222909,-1079.692519,0.000000,0.000000,-63.255*20
EndT:        3
---00000055--- Acq_st=3 2019-5-22 06:50:45 
[00]  G01  f 45   1469.4 2045998.1  1.0  1.0  5  0 283862931
[01]  G11  f 38   1588.4 2045997.9  1.0  1.0  5  0 283862929
[02]  G17  f 46  -1930.3 2046002.5  1.0  1.0  5  0 283862922
[03]  G18  f 41   2663.1 2045996.6  1.0  1.0  5  0 283862926
[04]  G19  f 41  -2745.0 2046003.6  1.0  1.0  5  0 283862918
