FlashID=0x1 0x20 0x18
BBram_blkflag1:  869: f796
FW Ver: 1.30  
GPS00 Init Dop:   5000, 40
GPS01 Init Dop:   5000, 40
GPS02 Init Dop:   5000, 40
GPS03 Init Dop:   5000, 40
GPS04 Init Dop:   5000, 40
GPS05 Init Dop:   5000, 40
GPS06 Init Dop:   5000, 40
GPS07 Init Dop:   5000, 40
GPS08 Init Dop:   5000, 40
GPS09 Init Dop:   5000, 40
GPS10 Init Dop:   5000, 40
GPS11 Init Dop:   5000, 40
GPS12 Init Dop:   5000, 40
GPS13 Init Dop:   5000, 40
GPS14 Init Dop:   5000, 40
GPS15 Init Dop:   5000, 40
GPS16 Init Dop:   5000, 40
GPS17 Init Dop:   5000, 40
GPS18 Init Dop:   5000, 40
GPS19 Init Dop:   5000, 40
GPS20 Init Dop:   5000, 40
GPS21 Init Dop:   5000, 40
GPS22 Init Dop:   5000, 40
GPS23 Init Dop:   5000, 40
GPS24 Init Dop:   5000, 40
GPS25 Init Dop:   5000, 40
GPS26 Init Dop:   5000, 40
GPS27 Init Dop:   5000, 40
GPS28 Init Dop:   5000, 40
GPS29 Init Dop:   5000, 40
GPS30 Init Dop:   5000, 40
GPS31 Init Dop:   5000, 40
BDS00 Init Dop:   5000, 40
BDS01 Init Dop:   5000, 40
BDS02 Init Dop:   5000, 40
BDS03 Init Dop:   5000, 40
BDS04 Init Dop:   5000, 40
BDS05 Init Dop:   5000, 40
BDS06 Init Dop:   5000, 40
BDS07 Init Dop:   5000, 40
BDS08 Init Dop:   5000, 40
BDS09 Init Dop:   5000, 40
BDS10 Init Dop:   5000, 40
BDS11 Init Dop:   5000, 40
BDS12 Init Dop:   5000, 40
BDS13 Init Dop:   5000, 40
BDS14 Init Dop:   5000, 40
BDS15 Init Dop:   5000, 40
BDS16 Init Dop:   5000, 40
BDS17 Init Dop:   5000, 40
BDS18 Init Dop:   5000, 40
BDS19 Init Dop:   5000, 40
BDS20 Init Dop:   5000, 40
BDS21 Init Dop:   5000, 40
BDS22 Init Dop:   5000, 40
BDS23 Init Dop:   5000, 40
BDS24 Init Dop:   5000, 40
BDS25 Init Dop:   5000, 40
BDS26 Init Dop:   5000, 40
BDS27 Init Dop:   5000, 40
BDS28 Init Dop:   5000, 40
BDS29 Init Dop:   5000, 40
BDS30 Init Dop:   5000, 40
BDS31 Init Dop:   5000, 40
good luck!
---00000001--- Acq_st=3 2019-5-22 06:54:31 
[00]  G01  1 24   1573.7 2045999.3 -0.0  0.0  1  0         0
$GNGGA,000000.000,,,,,0,00,,,M,,,,0000*2B
$GNRMC,000000.000,A,,,,,,,000000,,*26
$GPGSA,A,1,,,,,,,,,,,,,,,*1E
$BDGSA,A,1,,,,,,,,,,,,,,,*0F
$LOGTIM,0,0.000000,0.000000,0.000000,0.000000,0.000*0A
EndT:        0
---00000002--- Acq_st=3 2019-5-22 06:54:32 
[00]  G01  7 28   1579.2 2045997.8  0.4  1.0 10  0         6
$GNGGA,000000.000,,,,,0,00,,,M,,,,0000*2B
$GNRMC,000000.000,A,,,,,,,000000,,*26
$GPGSA,A,1,,,,,,,,,,,,,,,*1E
$BDGSA,A,1,,,,,,,,,,,,,,,*0F
$GPGSV,1,1,01,01,00,000,28*43
$LOGTIM,0,0.000000,0.000000,0.000000,0.000000,0.000*0A
EndT:        0
---00000003--- Acq_st=3 2019-5-22 06:54:33 
[00]  G01  7 44   1578.1 2045997.8  0.9  1.0  5  0        17
[01]  G11  1 19   1673.0 2045999.3 -0.0  0.0  1  0         0
$GNGGA,000000.000,,,,,0,00,,,M,,,,0000*2B
$GNRMC,000000.000,A,,,,,,,000000,,*26
$GPGSA,A,1,,,,,,,,,,,,,,,*1E
$BDGSA,A,1,,,,,,,,,,,,,,,*0F
$GPGSV,1,1,01,01,00,000,44*49
$LOGTIM,0,0.000000,0.000000,0.000000,0.000000,0.000*0A
EndT:        0
---00000004--- Acq_st=3 2019-5-22 06:54:34 
[00]  G01  7 44   1578.3 2045997.9  1.0  1.0  5  0        17
[01]  G11  7 26   1651.8 2045997.7  0.4  0.0 20  0         8
[02]  G17  1 18  -1928.7 2046003.8 -0.1  0.0  1  0         0
[03]  G18  1 19   2731.0 2045998.0 -0.1  0.0  1  0         0
[04]  G19  1  7  -2239.4 2046004.5  0.0  0.0  1  0         0
$GNGGA,000000.000,,,,,0,00,,,M,,,,0000*2B
$GNRMC,000000.000,A,,,,,,,000000,,*26
$GPGSA,A,1,,,,,,,,,,,,,,,*1E
$BDGSA,A,1,,,,,,,,,,,,,,,*0F
$GPGSV,1,1,02,01,00,000,44,11,00,000,26*7E
$LOGTIM,0,0.000000,0.000000,0.000000,0.000000,0.000*0A
EndT:        1
---00000005--- Acq_st=3 2019-5-22 06:54:35 
[00]  G01  7 44   1575.6 2045997.9  1.0  1.0  5  0        17
[01]  G11  7 38   1648.3 2045997.8  0.9  1.0  5  0        15
[02]  G17  7 21  -1916.7 2046002.4  0.1  0.0 20  0        13
[03]  G18  1 31   2720.6 2045996.4  0.3  0.0  1  0         7
[04]  G19  1 29  -2728.5 2046004.3 -0.1  0.0  1  0         1
$GNGGA,000000.000,,,,,0,00,,,M,,,,0000*2B
$GNRMC,000000.000,A,,,,,,,000000,,*26
$GPGSA,A,1,,,,,,,,,,,,,,,*1E
$BDGSA,A,1,,,,,,,,,,,,,,,*0F
$GPGSV,1,1,03,01,00,000,44,11,00,000,38,17,00,000,21*45
$LOGTIM,0,0.000000,0.000000,0.000000,0.000000,0.000*0A
EndT:        0
---00000006--- Acq_st=3 2019-5-22 06:54:36 
[00]  G01  7 44   1575.5 2045997.9  1.0  1.0  5  0        17
[01]  G11  7 39   1648.5 2045997.8  1.0  1.0  5  0        15
[02]  G17  7 45  -1917.2 2046002.4  1.0  1.0  5  0         9
[03]  G18  7 40   2720.0 2045996.4  1.0  1.0  5  0         7
[04]  G19  7 31  -2731.0 2046003.6  0.5  0.9  5  0         1
[05]  G28  1  7  -2261.4 2046003.4 -0.0  0.0  1  0         0
$GNGGA,000000.000,,,,,0,00,,,M,,,,0000*2B
$GNRMC,000000.000,A,,,,,,,000000,,*26
$GPGSA,A,1,,,,,,,,,,,,,,,*1E
$BDGSA,A,1,,,,,,,,,,,,,,,*0F
$GPGSV,2,1,05,01,00,000,44,11,00,000,39,17,00,000,45,18,00,000,40*7E
$GPGSV,2,2,05,19,00,000,31*46
$LOGTIM,0,0.000000,0.000000,0.000000,0.000000,0.000*0A
EndT:        0
---00000007--- Acq_st=3 2019-5-22 06:54:37 
[00]  G01  f 45   1576.5 2045997.9  1.0  1.0  5  0        17
[01]  G11  f 39   1649.0 2045997.8  1.0  1.0  5  0        15
[02]  G17  f 45  -1916.7 2046002.5  1.0  1.0  5  0         9
[03]  G18  f 43   2720.9 2045996.4  1.0  1.0  5  0        12
[04]  G19  f 35  -2730.3 2046003.5  1.0  0.9  5  0         4
[05]  G28  1 27  -2293.3 2046004.1  0.0  0.0  1  0        10
$GNGGA,000000.000,,,,,0,00,,,M,,,,0000*2B
$GNRMC,000000.000,A,,,,,,,000000,,*26
$GPGSA,A,1,,,,,,,,,,,,,,,*1E
$BDGSA,A,1,,,,,,,,,,,,,,,*0F
$GPGSV,2,1,05,01,00,000,45,11,00,000,39,17,00,000,45,18,00,000,43*7C
$GPGSV,2,2,05,19,00,000,35*42
$LOGTIM,0,0.000000,0.000000,0.000000,0.000000,0.000*0A
EndT:        0
---00000008--- Acq_st=3 2019-5-22 06:54:38 
[00]  G01  f 44   1579.3 2045997.9  1.0  1.0  5  0 284095437
[01]  G11  f 40   1652.1 2045997.8  1.0  1.0  5  0 284095435
[02]  G17  f 45  -1914.3 2046002.5  1.0  1.0  5  0 284095429
[03]  G18  f 43   2724.2 2045996.4  1.0  1.0  5  0 284095432
[04]  G19  f 35  -2727.5 2046003.4  1.0  1.0  5  0 284095424
[05]  G28  7 35  -2290.1 2046002.9  0.9  1.0  5  0        10
$GNGGA,000000.000,,,,,0,00,,,M,,,,0000*2B
$GNRMC,000000.000,A,,,,,,,000000,,*26
$GPGSA,A,1,,,,,,,,,,,,,,,*1E
$BDGSA,A,1,,,,,,,,,,,,,,,*0F
$GPGSV,2,1,06,01,00,000,44,11,00,000,40,17,00,000,45,18,00,000,43*70
$GPGSV,2,2,06,19,00,000,35,28,00,000,35*7D
$LOGTIM,0,0.000000,0.000000,0.000000,0.000000,0.000*0A
EndT:        0
---00000009--- Acq_st=3 2019-5-22 06:54:39 
[00]  G01  f 45   1581.0 2045997.9  1.0  1.0  5  0 284096437
[01]  G11  f 40   1653.1 2045997.8  1.0  1.0  5  0 284096435
[02]  G17  f 45  -1913.2 2046002.5  1.0  1.0  5  0 284096429
[03]  G18  f 43   2725.1 2045996.4  1.0  1.0  5  0 284096432
[04]  G19  f 34  -2727.5 2046003.5  1.0  1.0  5  0 284096424
[05]  G28  7 38  -2288.8 2046003.0  1.0  1.0  5  0        15
[16]  B05  1 10   -257.0 4091999.8  0.1  0.0  1  0         0
$GNGGA,000000.000,,,,,0,00,,,M,,,,0000*2B
$GNRMC,000000.000,A,,,,,,,000000,,*26
$GPGSA,A,1,,,,,,,,,,,,,,,*1E
$BDGSA,A,1,,,,,,,,,,,,,,,*0F
$GPGSV,2,1,06,01,00,000,45,11,00,000,40,17,00,000,45,18,00,000,43*71
$GPGSV,2,2,06,19,00,000,34,28,00,000,38*71
$LOGTIM,0,0.000000,0.000000,0.000000,0.000000,0.000*0A
EndT:        1
---00000010--- Acq_st=3 2019-5-22 06:54:40 
[00]  G01  f 45   1577.6 2045998.0  1.0  1.0  5  0 284097437
[01]  G11  f 40   1649.6 2045997.8  1.0  1.0  5  0 284097435
[02]  G17  f 45  -1916.7 2046002.5  1.0  1.0  5  0 284097429
[03]  G18  f 43   2721.8 2045996.4  1.0  1.0  5  0 284097432
[04]  G19  f 35  -2730.1 2046003.5  1.0  0.9  5  0 284097424
[05]  G28  7 38  -2291.9 2046003.0  1.0  1.0  5  0        15
[16]  B05  1 10   -412.8 4092002.0 -0.0  0.0  1  0       153
$GNGGA,000000.000,,,,,0,00,,,M,,,,0000*2B
$GNRMC,000000.000,A,,,,,,,000000,,*26
$GPGSA,A,1,,,,,,,,,,,,,,,*1E
$BDGSA,A,1,,,,,,,,,,,,,,,*0F
$GPGSV,2,1,06,01,00,000,45,11,00,000,40,17,00,000,45,18,00,000,43*71
$GPGSV,2,2,06,19,00,000,35,28,00,000,38*70
$LOGTIM,0,0.000000,0.000000,0.000000,0.000000,0.000*0A
EndT:        0
---00000011--- Acq_st=3 2019-5-22 06:54:41 
[00]  G01  f 45   1575.6 2045997.9  1.0  1.0  5  0 284098437
[01]  G11  f 40   1647.4 2045997.9  1.0  1.0  5  0 284098435
[02]  G17  f 45  -1919.1 2046002.5  1.0  1.0  5  0 284098429
[03]  G18  f 43   2719.8 2045996.5  1.0  1.0  5  0 284098432
[04]  G19  f 34  -2732.9 2046003.5  1.0  1.0  5  0 284098424
[05]  G28  7 39  -2294.0 2046003.0  1.0  1.0  5  0        15
[16]  B05  f 30   -379.0 4092001.0 -0.0  0.0  2  0      1153
[17]  B08  1  7   -208.5 4092001.0  0.1  0.0  1  0         0
$GNGGA,000000.000,,,,,0,00,,,M,,,,0000*2B
$GNRMC,000000.000,A,,,,,,,000000,,*26
$GPGSA,A,1,,,,,,,,,,,,,,,*1E
$BDGSA,A,1,,,,,,,,,,,,,,,*0F
$GPGSV,2,1,06,01,00,000,45,11,00,000,40,17,00,000,45,18,00,000,43*71
$GPGSV,2,2,06,19,00,000,34,28,00,000,39*70
$BDGSV,1,1,01,05,00,000,30*5F
$LOGTIM,0,0.000000,0.000000,0.000000,0.000000,0.000*0A
EndT:        0
---00000012--- Acq_st=3 2019-5-22 06:54:42 
[00]  G01  f 45   1576.7 2045997.9  1.0  1.0  5  0 284099437
[01]  G11  f 40   1648.4 2045997.8  1.0  1.0  5  0 284099435
[02]  G17  f 45  -1918.5 2046002.5  1.0  1.0  5  0 284099429
[03]  G18  f 42   2720.4 2045996.5  1.0  1.0  5  0 284099432
[04]  G19  f 35  -2732.2 2046003.5  1.0  0.9  5  0 284099424
[05]  G28  7 39  -2292.9 2046002.9  1.0  1.0  5  0        15
[16]  B05  f 29   -369.1 4092000.8 -0.0  0.0  2  0 284085972
[17]  B08  7 27   -207.3 4092000.5  0.5  1.0 10  0       801
$GNGGA,000000.000,,,,,0,00,,,M,,,,0000*2B
$GNRMC,000000.000,A,,,,,,,000000,,*26
$GPGSA,A,1,,,,,,,,,,,,,,,*1E
$BDGSA,A,1,,,,,,,,,,,,,,,*0F
$GPGSV,2,1,06,01,00,000,45,11,00,000,40,17,00,000,45,18,00,000,42*70
$GPGSV,2,2,06,19,00,000,35,28,00,000,39*71
$BDGSV,1,1,02,05,00,000,29,08,00,000,27*69
$LOGTIM,0,0.000000,0.000000,0.000000,0.000000,0.000*0A
EndT:        0
---00000013--- Acq_st=3 2019-5-22 06:54:43 
[00]  G01  f 45   1579.1 2045997.9  1.0  1.0  5  0 284100437
[01]  G11  f 40   1650.1 2045997.9  1.0  1.0  5  0 284100435
[02]  G17  f 45  -1916.4 2046002.5  1.0  1.0  5  0 284100429
[03]  G18  f 42   2722.5 2045996.5  1.0  1.0  5  0 284100432
[04]  G19  f 35  -2730.4 2046003.5  1.0  1.0  5  0 284100424
[05]  G28  f 39  -2291.5 2046002.9  1.0  1.0  5  0        15
[16]  B05  f 29   -351.1 4092000.8  0.8  0.0  2  0 284086972
[17]  B08  7 38   -205.6 4092000.5  1.0  1.0  5  0      1785
$GNGGA,000000.000,,,,,0,00,,,M,,,,0000*2B
$GNRMC,000000.000,A,,,,,,,000000,,*26
$GPGSA,A,1,,,,,,,,,,,,,,,*1E
$BDGSA,A,1,,,,,,,,,,,,,,,*0F
$GPGSV,2,1,06,01,00,000,45,11,00,000,40,17,00,000,45,18,00,000,42*70
$GPGSV,2,2,06,19,00,000,35,28,00,000,39*71
$BDGSV,1,1,02,05,00,000,29,08,00,000,38*67
$LOGTIM,0,0.000000,0.000000,0.000000,0.000000,0.000*0A
EndT:        0
---00000014--- Acq_st=3 2019-5-22 06:54:44 
[00]  G01  f 45   1582.0 2045998.0  1.0  1.0  5  0 284101437
[01]  G11  f 40   1653.5 2045998.0  1.0  1.0  5  0 284101435
[02]  G17  f 45  -1914.0 2046002.5  1.0  1.0  5  0 284101429
[03]  G18  f 43   2725.1 2045996.5  1.0  1.0  5  0 284101432
[04]  G19  f 35  -2727.8 2046003.6  1.0  1.0  5  0 284101424
[05]  G28  f 39  -2288.5 2046002.9  1.0  1.0  5  0 284101435
[16]  B05  f 29   -348.3 4092000.9  0.7  0.0  2  0 284087972
[17]  B08  7 38   -203.2 4092000.6  1.0  1.0  5  0      2785
$GNGGA,000000.000,,,,,0,00,,,M,,,,0000*2B
$GNRMC,000000.000,A,,,,,,,000000,,*26
$GPGSA,A,1,,,,,,,,,,,,,,,*1E
$BDGSA,A,1,,,,,,,,,,,,,,,*0F
$GPGSV,2,1,06,01,00,000,45,11,00,000,40,17,00,000,45,18,00,000,43*71
$GPGSV,2,2,06,19,00,000,35,28,00,000,39*71
$BDGSV,1,1,02,05,00,000,29,08,00,000,38*67
$LOGTIM,0,0.000000,0.000000,0.000000,0.000000,0.000*0A
EndT:        0
---00000015--- Acq_st=3 2019-5-22 06:54:45 
[00]  G01  f 46   1583.5 2045997.9  1.0  1.0  5  0 284102437
[01]  G11  f 39   1654.7 2045997.9  1.0  1.0  5  0 284102435
[02]  G17  f 45  -1912.9 2046002.5  1.0  1.0  5  0 284102429
[03]  G18  f 43   2726.7 2045996.4  1.0  1.0  5  0 284102432
[04]  G19  f 35  -2726.5 2046003.5  1.0  1.0  5  0 284102424
[05]  G28  f 39  -2287.1 2046003.0  1.0  1.0  5  0 284102435
[16]  B05  f 31   -347.4 4092001.1  0.8  0.0  2  0 284088972
[17]  B08 1f 38   -201.7 4092000.5  1.0  1.0  5  0      3785
$GNGGA,000000.000,,,,,0,00,,,M,,,,0000*2B
$GNRMC,000000.000,A,,,,,,,000000,,*26
$GPGSA,A,1,,,,,,,,,,,,,,,*1E
$BDGSA,A,1,,,,,,,,,,,,,,,*0F
$GPGSV,2,1,06,01,00,000,46,11,00,000,39,17,00,000,45,18,00,000,43*7C
$GPGSV,2,2,06,19,00,000,35,28,00,000,39*71
$BDGSV,1,1,02,05,00,000,31,08,00,000,38*6E
$LOGTIM,0,0.000000,0.000000,0.000000,0.000000,0.000*0A
EndT:        0
---00000016--- Acq_st=3 2019-5-22 06:54:46 
[00]  G01  f 46   1583.3 2045998.0  1.0  1.0  5  0 284103437
[01]  G11  f 38   1654.4 2045997.9  1.0  1.0  5  0 284103435
[02]  G17  f 45  -1913.3 2046002.5  1.0  1.0  5  0 284103429
[03]  G18  f 43   2726.5 2045996.4  1.0  1.0  5  0 284103432
[04]  G19  f 36  -2727.1 2046003.5  1.0  0.9  5  0 284103424
[05]  G28  f 40  -2287.2 2046003.0  1.0  1.0  5  0 284103435
[16]  B05  f 28   -347.3 4092000.7  0.8  0.0  2  0 284089972
[17]  B08 1f 38   -202.2 4092000.5  1.0  1.0  5  0 284089385
$GNGGA,000000.000,,,,,0,00,,,M,,,,0000*2B
$GNRMC,000000.000,A,,,,,,,000000,,*26
$GPGSA,A,1,,,,,,,,,,,,,,,*1E
$BDGSA,A,1,,,,,,,,,,,,,,,*0F
$GPGSV,2,1,06,01,00,000,46,11,00,000,38,17,00,000,45,18,00,000,43*7D
$GPGSV,2,2,06,19,00,000,36,28,00,000,40*7C
$BDGSV,1,1,02,05,00,000,28,08,00,000,38*66
$LOGTIM,0,0.000000,0.000000,0.000000,0.000000,0.000*0A
EndT:        0
---00000017--- Acq_st=3 2019-5-22 06:54:47 
[00]  G01  f 46   1583.8 2045998.0  1.0  1.0  5  0 284104437
[01]  G11  f 38   1654.5 2045997.8  1.0  1.0  5  0 284104435
[02]  G17  f 45  -1913.4 2046002.5  1.0  1.0  5  0 284104429
[03]  G18  f 43   2726.7 2045996.5  1.0  1.0  5  0 284104432
[04]  G19  f 37  -2726.9 2046003.5  1.0  1.1  5  0 284104424
[05]  G28  f 39  -2287.0 2046003.0  1.0  1.0  5  0 284104435
[16]  B05  f 27   -347.9 4092001.1  0.8  0.0  2  0 284090972
[17]  B08 1f 38   -202.7 4092000.5  1.0  1.0  5  0 284090385
$GNGGA,000000.000,,,,,0,00,,,M,,,,0000*2B
$GNRMC,000000.000,A,,,,,,,000000,,*26
$GPGSA,A,1,,,,,,,,,,,,,,,*1E
$BDGSA,A,1,,,,,,,,,,,,,,,*0F
$GPGSV,2,1,06,01,00,000,46,11,00,000,38,17,00,000,45,18,00,000,43*7D
$GPGSV,2,2,06,19,00,000,37,28,00,000,39*73
$BDGSV,1,1,02,05,00,000,27,08,00,000,38*69
$LOGTIM,0,0.000000,0.000000,0.000000,0.000000,0.000*0A
EndT:        0
---00000018--- Acq_st=3 2019-5-22 06:54:48 
[00]  G01  f 45   1584.8 2045998.0  1.0  1.0  5  0 284105437
[01]  G11  f 38   1655.5 2045997.9  1.0  1.0  5  0 284105435
[02]  G17  f 45  -1912.5 2046002.5  1.0  1.0  5  0 284105429
[03]  G18  f 43   2727.5 2045996.5  1.0  1.0  5  0 284105432
[04]  G19  f 36  -2726.3 2046003.5  1.0  1.0  5  0 284105424
[05]  G28  f 39  -2285.7 2046002.9  1.0  1.0  5  0 284105435
[16]  B05 1f 29   -346.5 4092001.0  0.8  0.0  2  0 284091972
[17]  B08 1f 38   -200.9 4092000.5  1.0  1.0  5  0 284091385
$GNGGA,000000.000,,,,,0,00,,,M,,,,0000*2B
$GNRMC,000000.000,A,,,,,,,000000,,*26
$GPGSA,A,1,,,,,,,,,,,,,,,*1E
$BDGSA,A,1,,,,,,,,,,,,,,,*0F
$GPGSV,2,1,06,01,00,000,45,11,00,000,38,17,00,000,45,18,00,000,43*7E
$GPGSV,2,2,06,19,00,000,36,28,00,000,39*72
$BDGSV,1,1,02,05,00,000,29,08,00,000,38*67
$LOGTIM,0,0.000000,0.000000,0.000000,0.000000,0.000*0A
EndT:        0
---00000019--- Acq_st=3 2019-5-22 06:54:49 
[00]  G01  f 46   1586.1 2045998.0  1.0  1.0  5  0 284106437
[01]  G11  f 38   1656.9 2045997.8  1.0  1.0  5  0 284106435
[02]  G17  f 46  -1911.9 2046002.5  1.0  1.0  5  0 284106429
[03]  G18  f 42   2728.2 2045996.5  1.0  1.0  5  0 284106432
[04]  G19  f 37  -2725.2 2046003.5  1.0  1.0  5  0 284106424
[05]  G28  f 39  -2284.8 2046003.0  1.0  1.0  5  0 284106435
[16]  B05 1f 28   -346.6 4092001.1  0.8  0.0  2  0 284092372
[17]  B08 1f 38   -200.1 4092000.5  1.0  1.0  5  0 284092385
[18]  B27  1  7   1951.8 4091993.6 -0.0  0.0  1  0         0
$GNGGA,000000.000,,,,,0,00,,,M,,,,0000*2B
$GNRMC,000000.000,A,,,,,,,000000,,*26
$GPGSA,A,1,,,,,,,,,,,,,,,*1E
$BDGSA,A,1,,,,,,,,,,,,,,,*0F
$GPGSV,2,1,06,01,00,000,46,11,00,000,38,17,00,000,46,18,00,000,42*7F
$GPGSV,2,2,06,19,00,000,37,28,00,000,39*73
$BDGSV,1,1,02,05,00,000,28,08,00,000,38*66
$LOGTIM,0,0.000000,0.000000,0.000000,0.000000,0.000*0A
EndT:        0
---00000020--- Acq_st=3 2019-5-22 06:54:50 
[00]  G01  f 46   1584.9 2045997.9  1.0  1.0  5  0 284107437
[01]  G11  f 37   1654.9 2045997.9  1.0  1.0  5  0 284107435
[02]  G17  f 46  -1913.4 2046002.5  1.0  1.0  5  0 284107429
[03]  G18  f 42   2727.0 2045996.5  1.0  1.0  5  0 284107432
[04]  G19  f 37  -2727.1 2046003.6  1.0  1.0  5  0 284107424
[05]  G28  f 39  -2286.0 2046003.0  1.0  1.0  5  0 284107435
[16]  B05 1f 28   -348.2 4092000.9  0.8  0.0  2  0 284093372
[17]  B08 1f 38   -201.7 4092000.5  1.0  1.0  5  0 284093385
[18]  B27  1  7   1831.0 4091995.0 -0.0  0.0  1  0       241
[19]  B29  1  7  -1446.2 4092004.2 -0.1  0.0  1  0         0
$GNGGA,000000.000,,,,,0,00,,,M,,,,0000*2B
$GNRMC,000000.000,A,,,,,,,000000,,*26
$GPGSA,A,1,,,,,,,,,,,,,,,*1E
$BDGSA,A,1,,,,,,,,,,,,,,,*0F
$GPGSV,2,1,06,01,00,000,46,11,00,000,37,17,00,000,46,18,00,000,42*70
$GPGSV,2,2,06,19,00,000,37,28,00,000,39*73
$BDGSV,1,1,02,05,00,000,28,08,00,000,38*66
$LOGTIM,0,0.000000,0.000000,0.000000,0.000000,0.000*0A
EndT:        0
---00000021--- Acq_st=3 2019-5-22 06:54:51 
[00]  G01  f 46   1586.1 2045997.9  1.0  1.0  5  0 284108437
[01]  G11  f 37   1655.4 2045997.9  1.0  1.0  5  0 284108435
[02]  G17  f 46  -1912.6 2046002.5  1.0  1.0  5  0 284108429
[03]  G18  f 42   2728.1 2045996.5  1.0  1.0  5  0 284108432
[04]  G19  f 37  -2726.5 2046003.5  1.0  0.9  5  0 284108424
[05]  G28  f 40  -2285.4 2046003.0  1.0  1.0  5  0 284108435
[16]  B05 1f 29   -347.3 4092001.1  0.8  0.0  2  0 284094372
[17]  B08 1f 38   -201.6 4092000.5  1.0  1.0  5  0 284094385
[18]  B27  7 32   1834.1 4091995.4  0.2  0.9  5  0      1241
[19]  B29  7  7  -1424.9 4092003.8  0.2  0.0  5  0       339
[20]  B30  1  7    598.9 4091998.3 -0.1  0.0  1  0         0
$GNGGA,000000.000,,,,,0,00,,,M,,,,0000*2B
$GNRMC,000000.000,A,,,,,,,000000,,*26
$GPGSA,A,1,,,,,,,,,,,,,,,*1E
$BDGSA,A,1,,,,,,,,,,,,,,,*0F
$GPGSV,2,1,06,01,00,000,46,11,00,000,37,17,00,000,46,18,00,000,42*70
$GPGSV,2,2,06,19,00,000,37,28,00,000,40*7D
$BDGSV,1,1,03,05,00,000,29,08,00,000,38,27,00,000,32*52
$LOGTIM,0,0.000000,0.000000,0.000000,0.000000,0.000*0A
EndT:        0
---00000022--- Acq_st=7 2019-5-22 06:54:52 
[00]  G01  f 46   1593.9 2045997.9  1.0  1.0  5  0 284109437
[01]  G11  f 37   1663.6 2045997.9  1.0  1.0  5  0 284109435
[02]  G17  f 45  -1905.0 2046002.5  1.0  1.0  5  0 284109429
[03]  G18  f 42   2735.6 2045996.5  1.0  1.0  5  0 284109432
[04]  G19  f 37  -2719.5 2046003.5  1.0  1.0  5  0 284109424
[05]  G28  f 40  -2277.6 2046003.0  1.0  1.0  5  0 284109435
[16]  B05 1f 29   -340.0 4092000.9  0.8  0.0  2  0 284095372
[17]  B08 1f 38   -193.5 4092000.5  1.0  1.0  5  0 284095385
[18]  B27  7 34   1841.9 4091995.3  1.0  1.0  5  0      2240
[19]  B29  7 40  -1417.2 4092003.7  0.6  1.0  5  0      1328
[20]  B30  7 29    606.1 4091998.4  0.1  1.0  5  0       889
$GNGGA,000000.000,,,,,0,00,,,M,,,,0000*2B
$GNRMC,000000.000,A,,,,,,,000000,,*26
$GPGSA,A,1,,,,,,,,,,,,,,,*1E
$BDGSA,A,1,,,,,,,,,,,,,,,*0F
$GPGSV,2,1,06,01,00,000,46,11,00,000,37,17,00,000,45,18,00,000,42*73
$GPGSV,2,2,06,19,00,000,37,28,00,000,40*7D
$BDGSV,2,1,05,05,00,000,29,08,00,000,38,27,00,000,34,29,00,000,40*6E
$BDGSV,2,2,05,30,00,000,29*55
$LOGTIM,0,0.000000,0.000000,0.000000,0.000000,0.000*0A
EndT:        0
---00000023--- Acq_st=3 2019-5-22 06:54:53 
[00]  G01  f 46   1598.7 2045997.9  1.0  1.0  5  0 284110437
[01]  G11  f 37   1668.5 2045997.9  1.0  1.0  5  0 284110435
[02]  G17  f 46  -1900.8 2046002.5  1.0  1.0  5  0 284110429
[03]  G18  f 42   2739.9 2045996.4  1.0  1.0  5  0 284110432
[04]  G19  f 37  -2714.7 2046003.6  1.0  1.0  5  0 284110424
[05]  G28  f 40  -2273.4 2046002.9  1.0  1.0  5  0 284110435
[16]  B05 1f 30   -335.9 4092001.1  0.8  0.0  2  0 284096372
[17]  B08 1f 38   -189.3 4092000.5  1.0  1.0  5  0 284096385
[18]  B27  7 35   1846.0 4091995.2  1.0  1.0  5  0      3240
[19]  B29  7 41  -1413.0 4092003.7  1.0  1.0  5  0      2328
[20]  B30  7 47    610.4 4091998.4  1.0  1.0  5  0      1871
$GNGGA,000000.000,,,,,0,00,,,M,,,,0000*2B
$GNRMC,000000.000,A,,,,,,,000000,,*26
$GPGSA,A,1,,,,,,,,,,,,,,,*1E
$BDGSA,A,1,,,,,,,,,,,,,,,*0F
$GPGSV,2,1,06,01,00,000,46,11,00,000,37,17,00,000,46,18,00,000,42*70
$GPGSV,2,2,06,19,00,000,37,28,00,000,40*7D
$BDGSV,2,1,05,05,00,000,30,08,00,000,38,27,00,000,35,29,00,000,41*66
$BDGSV,2,2,05,30,00,000,47*5D
$LOGTIM,0,0.000000,0.000000,0.000000,0.000000,0.000*0A
EndT:        0
---00000024--- Acq_st=3 2019-5-22 06:54:54 
[00]  G01  f 47   1600.7 2045997.9  1.0  1.0  5  0 284111437
[01]  G11  f 37   1669.9 2045997.8  1.0  1.0  5  0 284111435
[02]  G17  f 45  -1899.1 2046002.5  1.0  1.0  5  0 284111429
[03]  G18  f 42   2741.6 2045996.4  1.0  1.0  5  0 284111432
[04]  G19  f 37  -2713.0 2046003.6  1.0  0.9  5  0 284111424
[05]  G28  f 40  -2271.6 2046003.0  1.0  1.0  5  0 284111435
[16]  B05 1f 26   -334.0 4092000.8  0.8  0.0  2  0 284097372
[17]  B08 1f 38   -187.7 4092000.4  1.0  1.0  5  0 284097385
[18]  B27  7 35   1847.6 4091995.1  1.0  1.0  5  0      4240
[19]  B29  7 41  -1411.1 4092003.7  1.0  1.0  5  0      3328
[20]  B30  7 47    612.0 4091998.4  1.0  1.0  5  0      2871
$GNGGA,000000.000,,,,,0,00,,,M,,,,0000*2B
$GNRMC,000000.000,A,,,,,,,000000,,*26
$GPGSA,A,1,,,,,,,,,,,,,,,*1E
$BDGSA,A,1,,,,,,,,,,,,,,,*0F
$GPGSV,2,1,06,01,00,000,47,11,00,000,37,17,00,000,45,18,00,000,42*72
$GPGSV,2,2,06,19,00,000,37,28,00,000,40*7D
$BDGSV,2,1,05,05,00,000,26,08,00,000,38,27,00,000,35,29,00,000,41*61
$BDGSV,2,2,05,30,00,000,47*5D
$LOGTIM,0,0.000000,0.000000,0.000000,0.000000,0.000*0A
EndT:        0
---00000025--- Acq_st=3 2019-5-22 06:54:55 
[00]  G01  f 47   1599.5 2045997.9  1.0  1.0  5  0 284112437
[01]  G11  f 37   1669.0 2045997.8  1.0  0.9  5  0 284112435
[02]  G17  f 45  -1900.7 2046002.5  1.0  1.0  5  0 284112429
[03]  G18  f 42   2740.7 2045996.4  1.0  1.0  5  0 284112432
[04]  G19  f 37  -2714.0 2046003.6  1.0  1.0  5  0 284112424
[05]  G28  f 40  -2272.5 2046003.0  1.0  1.0  5  0 284112435
[16]  B05 1f 30   -335.9 4092000.8  0.8  0.0  2  0 284098372
[17]  B08 1f 38   -189.3 4092000.4  1.0  0.9  5  0 284098385
[18]  B27  7 35   1846.0 4091995.1  1.0  1.0  5  0      5240
[19]  B29  7 41  -1412.3 4092003.7  1.0  1.0  5  0      4328
[20]  B30  7 47    610.6 4091998.4  1.0  1.0  5  0      3871
$GNGGA,000000.000,,,,,0,00,,,M,,,,0000*2B
$GNRMC,000000.000,A,,,,,,,000000,,*26
$GPGSA,A,1,,,,,,,,,,,,,,,*1E
$BDGSA,A,1,,,,,,,,,,,,,,,*0F
$GPGSV,2,1,06,01,00,000,47,11,00,000,37,17,00,000,45,18,00,000,42*72
$GPGSV,2,2,06,19,00,000,37,28,00,000,40*7D
$BDGSV,2,1,05,05,00,000,30,08,00,000,38,27,00,000,35,29,00,000,41*66
$BDGSV,2,2,05,30,00,000,47*5D
$LOGTIM,0,0.000000,0.000000,0.000000,0.000000,0.000*0A
EndT:        0
---00000026--- Acq_st=3 2019-5-22 06:54:56 
[00]  G01  f 47   1596.4 2045997.9  1.0  1.0  5  0 284113437
[01]  G11  f 37   1665.5 2045997.8  1.0  0.9  5  0 284113435
[02]  G17  f 44  -1904.1 2046002.5  1.0  1.0  5  0 284113429
[03]  G18  f 43   2737.3 2045996.4  1.0  1.0  5  0 284113432
[04]  G19  f 36  -2718.1 2046003.5  1.0  1.0  5  0 284113424
[05]  G28  f 39  -2275.4 2046003.0  1.0  1.0  5  0 284113435
[16]  B05 1f 27   -339.1 4092000.8  0.9  0.0  2  0 284099372
[17]  B08 1f 38   -192.7 4092000.5  1.0  1.0  5  0 284099385
[18]  B27  7 35   1842.1 4091995.2  1.0  0.9  5  0      6240
[19]  B29  7 41  -1415.6 4092003.7  1.0  1.0  5  0      5328
[20]  B30  7 47    607.1 4091998.4  1.0  1.0  5  0      4871
$GNGGA,000000.000,,,,,0,00,,,M,,,,0000*2B
$GNRMC,000000.000,A,,,,,,,000000,,*26
$GPGSA,A,1,,,,,,,,,,,,,,,*1E
$BDGSA,A,1,,,,,,,,,,,,,,,*0F
$GPGSV,2,1,06,01,00,000,47,11,00,000,37,17,00,000,44,18,00,000,43*72
$GPGSV,2,2,06,19,00,000,36,28,00,000,39*72
$BDGSV,2,1,05,05,00,000,27,08,00,000,38,27,00,000,35,29,00,000,41*60
$BDGSV,2,2,05,30,00,000,47*5D
$LOGTIM,0,0.000000,0.000000,0.000000,0.000000,0.000*0A
EndT:        0
---00000027--- Acq_st=3 2019-5-22 06:54:57 
[00]  G01  f 47   1593.4 2045997.9  1.0  1.0  5  0 284114437
[01]  G11  f 37   1661.9 2045997.8  1.0  1.0  5  0 284114435
[02]  G17  f 44  -1907.5 2046002.5  1.0  1.0  5  0 284114429
[03]  G18  f 42   2733.8 2045996.5  1.0  1.0  5  0 284114432
[04]  G19  f 37  -2721.3 2046003.5  1.0  1.0  5  0 284114424
[05]  G28  f 40  -2279.0 2046002.9  1.0  1.0  5  0 284114435
[16]  B05 1f 30   -342.6 4092000.8  0.8  0.0  2  0 284100372
[17]  B08 1f 38   -196.1 4092000.5  1.0  1.0  5  0 284100385
[18]  B27 1f 36   1839.0 4091995.2  1.0  1.0  5  0      7240
[19]  B29 1f 41  -1418.8 4092003.7  1.0  1.0  5  0      6328
[20]  B30 1f 47    603.9 4091998.4  1.0  1.0  5  0      5871
$GNGGA,000000.000,,,,,0,00,,,M,,,,0000*2B
$GNRMC,000000.000,A,,,,,,,000000,,*26
$GPGSA,A,1,,,,,,,,,,,,,,,*1E
$BDGSA,A,1,,,,,,,,,,,,,,,*0F
$GPGSV,2,1,06,01,00,000,47,11,00,000,37,17,00,000,44,18,00,000,42*73
$GPGSV,2,2,06,19,00,000,37,28,00,000,40*7D
$BDGSV,2,1,05,05,00,000,30,08,00,000,38,27,00,000,36,29,00,000,41*65
$BDGSV,2,2,05,30,00,000,47*5D
$LOGTIM,0,0.000000,0.000000,0.000000,0.000000,0.000*0A
EndT:        0
---00000028--- Acq_st=3 2019-5-22 06:54:58 
[00]  G01  f 47   1593.2 2045997.9  1.0  1.0  5  0 284115437
[01]  G11  f 36   1661.4 2045997.8  1.0  0.9  5  0 284115435
[02]  G17  f 44  -1908.3 2046002.5  1.0  1.0  5  0 284115429
[03]  G18  f 42   2733.2 2045996.4  1.0  1.0  5  0 284115432
[04]  G19  f 36  -2721.8 2046003.6  1.0  0.9  5  0 284115424
[05]  G28  f 40  -2279.5 2046002.9  1.0  1.0  5  0 284115435
[16]  B05 1f 27   -343.3 4092000.9  0.8  0.0  2  0 284101372
[17]  B08 1f 38   -196.8 4092000.5  1.0  1.0  5  0 284101385
[18]  B27 1f 36   1837.3 4091995.3  1.0  1.0  5  0 284101420
[19]  B29 1f 41  -1419.9 4092003.7  1.0  1.0  5  0 284101428
[20]  B30 1f 47    603.5 4091998.4  1.0  1.0  5  0 284101431
$GNGGA,000000.000,,,,,0,00,,,M,,,,0000*2B
$GNRMC,000000.000,A,,,,,,,000000,,*26
$GPGSA,A,1,,,,,,,,,,,,,,,*1E
$BDGSA,A,1,,,,,,,,,,,,,,,*0F
$GPGSV,2,1,06,01,00,000,47,11,00,000,36,17,00,000,44,18,00,000,42*72
$GPGSV,2,2,06,19,00,000,36,28,00,000,40*7C
$BDGSV,2,1,05,05,00,000,27,08,00,000,38,27,00,000,36,29,00,000,41*63
$BDGSV,2,2,05,30,00,000,47*5D
$LOGTIM,0,0.000000,0.000000,0.000000,0.000000,0.000*0A
EndT:        0
---00000029--- Acq_st=3 2019-5-22 06:54:59 
[00]  G01  f 47   1591.0 2045997.9  1.0  1.0  5  0 284116437
[01]  G11  f 36   1659.2 2045997.9  1.0  1.0  5  0 284116435
[02]  G17  f 44  -1911.2 2046002.5  1.0  1.0  5  0 284116429
[03]  G18  f 42   2731.1 2045996.4  1.0  1.0  5  0 284116432
[04]  G19  f 36  -2724.5 2046003.5  1.0  0.9  5  0 284116424
[05]  G28  f 41  -2281.9 2046003.0  1.0  1.0  5  0 284116435
[16]  B05 1f 28   -346.2 4092001.0  0.8  0.0  2  0 284102372
[17]  B08 1f 38   -199.3 4092000.6  1.0  1.0  5  0 284102385
[18]  B27 1f 35   1836.0 4091995.2  1.0  1.0  5  0 284102420
[19]  B29 1f 41  -1422.2 4092003.8  1.0  1.0  5  0 284102428
[20]  B30 1f 47    600.5 4091998.4  1.0  1.0  5  0 284102431
$GNGGA,000000.000,,,,,0,00,,,M,,,,0000*2B
$GNRMC,000000.000,A,,,,,,,000000,,*26
$GPGSA,A,1,,,,,,,,,,,,,,,*1E
$BDGSA,A,1,,,,,,,,,,,,,,,*0F
$GPGSV,2,1,06,01,00,000,47,11,00,000,36,17,00,000,44,18,00,000,42*72
$GPGSV,2,2,06,19,00,000,36,28,00,000,41*7D
$BDGSV,2,1,05,05,00,000,28,08,00,000,38,27,00,000,35,29,00,000,41*6F
$BDGSV,2,2,05,30,00,000,47*5D
$LOGTIM,0,0.000000,0.000000,0.000000,0.000000,0.000*0A
EndT:        0
---00000030--- Acq_st=3 2019-5-22 06:55:0 
[00]  G01  f 47   1592.5 2045997.9  1.0  1.0  5  0 284117437
[01]  G11  f 35   1661.0 2045997.9  1.0  1.0  5  0 284117435
[02]  G17  f 44  -1909.7 2046002.5  1.0  1.0  5  0 284117429
[03]  G18  f 43   2732.5 2045996.5  1.0  1.0  5  0 284117432
[04]  G19  f 37  -2723.1 2046003.6  1.0  1.0  5  0 284117424
[05]  G28  f 41  -2280.1 2046002.9  1.0  1.0  5  0 284117435
[16]  B05 1f 29   -344.3 4092000.9  0.8  0.0  2  0 284103372
[17]  B08 1f 38   -197.2 4092000.5  1.0  1.0  5  0 284103385
[18]  B27 1f 34   1836.7 4091995.1  1.0  1.0  5  0 284103420
[19]  B29 1f 41  -1420.8 4092003.7  1.0  1.0  5  0 284103428
[20]  B30 1f 47    602.3 4091998.4  1.0  1.0  5  0 284103431
lsq: nits= 4
$GNGGA,065500.506,3112.7418,N,12136.4334,E,1,06,6.2,33.0,M,,,,0000*2A
$GNRMC,065500.506,A,3112.7418,N,12136.4334,E,0.93,0.00,220519,,*13
$GPGSA,A,3,01,11,17,18,19,28,,,,,,,6.6,6.2,2.3*3B
$BDGSA,A,3,,,,,,,,,,,,,6.6,6.2,2.3*26
$GPGSV,2,1,06,01,00,000,47,11,00,000,35,17,00,000,44,18,00,000,43*70
$GPGSV,2,2,06,19,00,000,37,28,00,000,41*7C
$BDGSV,2,1,05,05,00,000,29,08,00,000,38,27,00,000,34,29,00,000,41*6F
$BDGSV,2,2,05,30,00,000,47*5D
$LOGTIM,1,9349862.610749,0.000000,0.000000,0.000000,-60.868*10
EndT:        1
---00000031--- Acq_st=3 2019-5-22 06:55:1 
[00]  G01  f 47   1592.0 2045997.9  1.0  1.0  5  0 284118437
[01]  G11  f 35   1659.4 2045997.8  1.0  1.0  5  0 284118435
[02]  G17  f 43  -1910.6 2046002.5  1.0  1.0  5  0 284118429
[03]  G18  f 42   2731.8 2045996.4  1.0  1.0  5  0 284118432
[04]  G19  f 36  -2724.1 2046003.5  1.0  0.9  5  0 284118424
[05]  G28  f 42  -2281.0 2046003.0  1.0  1.0  5  0 284118435
[16]  B05 1f 31   -345.7 4092001.0  0.8  0.0  2  0 284104372
[17]  B08 1f 39   -198.5 4092000.5  1.0  1.0  5  0 284104385
[18]  B27 1f 35   1835.9 4091995.1  1.0  1.0  5  0 284104420
[19]  B29 1f 41  -1421.9 4092003.7  1.0  1.0  5  0 284104428
[20]  B30 1f 47    601.1 4091998.4  1.0  1.0  5  0 284104431
lsq: nits= 2
$GNGGA,065502.000,3112.7379,N,12136.4327,E,1,06,6.2,23.4,M,,,,0000*2C
$GNRMC,065502.000,A,3112.7379,N,12136.4327,E,2.58,279.86,220519,,*17
$GPGSA,A,3,01,11,17,18,19,28,,,,,,,6.6,6.2,2.3*3B
$BDGSA,A,3,,,,,,,,,,,,,6.6,6.2,2.3*26
$GPGSV,2,1,06,01,00,000,47,11,00,000,35,17,00,000,43,18,00,000,42*76
$GPGSV,2,2,06,19,00,000,36,28,00,000,42*7E
$BDGSV,2,1,05,05,00,000,31,08,00,000,39,27,00,000,35,29,00,000,41*66
$BDGSV,2,2,05,30,00,000,47*5D
$LOGTIM,1,-98.978692,0.000000,0.000000,0.000000,-62.136*01
EndT:        2
---00000032--- Acq_st=3 2019-5-22 06:55:2 
[00]  G01  f 47   1593.1 2045997.9  1.0  1.0  5  0 284119931
[01]  G11  f 35   1660.7 2045997.8  1.0  1.0  5  0 284119929
[02]  G17  f 43  -1909.9 2046002.5  1.0  1.0  5  0 284119923
[03]  G18  f 42   2732.5 2045996.4  1.0  1.0  5  0 284119926
[04]  G19  f 36  -2723.1 2046003.6  1.0  1.0  5  0 284119918
[05]  G28  f 42  -2279.6 2046002.9  1.0  1.0  5  0 284119929
[16]  B05 1f 28   -345.4 4092000.9  0.8  0.0  2  0 284105866
[17]  B08 1f 38   -197.8 4092000.5  1.0  1.0  5  0 284105879
[18]  B27 1f 35   1836.3 4091995.2  1.0  1.0  5  0 284105914
[19]  B29 1f 41  -1421.0 4092003.7  1.0  1.0  5  0 284105922
[20]  B30 1f 47    601.7 4091998.4  1.0  1.0  5  0 284105925
lsq: nits= 2
$GNGGA,065503.000,3112.7325,N,12136.4339,E,1,06,6.2,19.5,M,,,,0000*23
$GNRMC,065503.000,A,3112.7325,N,12136.4339,E,3.71,281.62,220519,,*17
$GPGSA,A,3,01,11,17,18,19,28,,,,,,,6.6,6.2,2.3*3B
$BDGSA,A,3,,,,,,,,,,,,,6.6,6.2,2.3*26
$GPGSV,2,1,06,01,60,033,47,11,47,040,35,17,30,294,43,18,33,041,42*7E
$GPGSV,2,2,06,19,12,280,36,28,57,326,42*72
$BDGSV,2,1,05,05,00,000,28,08,00,000,38,27,00,000,35,29,00,000,41*6F
$BDGSV,2,2,05,30,00,000,47*5D
$LOGTIM,1,-167.111712,0.000000,0.000000,0.000000,-62.463*3B
EndT:        2
---00000033--- Acq_st=3 2019-5-22 06:55:3 
[00]  G01  f 47   1593.9 2045997.9  1.0  1.0  5  0 284120931
[01]  G11  f 35   1661.1 2045997.7  1.0  1.0  5  0 284120929
[02]  G17  f 43  -1909.7 2046002.5  1.0  1.0  5  0 284120923
[03]  G18  f 42   2732.9 2045996.5  1.0  1.0  5  0 284120926
[04]  G19  f 35  -2724.0 2046003.6  1.0  1.1  5  0 284120918
[05]  G28  f 42  -2279.3 2046003.0  1.0  1.0  5  0 284120929
[16]  B05 1f 29   -344.7 4092000.9  0.9  0.0  2  0 284106866
[17]  B08 1f 39   -197.6 4092000.5  1.0  1.0  5  0 284106879
[18]  B27 1f 35   1836.4 4091995.2  1.0  1.0  5  0 284106914
[19]  B29 1f 41  -1420.8 4092003.7  1.0  1.0  5  0 284106922
[20]  B30 1f 47    602.3 4091998.4  1.0  1.0  5  0 284106925
lsq: nits= 2
$GNGGA,065504.000,3112.7317,N,12136.4340,E,1,06,6.2,19.1,M,,,,0000*2F
$GNRMC,065504.000,A,3112.7317,N,12136.4340,E,3.01,281.65,220519,,*1F
$GPGSA,A,3,01,11,17,18,19,28,,,,,,,6.6,6.2,2.3*3B
$BDGSA,A,3,,,,,,,,,,,,,6.6,6.2,2.3*26
$GPGSV,2,1,06,01,60,033,47,11,47,040,35,17,30,294,43,18,33,041,42*7E
$GPGSV,2,2,06,19,12,280,35,28,57,326,42*71
$BDGSV,2,1,05,05,00,000,29,08,00,000,39,27,00,000,35,29,00,000,41*6F
$BDGSV,2,2,05,30,00,000,47*5D
$LOGTIM,1,-229.112600,0.000000,0.000000,0.000000,-62.130*30
EndT:        2
---00000034--- Acq_st=3 2019-5-22 06:55:4 
[00]  G01  f 47   1595.1 2045998.0  1.0  1.0  5  0 284121931
[01]  G11  f 34   1663.2 2045997.9  1.0  1.0  5  0 284121929
[02]  G17  f 43  -1908.5 2046002.5  1.0  1.0  5  0 284121923
[03]  G18  f 41   2734.4 2045996.4  1.0  1.0  5  0 284121926
[04]  G19  f 34  -2722.3 2046003.5  1.0  0.9  5  0 284121918
[05]  G28  f 41  -2278.3 2046003.0  1.0  1.0  5  0 284121929
[16]  B05 1f 28   -344.2 4092001.0  0.8  0.0  2  0 284107866
[17]  B08 1f 39   -197.3 4092000.5  1.0  1.0  5  0 284107879
[18]  B27 1f 35   1837.1 4091995.2  1.0  1.0  5  0 284107914
[19]  B29 1f 41  -1419.9 4092003.7  1.0  1.0  5  0 284107922
[20]  B30 1f 46    603.1 4091998.4  1.0  1.0  5  0 284107925
lsq: nits= 2
$GNGGA,065505.000,3112.7279,N,12136.4345,E,1,06,6.2,19.7,M,,,,0000*24
$GNRMC,065505.000,A,3112.7279,N,12136.4345,E,3.46,280.44,220519,,*13
$GPGSA,A,3,01,11,17,18,19,28,,,,,,,6.7,6.2,2.3*3A
$BDGSA,A,3,,,,,,,,,,,,,6.7,6.2,2.3*27
$GPGSV,2,1,06,01,60,033,47,11,47,040,34,17,30,294,43,18,33,041,41*7C
$GPGSV,2,2,06,19,12,280,34,28,57,326,41*73
$BDGSV,2,1,05,05,00,000,28,08,00,000,39,27,00,000,35,29,00,000,41*6E
$BDGSV,2,2,05,30,00,000,46*5C
$LOGTIM,1,-293.768898,0.000000,0.000000,0.000000,-62.213*37
EndT:        2
---00000035--- Acq_st=3 2019-5-22 06:55:5 
[00]  G01  f 47   1594.7 2045997.9  1.0  1.0  5  0 284122931
[01]  G11  f 36   1661.7 2045997.8  1.0  1.0  5  0 284122929
[02]  G17  f 44  -1909.8 2046002.5  1.0  1.0  5  0 284122923
[03]  G18  f 43   2732.8 2045996.5  1.0  1.0  5  0 284122926
[04]  G19  f 36  -2722.4 2046003.6  1.0  1.0  5  0 284122918
[05]  G28  f 42  -2278.6 2046002.9  1.0  1.0  5  0 284122929
[16]  B05 1f 29   -343.8 4092000.9  0.9  0.0  2  0 284108866
[17]  B08 1f 39   -197.4 4092000.5  1.0  1.0  5  0 284108879
[18]  B27 1f 36   1835.4 4091995.2  1.0  1.0  5  0 284108914
[19]  B29 1f 41  -1420.2 4092003.7  1.0  1.0  5  0 284108922
[20]  B30 1f 47    602.3 4091998.4  1.0  1.0  5  0 284108925
lsq: nits= 2
$GNGGA,065506.000,3112.7272,N,12136.4347,E,1,06,6.3,19.4,M,,,,0000*2C
$GNRMC,065506.000,A,3112.7272,N,12136.4347,E,2.67,281.06,220519,,*1C
$GPGSA,A,3,01,11,17,18,19,28,,,,,,,6.7,6.3,2.3*3B
$BDGSA,A,3,,,,,,,,,,,,,6.7,6.3,2.3*26
$GPGSV,2,1,06,01,60,033,47,11,47,040,36,17,30,294,44,18,33,041,43*7B
$GPGSV,2,2,06,19,12,280,36,28,57,326,42*72
$BDGSV,2,1,05,05,00,000,29,08,00,000,39,27,00,000,36,29,00,000,41*6C
$BDGSV,2,2,05,30,00,000,47*5D
$LOGTIM,1,-355.860325,0.000000,0.000000,0.000000,-62.211*34
EndT:        2
---00000036--- Acq_st=3 2019-5-22 06:55:6 
[00]  G01  f 47   1593.5 2045997.9  1.0  1.0  5  0 284123931
[01]  G11  f 36   1660.0 2045997.8  1.0  1.0  5  0 284123929
[02]  G17  f 44  -1910.9 2046002.5  1.0  1.0  5  0 284123923
[03]  G18  f 43   2732.2 2045996.5  1.0  1.0  5  0 284123926
[04]  G19  f 36  -2723.8 2046003.5  1.0  1.0  5  0 284123918
[05]  G28  f 42  -2279.9 2046003.0  1.0  1.0  5  0 284123929
[16]  B05 1f 27   -345.6 4092001.0  0.8  0.0  2  0 284109866
[17]  B08 1f 39   -198.6 4092000.5  1.0  1.0  5  0 284109879
[18]  B27 1f 36   1833.9 4091995.2  1.0  1.0  5  0 284109914
[19]  B29 1f 41  -1421.9 4092003.8  1.0  1.0  5  0 284109922
[20]  B30 1f 46    600.9 4091998.4  1.0  1.0  5  0 284109925
lsq: nits= 2
$GNGGA,065507.000,3112.7262,N,12136.4350,E,1,06,6.3,19.1,M,,,,0000*2F
$GNRMC,065507.000,A,3112.7262,N,12136.4350,E,2.49,283.25,220519,,*15
$GPGSA,A,3,01,11,17,18,19,28,,,,,,,6.7,6.3,2.3*3B
$BDGSA,A,3,,,,,,,,,,,,,6.7,6.3,2.3*26
$GPGSV,2,1,06,01,60,033,47,11,47,040,36,17,30,294,44,18,33,041,43*7B
$GPGSV,2,2,06,19,12,280,36,28,57,326,42*72
$BDGSV,2,1,05,05,00,000,27,08,00,000,39,27,00,000,36,29,00,000,41*62
$BDGSV,2,2,05,30,00,000,46*5C
$LOGTIM,1,-418.148536,0.000000,0.000000,0.000000,-62.153*38
EndT:        2
---00000037--- Acq_st=3 2019-5-22 06:55:7 
[00]  G01  f 47   1593.4 2045997.9  1.0  1.0  5  0 284124931
[01]  G11  f 37   1660.3 2045997.8  1.0  1.0  5  0 284124929
[02]  G17  f 44  -1911.5 2046002.5  1.0  1.0  5  0 284124923
[03]  G18  f 43   2731.7 2045996.5  1.0  1.0  5  0 284124926
[04]  G19  f 36  -2725.1 2046003.6  1.0  1.0  5  0 284124918
[05]  G28  f 42  -2280.4 2046002.9  1.0  1.0  5  0 284124929
[16]  B05 1f 28   -347.5 4092000.8  0.7  0.0  2  0 284110866
[17]  B08 1f 39   -199.7 4092000.5  1.0  1.0  5  0 284110879
[18]  B27 1f 36   1834.0 4091995.1  1.0  1.0  5  0 284110914
[19]  B29 1f 41  -1422.3 4092003.7  1.0  1.0  5  0 284110922
[20]  B30 1f 46    600.3 4091998.4  1.0  1.0  5  0 284110925
lsq: nits= 2
$GNGGA,065508.000,3112.7249,N,12136.4354,E,1,06,6.3,18.7,M,,,,0000*2A
$GNRMC,065508.000,A,3112.7249,N,12136.4354,E,1.98,281.06,220519,,*1B
$GPGSA,A,3,01,11,17,18,19,28,,,,,,,6.7,6.3,2.3*3B
$BDGSA,A,3,,,,,,,,,,,,,6.7,6.3,2.3*26
$GPGSV,2,1,06,01,60,033,47,11,47,040,37,17,30,294,44,18,33,041,43*7A
$GPGSV,2,2,06,19,12,280,36,28,57,326,42*72
$BDGSV,2,1,05,05,00,000,28,08,00,000,39,27,00,000,36,29,00,000,41*6D
$BDGSV,2,2,05,30,00,000,46*5C
$LOGTIM,1,-481.064726,0.000000,0.000000,0.000000,-62.305*35
EndT:        2
---00000038--- Acq_st=3 2019-5-22 06:55:8 
[00]  G01  f 47   1592.2 2045997.9  1.0  1.0  5  0 284125931
[01]  G11  f 37   1659.3 2045997.8  1.0  0.9  5  0 284125929
[02]  G17  f 44  -1912.9 2046002.5  1.0  1.0  5  0 284125923
[03]  G18  f 43   2730.8 2045996.5  1.0  1.0  5  0 284125926
[04]  G19  f 36  -2726.9 2046003.6  1.0  1.0  5  0 284125918
[05]  G28  f 43  -2281.9 2046002.9  1.0  1.0  5  0 284125929
[16]  B05 1f 27   -348.6 4092000.7  0.8  0.0  2  0 284111866
[17]  B08 1f 39   -201.0 4092000.5  1.0  1.0  5  0 284111879
[18]  B27 1f 36   1832.9 4091995.2  1.0  1.0  5  0 284111914
[19]  B29 1f 41  -1423.7 4092003.7  1.0  1.0  5  0 284111922
[20]  B30 1f 46    598.7 4091998.4  1.0  1.0  5  0 284111925
lsq: nits= 2
$GNGGA,065509.000,3112.7236,N,12136.4357,E,1,06,6.3,18.4,M,,,,0000*23
$GNRMC,065509.000,A,3112.7236,N,12136.4357,E,1.81,281.06,220519,,*19
$GPGSA,A,3,01,11,17,18,19,28,,,,,,,6.7,6.3,2.3*3B
$BDGSA,A,3,,,,,,,,,,,,,6.7,6.3,2.3*26
$GPGSV,2,1,06,01,60,033,46,11,47,040,37,17,30,294,44,18,33,041,43*7B
$GPGSV,2,2,06,19,12,280,36,28,57,326,43*73
$BDGSV,2,1,05,05,00,000,27,08,00,000,39,27,00,000,36,29,00,000,41*62
$BDGSV,2,2,05,30,00,000,46*5C
$LOGTIM,1,-544.412297,0.000000,0.000000,0.000000,-62.421*36
EndT:        2
---00000039--- Acq_st=3 2019-5-22 06:55:9 
[00]  G01  f 46   1592.1 2045998.0  1.0  1.0  5  0 284126931
[01]  G11  f 38   1658.9 2045997.9  1.0  1.0  5  0 284126929
[02]  G17  f 44  -1913.5 2046002.5  1.0  1.0  5  0 284126923
[03]  G18  f 43   2730.2 2045996.5  1.0  1.0  5  0 284126926
[04]  G19  f 35  -2726.9 2046003.6  1.0  1.0  5  0 284126918
[05]  G28  f 42  -2282.1 2046002.9  1.0  1.0  5  0 284126929
[16]  B05 1f 29   -349.1 4092000.9  0.8  0.0  2  0 284112866
[17]  B08 1f 39   -201.7 4092000.5  1.0  1.0  5  0 284112879
[18]  B27 1f 35   1831.7 4091995.1  1.0  0.9  5  0 284112914
[19]  B29 1f 41  -1424.0 4092003.7  1.0  1.0  5  0 284112922
[20]  B30 1f 46    598.3 4091998.4  1.0  1.0  5  0 284112925
lsq: nits= 2
$GNGGA,065510.000,3112.7218,N,12136.4361,E,1,06,6.3,18.2,M,,,,0000*24
$GNRMC,065510.000,A,3112.7218,N,12136.4361,E,2.05,280.23,220519,,*11
$GPGSA,A,3,01,11,17,18,19,28,,,,,,,6.7,6.3,2.3*3B
$BDGSA,A,3,,,,,,,,,,,,,6.7,6.3,2.3*26
$GPGSV,2,1,06,01,60,033,46,11,47,040,38,17,30,294,44,18,33,041,43*74
$GPGSV,2,2,06,19,12,280,35,28,57,326,42*71
$BDGSV,2,1,05,05,00,000,29,08,00,000,39,27,00,000,35,29,00,000,41*6F
$BDGSV,2,2,05,30,00,000,46*5C
$LOGTIM,1,-608.324342,0.000000,0.000000,0.000000,-62.524*32
EndT:        2
---00000040--- Acq_st=7 2019-5-22 06:55:10 
[00]  G01  f 46   1594.8 2045997.9  1.0  1.0  5  0 284127931
[01]  G11  f 38   1660.4 2045997.8  1.0  1.0  5  0 284127929
[02]  G17  f 44  -1911.4 2046002.5  1.0  1.0  5  0 284127923
[03]  G18  f 43   2732.4 2045996.5  1.0  1.0  5  0 284127926
[04]  G19  f 35  -2724.6 2046003.6  1.0  1.0  5  0 284127918
[05]  G28  f 42  -2279.4 2046003.0  1.0  1.0  5  0 284127929
[16]  B05 1f 29   -346.7 4092000.7  0.8  0.0  2  0 284113866
[17]  B08 1f 39   -198.7 4092000.5  1.0  1.0  5  0 284113879
[18]  B27 1f 35   1833.5 4091995.3  1.0  1.0  5  0 284113914
[19]  B29 1f 41  -1421.7 4092003.7  1.0  1.0  5  0 284113922
[20]  B30 1f 46    600.7 4091998.4  1.0  1.0  5  0 284113925
lsq: nits= 2
$GNGGA,065511.000,3112.7199,N,12136.4364,E,1,06,6.3,18.4,M,,,,0000*2C
$GNRMC,065511.000,A,3112.7199,N,12136.4364,E,2.99,279.80,220519,,*15
$GPGSA,A,3,01,11,17,18,19,28,,,,,,,6.7,6.3,2.3*3B
$BDGSA,A,3,,,,,,,,,,,,,6.7,6.3,2.3*26
$GPGSV,2,1,06,01,60,033,46,11,47,040,38,17,30,294,44,18,33,041,43*74
$GPGSV,2,2,06,19,12,280,35,28,57,326,42*71
$BDGSV,2,1,05,05,00,000,29,08,00,000,39,27,00,000,35,29,00,000,41*6F
$BDGSV,2,2,05,30,00,000,46*5C
$LOGTIM,1,-671.817399,0.000000,0.000000,0.000000,-62.241*35
EndT:        2
---00000041--- Acq_st=3 2019-5-22 06:55:11 
[00]  G01  f 45   1598.7 2045998.0  1.0  1.0  5  0 284128931
[01]  G11  f 38   1664.7 2045997.9  1.0  1.0  5  0 284128929
[02]  G17  f 44  -1907.7 2046002.5  1.0  1.0  5  0 284128923
[03]  G18  f 43   2736.4 2045996.4  1.0  1.0  5  0 284128926
[04]  G19  f 35  -2721.1 2046003.5  1.0  1.0  5  0 284128918
[05]  G28  f 42  -2275.7 2046002.9  1.0  1.0  5  0 284128929
[16]  B05 1f 30   -343.2 4092001.1  0.8  0.0  2  0 284114866
[17]  B08 1f 39   -195.5 4092000.5  1.0  1.0  5  0 284114879
[18]  B27 1f 35   1838.0 4091995.2  1.0  0.9  5  0 284114914
[19]  B29 1f 41  -1418.3 4092003.7  1.0  1.0  5  0 284114922
[20]  B30 1f 46    604.4 4091998.4  1.0  1.0  5  0 284114925
lsq: nits= 2
$GNGGA,065512.000,3112.7172,N,12136.4373,E,1,06,6.3,19.4,M,,,,0000*2D
$GNRMC,065512.000,A,3112.7172,N,12136.4373,E,3.46,280.43,220519,,*1F
$GPGSA,A,3,01,11,17,18,19,28,,,,,,,6.7,6.3,2.3*3B
$BDGSA,A,3,,,,,,,,,,,,,6.7,6.3,2.3*26
$GPGSV,2,1,06,01,60,033,45,11,47,040,38,17,30,294,44,18,33,041,43*77
$GPGSV,2,2,06,19,12,280,35,28,57,326,42*71
$BDGSV,2,1,05,05,00,000,30,08,00,000,39,27,00,000,35,29,00,000,41*67
$BDGSV,2,2,05,30,00,000,46*5C
$LOGTIM,1,-735.863073,0.000000,0.000000,0.000000,-62.238*3E
EndT:        2
---00000042--- Acq_st=3 2019-5-22 06:55:12 
[00]  G01  f 45   1596.9 2045998.0  1.0  1.0  5  0 284129931
[01]  G11  f 38   1663.2 2045997.8  1.0  1.0  5  0 284129929
[02]  G17  f 44  -1910.0 2046002.5  1.0  1.0  5  0 284129923
[03]  G18  f 43   2734.5 2045996.5  1.0  1.0  5  0 284129926
[04]  G19  f 36  -2723.0 2046003.5  1.0  0.9  5  0 284129918
[05]  G28  f 41  -2277.3 2046003.0  1.0  1.0  5  0 284129929
[16]  B05 1f 28   -345.5 4092001.0  0.8  0.0  2  0 284115866
[17]  B08 1f 39   -198.2 4092000.5  1.0  1.0  5  0 284115879
[18]  B27 1f 35   1835.4 4091995.2  1.0  1.0  5  0 284115914
[19]  B29 1f 40  -1420.2 4092003.8  1.0  1.0  5  0 284115922
[20]  B30 1f 45    602.0 4091998.4  1.0  1.0  5  0 284115925
lsq: nits= 2
$GNGGA,065513.000,3112.7143,N,12136.4380,E,1,06,6.3,20.9,M,,,,0000*25
$GNRMC,065513.000,A,3112.7143,N,12136.4380,E,3.59,280.72,220519,,*1C
$GPGSA,A,3,01,11,17,18,19,28,,,,,,,6.7,6.3,2.3*3B
$BDGSA,A,3,,,,,,,,,,,,,6.7,6.3,2.3*26
$GPGSV,2,1,06,01,60,033,45,11,47,040,38,17,30,294,44,18,33,041,43*77
$GPGSV,2,2,06,19,12,280,36,28,57,326,41*71
$BDGSV,2,1,05,05,00,000,28,08,00,000,39,27,00,000,35,29,00,000,40*6F
$BDGSV,2,2,05,30,00,000,45*5F
$LOGTIM,1,-799.861461,0.000000,0.000000,0.000000,-62.340*33
EndT:        2
---00000043--- Acq_st=3 2019-5-22 06:55:13 
[00]  G01  f 45   1597.8 2045997.9  1.0  1.0  5  0 284130931
[01]  G11  f 38   1663.4 2045997.9  1.0  1.0  5  0 284130929
[02]  G17  f 44  -1909.2 2046002.5  1.0  1.0  5  0 284130923
[03]  G18  f 43   2735.4 2045996.4  1.0  1.0  5  0 284130926
[04]  G19  f 36  -2722.5 2046003.5  1.0  1.0  5  0 284130918
[05]  G28  f 42  -2276.9 2046003.0  1.0  1.0  5  0 284130929
[16]  B05 1f 28   -346.5 4092000.6  0.8  0.0  2  0 284116866
[17]  B08 1f 39   -197.4 4092000.5  1.0  1.0  5  0 284116879
[18]  B27 1f 35   1835.8 4091995.2  1.0  1.0  5  0 284116914
[19]  B29 1f 40  -1419.4 4092003.7  1.0  1.0  5  0 284116922
[20]  B30 1f 46    602.8 4091998.4  1.0  1.0  5  0 284116925
lsq: nits= 2
$GNGGA,065514.000,3112.7113,N,12136.4386,E,1,06,6.3,22.6,M,,,,0000*2C
$GNRMC,065514.000,A,3112.7113,N,12136.4386,E,4.23,280.05,220519,,*12
$GPGSA,A,3,01,11,17,18,19,28,,,,,,,6.7,6.3,2.3*3B
$BDGSA,A,3,,,,,,,,,,,,,6.7,6.3,2.3*26
$GPGSV,2,1,06,01,60,033,45,11,47,040,38,17,30,294,44,18,33,041,43*77
$GPGSV,2,2,06,19,12,280,36,28,57,326,42*72
$BDGSV,2,1,05,05,00,000,28,08,00,000,39,27,00,000,35,29,00,000,40*6F
$BDGSV,2,2,05,30,00,000,46*5C
$LOGTIM,1,-863.685010,0.000000,0.000000,0.000000,-62.242*3C
EndT:        2
---00000044--- Acq_st=3 2019-5-22 06:55:14 
[00]  G01  f 45   1599.7 2045997.9  1.0  1.0  5  0 284131931
[01]  G11  f 38   1665.5 2045997.9  1.0  1.0  5  0 284131929
[02]  G17  f 44  -1908.0 2046002.5  1.0  1.0  5  0 284131923
[03]  G18  f 43   2736.5 2045996.4  1.0  1.0  5  0 284131926
[04]  G19  f 37  -2721.2 2046003.5  1.0  0.9  5  0 284131918
[05]  G28  f 41  -2275.1 2046003.0  1.0  1.0  5  0 284131929
[16]  B05 1f 27   -343.3 4092000.9  0.7  0.0  2  0 284117866
[17]  B08 1f 39   -195.7 4092000.4  1.0  1.0  5  0 284117879
[18]  B27 1f 36   1837.0 4091995.2  1.0  1.0  5  0 284117914
[19]  B29 1f 40  -1418.0 4092003.7  1.0  1.0  5  0 284117922
[20]  B30 1f 45    604.4 4091998.4  1.0  1.0  5  0 284117925
lsq: nits= 2
$GNGGA,065515.000,3112.7075,N,12136.4390,E,1,10,6.3,23.0,M,,,,0000*2B
$GNRMC,065515.000,A,3112.7075,N,12136.4390,E,4.43,280.56,220519,,*15
$GPGSA,A,3,01,11,17,18,19,28,,,,,,,6.7,6.3,2.3*3B
$BDGSA,A,3,08,27,29,30,,,,,,,,,6.7,6.3,2.3*23
$GPGSV,2,1,06,01,60,033,45,11,47,040,38,17,30,294,44,18,33,041,43*77
$GPGSV,2,2,06,19,12,280,37,28,57,326,41*70
$BDGSV,2,1,05,05,00,000,27,08,00,000,39,27,00,000,36,29,00,000,40*63
$BDGSV,2,2,05,30,00,000,45*5F
$LOGTIM,3,-927.787155,-1039.507476,0.000000,0.000000,-62.235*2D
EndT:        2
---00000045--- Acq_st=3 2019-5-22 06:55:15 
[00]  G01  f 44   1601.1 2045997.9  1.0  1.0  5  0 284132931
[01]  G11  f 38   1666.5 2045997.9  1.0  1.0  5  0 284132929
[02]  G17  f 44  -1907.1 2046002.5  1.0  1.0  5  0 284132923
[03]  G18  f 43   2737.8 2045996.5  1.0  1.0  5  0 284132926
[04]  G19  f 36  -2720.6 2046003.5  1.0  0.9  5  0 284132918
[05]  G28  f 40  -2274.4 2046002.9  1.0  1.0  5  0 284132929
[16]  B05 1f 28   -342.6 4092001.0  0.7  0.0  2  0 284118866
[17]  B08 1f 40   -194.4 4092000.5  1.0  1.0  5  0 284118879
[18]  B27 1f 35   1837.9 4091995.2  1.0  1.0  5  0 284118914
[19]  B29 1f 40  -1416.9 4092003.7  1.0  1.0  5  0 284118922
[20]  B30 1f 46    605.4 4091998.4  1.0  1.0  5  0 284118925
lsq: nits= 2
$GNGGA,065516.000,3112.7291,N,12136.4359,E,1,10,2.3,42.9,M,,,,0000*2F
$GNRMC,065516.000,A,3112.7291,N,12136.4359,E,3.12,282.27,220519,,*1C
$GPGSA,A,3,01,11,17,18,19,28,,,,,,,2.5,2.3,1.0*39
$BDGSA,A,3,08,27,29,30,,,,,,,,,2.5,2.3,1.0*21
$GPGSV,2,1,06,01,60,033,44,11,47,040,38,17,30,294,44,18,33,041,43*76
$GPGSV,2,2,06,19,12,280,36,28,57,326,40*70
$BDGSV,2,1,05,05,00,000,28,08,71,273,40,27,12,064,35,29,43,291,40*6D
$BDGSV,2,2,05,30,55,023,46*5D
$LOGTIM,3,-961.824937,-1144.203176,0.000000,0.000000,-61.669*26
EndT:        3
---00000046--- Acq_st=3 2019-5-22 06:55:16 
[00]  G01  f 44   1602.8 2045997.9  1.0  1.0  5  0 284133931
[01]  G11  f 37   1668.3 2045997.9  1.0  1.0  5  0 284133929
[02]  G17  f 44  -1905.6 2046002.5  1.0  1.0  5  0 284133923
[03]  G18  f 43   2739.4 2045996.4  1.0  1.0  5  0 284133926
[04]  G19  f 35  -2718.9 2046003.6  1.0  1.0  5  0 284133918
[05]  G28  f 40  -2272.5 2046003.0  1.0  1.0  5  0 284133929
[16]  B05 1f 29   -341.4 4092000.9  0.9  0.0  2  0 284119866
[17]  B08 1f 40   -193.0 4092000.5  1.0  1.0  5  0 284119879
[18]  B27 1f 35   1839.6 4091995.3  1.0  1.0  5  0 284119914
[19]  B29 1f 40  -1415.6 4092003.7  1.0  1.0  5  0 284119922
[20]  B30 1f 45    606.8 4091998.4  1.0  1.0  5  0 284119925
lsq: nits= 2
$GNGGA,065517.000,3112.7213,N,12136.4362,E,1,10,2.3,40.9,M,,,,0000*2E
$GNRMC,065517.000,A,3112.7213,N,12136.4362,E,3.12,280.63,220519,,*1D
$GPGSA,A,3,01,11,17,18,19,28,,,,,,,2.5,2.3,1.0*39
$BDGSA,A,3,08,27,29,30,,,,,,,,,2.5,2.3,1.0*21
$GPGSV,2,1,06,01,60,033,44,11,47,040,37,17,30,294,44,18,33,041,43*79
$GPGSV,2,2,06,19,12,280,35,28,57,326,40*73
$BDGSV,2,1,05,05,00,000,29,08,71,273,40,27,12,064,35,29,43,291,40*6C
$BDGSV,2,2,05,30,55,023,45*5E
$LOGTIM,3,-1028.944344,-1196.460724,0.000000,0.000000,-61.342*1B
EndT:        3
---00000047--- Acq_st=3 2019-5-22 06:55:17 
[00]  G01  f 44   1603.9 2045997.9  1.0  1.0  5  0 284134931
[01]  G11  f 37   1669.5 2045997.9  1.0  1.0  5  0 284134929
[02]  G17  f 44  -1905.1 2046002.5  1.0  1.0  5  0 284134923
[03]  G18  f 44   2740.1 2045996.5  1.0  1.0  5  0 284134926
[04]  G19  f 35  -2718.7 2046003.5  1.0  0.9  5  0 284134918
[05]  G28  f 40  -2271.4 2046002.9  1.0  1.0  5  0 284134929
[16]  B05 1f 29   -340.5 4092000.8  0.7  0.0  2  0 284120866
[17]  B08 1f 39   -192.3 4092000.5  1.0  1.0  5  0 284120879
[18]  B27 1f 36   1839.5 4091995.2  1.0  1.0  5  0 284120914
[19]  B29 1f 40  -1414.7 4092003.7  1.0  1.0  5  0 284120922
[20]  B30 1f 45    607.6 4091998.4  1.0  1.0  5  0 284120925
lsq: nits= 2
$GNGGA,065518.000,3112.7183,N,12136.4361,E,1,10,2.3,41.0,M,,,,0000*20
$GNRMC,065518.000,A,3112.7183,N,12136.4361,E,2.39,280.58,220519,,*1B
$GPGSA,A,3,01,11,17,18,19,28,,,,,,,2.5,2.3,1.0*39
$BDGSA,A,3,08,27,29,30,,,,,,,,,2.5,2.3,1.0*21
$GPGSV,2,1,06,01,60,033,44,11,47,040,37,17,30,294,44,18,33,041,44*7E
$GPGSV,2,2,06,19,12,280,35,28,57,326,40*73
$BDGSV,2,1,05,05,00,000,29,08,71,273,39,27,12,064,36,29,43,291,40*61
$BDGSV,2,2,05,30,55,023,45*5E
$LOGTIM,3,-1091.433906,-1252.584023,0.000000,0.000000,-61.275*1D
EndT:        3
---00000048--- Acq_st=3 2019-5-22 06:55:18 
[00]  G01  f 43   1602.8 2045997.9  1.0  1.0  5  0 284135931
[01]  G11  f 36   1667.3 2045997.9  1.0  1.0  5  0 284135929
[02]  G17  f 44  -1906.1 2046002.5  1.0  1.0  5  0 284135923
[03]  G18  f 44   2738.8 2045996.5  1.0  1.0  5  0 284135926
[04]  G19  f 34  -2720.3 2046003.6  1.0  0.9  5  0 284135918
[05]  G28  f 39  -2273.4 2046003.0  1.0  1.0  5  0 284135929
[16]  B05 1f 28   -342.0 4092000.9  0.8  0.0  2  0 284121866
[17]  B08 1f 40   -194.4 4092000.5  1.0  1.0  5  0 284121879
[18]  B27 1f 35   1838.4 4091995.1  1.0  0.9  5  0 284121914
[19]  B29 1f 40  -1416.7 4092003.8  1.0  1.0  5  0 284121922
[20]  B30 1f 45    605.9 4091998.4  1.0  1.0  5  0 284121925
lsq: nits= 2
$GNGGA,065519.000,3112.7159,N,12136.4364,E,1,10,2.3,40.4,M,,,,0000*26
$GNRMC,065519.000,A,3112.7159,N,12136.4364,E,2.17,281.36,220519,,*1D
$GPGSA,A,3,01,11,17,18,19,28,,,,,,,2.5,2.3,1.0*39
$BDGSA,A,3,08,27,29,30,,,,,,,,,2.5,2.3,1.0*21
$GPGSV,2,1,06,01,60,033,43,11,47,040,36,17,30,294,44,18,33,041,44*78
$GPGSV,2,2,06,19,12,280,34,28,57,326,39*7C
$BDGSV,2,1,05,05,00,000,28,08,71,273,40,27,12,064,35,29,43,291,40*6D
$BDGSV,2,2,05,30,55,023,45*5E
$LOGTIM,3,-1154.173073,-1312.356386,0.000000,0.000000,-61.166*1E
EndT:        3
---00000049--- Acq_st=3 2019-5-22 06:55:19 
[00]  G01  f 43   1605.4 2045997.9  1.0  1.0  5  0 284136931
[01]  G11  f 37   1670.0 2045997.8  1.0  1.0  5  0 284136929
[02]  G17  f 44  -1904.3 2046002.5  1.0  1.0  5  0 284136923
[03]  G18  f 43   2741.4 2045996.4  1.0  1.0  5  0 284136926
[04]  G19  f 34  -2718.0 2046003.5  1.0  0.9  5  0 284136918
[05]  G28  f 39  -2269.7 2046003.0  1.0  1.0  5  0 284136929
[16]  B05 1f 29   -339.3 4092000.7  0.8  0.0  2  0 284122866
[17]  B08 1f 40   -192.3 4092000.5  1.0  1.0  5  0 284122879
[18]  B27 1f 36   1840.2 4091995.2  1.0  0.9  5  0 284122914
[19]  B29 1f 40  -1414.6 4092003.7  1.0  1.0  5  0 284122922
[20]  B30 1f 45    608.1 4091998.4  1.0  1.0  5  0 284122925
lsq: nits= 2
$GNGGA,065520.000,3112.7151,N,12136.4361,E,1,10,2.3,42.1,M,,,,0000*26
$GNRMC,065520.000,A,3112.7151,N,12136.4361,E,1.73,281.36,220519,,*1B
$GPGSA,A,3,01,11,17,18,19,28,,,,,,,2.5,2.3,1.0*39
$BDGSA,A,3,08,27,29,30,,,,,,,,,2.5,2.3,1.0*21
$GPGSV,2,1,06,01,60,033,43,11,47,040,37,17,30,294,44,18,33,041,43*7E
$GPGSV,2,2,06,19,12,280,34,28,57,326,39*7C
$BDGSV,2,1,05,05,00,000,29,08,71,273,40,27,12,064,36,29,43,291,40*6F
$BDGSV,2,2,05,30,55,023,45*5E
$LOGTIM,3,-1214.495359,-1370.843585,0.000000,0.000000,-60.973*1C
EndT:        3
---00000050--- Acq_st=3 2019-5-22 06:55:20 
[00]  G01  f 43   1604.5 2045997.9  1.0  1.0  5  0 284137931
[01]  G11  f 37   1668.9 2045997.8  1.0  1.0  5  0 284137929
[02]  G17  f 44  -1905.6 2046002.5  1.0  1.0  5  0 284137923
[03]  G18  f 44   2740.3 2045996.5  1.0  1.0  5  0 284137926
[04]  G19  f 35  -2719.6 2046003.5  1.0  1.0  5  0 284137918
[05]  G28  f 38  -2271.2 2046002.9  1.0  0.9  5  0 284137929
[16]  B05 1f 28   -342.0 4092000.9  0.8  0.0  2  0 284123866
[17]  B08 1f 39   -193.2 4092000.5  1.0  1.0  5  0 284123879
[18]  B27 1f 37   1838.4 4091995.2  1.0  1.0  5  0 284123914
[19]  B29 1f 40  -1415.3 4092003.7  1.0  1.0  5  0 284123922
[20]  B30 1f 45    607.0 4091998.4  1.0  1.0  5  0 284123925
lsq: nits= 2
$GNGGA,065521.000,3112.7145,N,12136.4359,E,1,10,2.3,43.8,M,,,,0000*21
$GNRMC,065521.000,A,3112.7145,N,12136.4359,E,1.26,281.36,220519,,*14
$GPGSA,A,3,01,11,17,18,19,28,,,,,,,2.5,2.3,1.0*39
$BDGSA,A,3,08,27,29,30,,,,,,,,,2.5,2.3,1.0*21
$GPGSV,2,1,06,01,60,033,43,11,47,040,37,17,30,294,44,18,33,041,44*79
$GPGSV,2,2,06,19,12,280,35,28,57,326,38*7C
$BDGSV,2,1,05,05,00,000,28,08,71,273,39,27,12,064,37,29,43,291,40*61
$BDGSV,2,2,05,30,55,023,45*5E
$LOGTIM,3,-1275.145112,-1430.111427,0.000000,0.000000,-61.019*1E
EndT:        3
---00000051--- Acq_st=3 2019-5-22 06:55:21 
[00]  G01  f 43   1604.2 2045997.9  1.0  1.0  5  0 284138931
[01]  G11  f 38   1668.3 2045997.9  1.0  1.0  5  0 284138929
[02]  G17  f 44  -1906.3 2046002.5  1.0  1.0  5  0 284138923
[03]  G18  f 43   2739.3 2045996.4  1.0  1.0  5  0 284138926
[04]  G19  f 35  -2719.9 2046003.5  1.0  1.0  5  0 284138918
[05]  G28  f 37  -2271.6 2046003.0  1.0  1.0  5  0 284138929
[16]  B05 1f 26   -342.4 4092001.0  0.8  0.0  2  0 284124866
[17]  B08 1f 40   -193.6 4092000.5  1.0  1.0  5  0 284124879
[18]  B27 1f 36   1837.3 4091995.2  1.0  1.0  5  0 284124914
[19]  B29 1f 41  -1415.8 4092003.6  1.0  1.0  5  0 284124922
[20]  B30 1f 44    606.4 4091998.4  1.0  1.0  5  0 284124925
lsq: nits= 2
$GNGGA,065522.000,3112.7134,N,12136.4361,E,1,10,2.3,44.8,M,,,,0000*28
$GNRMC,065522.000,A,3112.7134,N,12136.4361,E,1.08,281.36,220519,,*16
$GPGSA,A,3,01,11,17,18,19,28,,,,,,,2.5,2.3,1.0*39
$BDGSA,A,3,08,27,29,30,,,,,,,,,2.5,2.3,1.0*21
$GPGSV,2,1,06,01,59,033,43,11,47,040,38,17,30,295,44,18,32,041,43*7B
$GPGSV,2,2,06,19,12,280,35,28,57,326,37*73
$BDGSV,2,1,05,05,00,000,26,08,71,273,40,27,12,064,36,29,43,291,41*61
$BDGSV,2,2,05,30,55,023,44*5F
$LOGTIM,3,-1336.894322,-1490.870878,0.000000,0.000000,-60.997*10
EndT:        3
---00000052--- Acq_st=3 2019-5-22 06:55:22 
[00]  G01  f 43   1604.4 2045997.9  1.0  1.0  5  0 284139931
[01]  G11  f 39   1668.5 2045997.8  1.0  1.0  5  0 284139929
[02]  G17  f 45  -1906.5 2046002.5  1.0  1.0  5  0 284139923
[03]  G18  f 43   2739.3 2045996.4  1.0  1.0  5  0 284139926
[04]  G19  f 35  -2720.1 2046003.5  1.0  0.9  5  0 284139918
[05]  G28  f 37  -2271.7 2046003.0  1.0  1.0  5  0 284139929
[16]  B05 1f 29   -343.4 4092001.0  0.8  0.0  2  0 284125866
[17]  B08 1f 39   -193.8 4092000.5  1.0  1.0  5  0 284125879
[18]  B27 1f 36   1837.6 4091995.2  1.0  0.9  5  0 284125913
[19]  B29 1f 42  -1415.5 4092003.6  1.0  1.0  5  0 284125922
[20]  B30 1f 44    606.2 4091998.4  1.0  1.0  5  0 284125925
lsq: nits= 2
$GNGGA,065523.000,3112.7201,N,12136.4366,E,1,10,2.3,54.8,M,,,,0000*2A
$GNRMC,065523.000,A,3112.7201,N,12136.4366,E,0.26,281.36,220519,,*18
$GPGSA,A,3,01,11,17,18,19,28,,,,,,,2.5,2.3,1.0*39
$BDGSA,A,3,08,27,29,30,,,,,,,,,2.5,2.3,1.0*21
$GPGSV,2,1,06,01,59,033,43,11,47,040,39,17,30,295,45,18,32,041,43*7B
$GPGSV,2,2,06,19,12,280,35,28,57,326,37*73
$BDGSV,2,1,05,05,00,000,29,08,71,273,39,27,12,064,36,29,43,291,42*63
$BDGSV,2,2,05,30,55,023,44*5F
$LOGTIM,3,-1390.288104,-1547.952959,0.000000,0.000000,-60.818*13
EndT:        3
---00000053--- Acq_st=3 2019-5-22 06:55:23 
[00]  G01  f 43   1603.6 2045997.9  1.0  1.0  5  0 284140931
[01]  G11  f 39   1667.4 2045997.8  1.0  1.0  5  0 284140929
[02]  G17  f 45  -1907.5 2046002.5  1.0  1.0  5  0 284140923
[03]  G18  f 42   2738.5 2045996.4  1.0  1.0  5  0 284140926
[04]  G19  f 35  -2721.4 2046003.5  1.0  1.0  5  0 284140918
[05]  G28  f 37  -2272.6 2046003.0  1.0  1.0  5  0 284140929
[16]  B05 1f 27   -342.8 4092000.7  0.7  0.0  2  0 284126866
[17]  B08 1f 39   -194.6 4092000.5  1.0  0.9  5  0 284126879
[18]  B27 1f 37   1836.8 4091995.2  1.0  1.0  5  0 284126913
[19]  B29 1f 42  -1416.8 4092003.7  1.0  1.0  5  0 284126922
[20]  B30 1f 44    605.3 4091998.4  1.0  1.0  5  0 284126925
lsq: nits= 2
$GNGGA,065524.000,3112.7184,N,12136.4369,E,1,10,2.3,55.6,M,,,,0000*23
$GNRMC,065524.000,A,3112.7184,N,12136.4369,E,0.23,281.36,220519,,*1B
$GPGSA,A,3,01,11,17,18,19,28,,,,,,,2.5,2.3,1.0*39
$BDGSA,A,3,08,27,29,30,,,,,,,,,2.5,2.3,1.0*21
$GPGSV,2,1,06,01,59,033,43,11,47,040,39,17,30,295,45,18,32,041,42*7A
$GPGSV,2,2,06,19,12,280,35,28,57,326,37*73
$BDGSV,2,1,05,05,00,000,27,08,71,273,39,27,12,064,37,29,43,291,42*6C
$BDGSV,2,2,05,30,55,023,44*5F
$LOGTIM,3,-1451.773167,-1608.182215,0.000000,0.000000,-60.932*1A
EndT:        3

