FlashID=0x1 0x20 0x18
BBram_blkflag1:  869: f796
FW Ver: 1.30  
GPS00 Init Dop:   5000, 40
GPS01 Init Dop:   5000, 40
GPS02 Init Dop:   5000, 40
GPS03 Init Dop:   5000, 40
GPS04 Init Dop:   5000, 40
GPS05 Init Dop:   5000, 40
GPS06 Init Dop:   5000, 40
GPS07 Init Dop:   5000, 40
GPS08 Init Dop:   5000, 40
GPS09 Init Dop:   5000, 40
GPS10 Init Dop:   5000, 40
GPS11 Init Dop:   5000, 40
GPS12 Init Dop:   5000, 40
GPS13 Init Dop:   5000, 40
GPS14 Init Dop:   5000, 40
GPS15 Init Dop:   5000, 40
GPS16 Init Dop:   5000, 40
GPS17 Init Dop:   5000, 40
GPS18 Init Dop:   5000, 40
GPS19 Init Dop:   5000, 40
GPS20 Init Dop:   5000, 40
GPS21 Init Dop:   5000, 40
GPS22 Init Dop:   5000, 40
GPS23 Init Dop:   5000, 40
GPS24 Init Dop:   5000, 40
GPS25 Init Dop:   5000, 40
GPS26 Init Dop:   5000, 40
GPS27 Init Dop:   5000, 40
GPS28 Init Dop:   5000, 40
GPS29 Init Dop:   5000, 40
GPS30 Init Dop:   5000, 40
GPS31 Init Dop:   5000, 40
BDS00 Init Dop:   5000, 40
BDS01 Init Dop:   5000, 40
BDS02 Init Dop:   5000, 40
BDS03 Init Dop:   5000, 40
BDS04 Init Dop:   5000, 40
BDS05 Init Dop:   5000, 40
BDS06 Init Dop:   5000, 40
BDS07 Init Dop:   5000, 40
BDS08 Init Dop:   5000, 40
BDS09 Init Dop:   5000, 40
BDS10 Init Dop:   5000, 40
BDS11 Init Dop:   5000, 40
BDS12 Init Dop:   5000, 40
BDS13 Init Dop:   5000, 40
BDS14 Init Dop:   5000, 40
BDS15 Init Dop:   5000, 40
BDS16 Init Dop:   5000, 40
BDS17 Init Dop:   5000, 40
BDS18 Init Dop:   5000, 40
BDS19 Init Dop:   5000, 40
BDS20 Init Dop:   5000, 40
BDS21 Init Dop:   5000, 40
BDS22 Init Dop:   5000, 40
BDS23 Init Dop:   5000, 40
BDS24 Init Dop:   5000, 40
BDS25 Init Dop:   5000, 40
BDS26 Init Dop:   5000, 40
BDS27 Init Dop:   5000, 40
BDS28 Init Dop:   5000, 40
BDS29 Init Dop:   5000, 40
BDS30 Init Dop:   5000, 40
BDS31 Init Dop:   5000, 40
good luck!
---00000001--- Acq_st=3 2019-5-22 06:55:59 
[00]  G01  1 22   1620.5 2045999.0  0.0  0.0  1  0         0
$GNGGA,000000.000,,,,,0,00,,,M,,,,0000*2B
$GNRMC,000000.000,A,,,,,,,000000,,*26
$GPGSA,A,1,,,,,,,,,,,,,,,*1E
$BDGSA,A,1,,,,,,,,,,,,,,,*0F
$LOGTIM,0,0.000000,0.000000,0.000000,0.000000,0.000*0A
EndT:        0
---00000002--- Acq_st=3 2019-5-22 06:56:0 
[00]  G01  7 28   1611.8 2045997.8  0.4  0.0 10  0        18
$GNGGA,000000.000,,,,,0,00,,,M,,,,0000*2B
$GNRMC,000000.000,A,,,,,,,000000,,*26
$GPGSA,A,1,,,,,,,,,,,,,,,*1E
$BDGSA,A,1,,,,,,,,,,,,,,,*0F
$GPGSV,1,1,01,01,00,000,28*43
$LOGTIM,0,0.000000,0.000000,0.000000,0.000000,0.000*0A
EndT:        0
---00000003--- Acq_st=3 2019-5-22 06:56:1 
[00]  G01  7 43   1615.6 2045997.8  1.0  1.0  5  0         2
[01]  G11  1 14   1698.9 2045999.1  0.0  0.0  1  0         0
$GNGGA,000000.000,,,,,0,00,,,M,,,,0000*2B
$GNRMC,000000.000,A,,,,,,,000000,,*26
$GPGSA,A,1,,,,,,,,,,,,,,,*1E
$BDGSA,A,1,,,,,,,,,,,,,,,*0F
$GPGSV,1,1,01,01,00,000,43*4E
$LOGTIM,0,0.000000,0.000000,0.000000,0.000000,0.000*0A
EndT:        0
---00000004--- Acq_st=3 2019-5-22 06:56:2 
[00]  G01  7 44   1625.0 2045997.8  1.0  1.0  5  0         2
[01]  G11  7 24   1672.7 2045997.7 -0.0  0.0 20  0         5
[02]  G17  1  7  -1925.7 2046004.6 -0.1  0.0  1  0         0
[03]  G18  1 13   2768.9 2045998.1  0.0  0.0  1  0         0
$GNGGA,000000.000,,,,,0,00,,,M,,,,0000*2B
$GNRMC,000000.000,A,,,,,,,000000,,*26
$GPGSA,A,1,,,,,,,,,,,,,,,*1E
$BDGSA,A,1,,,,,,,,,,,,,,,*0F
$GPGSV,1,1,02,01,00,000,44,11,00,000,24*7C
$LOGTIM,0,0.000000,0.000000,0.000000,0.000000,0.000*0A
EndT:        0
---00000005--- Acq_st=3 2019-5-22 06:56:3 
[00]  G01  7 44   1623.8 2045997.9  1.0  1.0  5  0         2
[01]  G11  7 36   1679.6 2045997.7  0.8  1.0  5  0         0
[02]  G17  7  7  -1903.5 2046002.4  0.2  0.0 20  0         5
[03]  G18  1 31   2749.3 2045996.5  0.1  0.0  1  0        12
[04]  G19  1  7  -2751.4 2046003.6 -0.1  0.0  1  0         0
$GNGGA,000000.000,,,,,0,00,,,M,,,,0000*2B
$GNRMC,000000.000,A,,,,,,,000000,,*26
$GPGSA,A,1,,,,,,,,,,,,,,,*1E
$BDGSA,A,1,,,,,,,,,,,,,,,*0F
$GPGSV,1,1,02,01,00,000,44,11,00,000,36*7F
$LOGTIM,0,0.000000,0.000000,0.000000,0.000000,0.000*0A
EndT:        0
---00000006--- Acq_st=3 2019-5-22 06:56:4 
[00]  G01  7 44   1618.1 2045997.9  1.0  1.0  5  0         2
[01]  G11  7 37   1674.4 2045997.8  1.0  1.0  5  0         0
[02]  G17  7 46  -1909.1 2046002.4  0.6  1.0  5  0        14
[03]  G18  7 34   2744.2 2045996.4  0.5  1.0  5  0        12
[04]  G19  1  7  -2800.0 2046002.9 -0.1  0.0  1  0        19
[05]  G28  1  0  11071.9 2046002.0  0.0  0.0  1  0         0
$GNGGA,000000.000,,,,,0,00,,,M,,,,0000*2B
$GNRMC,000000.000,A,,,,,,,000000,,*26
$GPGSA,A,1,,,,,,,,,,,,,,,*1E
$BDGSA,A,1,,,,,,,,,,,,,,,*0F
$GPGSV,1,1,04,01,00,000,44,11,00,000,37,17,00,000,46,18,00,000,34*72
$LOGTIM,0,0.000000,0.000000,0.000000,0.000000,0.000*0A
EndT:        0
---00000007--- Acq_st=3 2019-5-22 06:56:5 
[00]  G01  7 45   1627.3 2045997.9  1.0  1.0  5  0         2
[01]  G11  7 36   1682.7 2045997.8  1.0  1.0  5  0         0
[02]  G17  7 45  -1900.3 2046002.4  1.0  1.0  5  0        14
[03]  G18  7 42   2753.9 2045996.4  1.0  1.0  5  0        17
[04]  G19  1 14  -2840.3 2046002.7  0.1  0.0  1  0        19
[05]  G28  1 31  -2264.1 2046004.5  0.0  0.0  1  0        19
$GNGGA,000000.000,,,,,0,00,,,M,,,,0000*2B
$GNRMC,000000.000,A,,,,,,,000000,,*26
$GPGSA,A,1,,,,,,,,,,,,,,,*1E
$BDGSA,A,1,,,,,,,,,,,,,,,*0F
$GPGSV,1,1,04,01,00,000,45,11,00,000,36,17,00,000,45,18,00,000,42*70
$LOGTIM,0,0.000000,0.000000,0.000000,0.000000,0.000*0A
EndT:        0
---00000008--- Acq_st=3 2019-5-22 06:56:6 
[00]  G01  7 45   1633.3 2045997.9  1.0  1.0  5  0         2
[01]  G11  7 36   1687.9 2045997.8  1.0  0.9  5  0         0
[02]  G17  7 45  -1894.8 2046002.4  1.0  1.0  5  0        14
[03]  G18  7 41   2759.3 2045996.4  1.0  1.0  5  0        17
[05]  G28  7 32  -2249.3 2046002.9  0.4  1.0  5  0        19
$GNGGA,000000.000,,,,,0,00,,,M,,,,0000*2B
$GNRMC,000000.000,A,,,,,,,000000,,*26
$GPGSA,A,1,,,,,,,,,,,,,,,*1E
$BDGSA,A,1,,,,,,,,,,,,,,,*0F
$GPGSV,2,1,05,01,00,000,45,11,00,000,36,17,00,000,45,18,00,000,41*71
$GPGSV,2,2,05,28,00,000,32*47
$LOGTIM,0,0.000000,0.000000,0.000000,0.000000,0.000*0A
EndT:        0
---00000009--- Acq_st=3 2019-5-22 06:56:7 
[00]  G01  f 45   1635.1 2045997.9  1.0  1.0  5  0         2
[01]  G11  f 36   1690.6 2045997.8  1.0  1.0  5  0         0
[02]  G17  f 45  -1893.1 2046002.4  1.0  1.0  5  0        14
[03]  G18  f 41   2760.9 2045996.4  1.0  1.0  5  0        17
[05]  G28  f 41  -2247.3 2046002.9  1.0  1.0  5  0         0
$GNGGA,000000.000,,,,,0,00,,,M,,,,0000*2B
$GNRMC,000000.000,A,,,,,,,000000,,*26
$GPGSA,A,1,,,,,,,,,,,,,,,*1E
$BDGSA,A,1,,,,,,,,,,,,,,,*0F
$GPGSV,2,1,05,01,00,000,45,11,00,000,36,17,00,000,45,18,00,000,41*71
$GPGSV,2,2,05,28,00,000,41*43
$LOGTIM,0,0.000000,0.000000,0.000000,0.000000,0.000*0A
EndT:        0
---00000010--- Acq_st=3 2019-5-22 06:56:8 
[00]  G01  f 46   1630.2 2045997.9  1.0  1.0  5  0 284185562
[01]  G11  f 36   1685.5 2045997.9  1.0  1.0  5  0 284185560
[02]  G17  f 45  -1898.4 2046002.4  1.0  1.0  5  0 284185554
[03]  G18  f 41   2755.7 2045996.4  1.0  1.0  5  0 284185557
[05]  G28  f 40  -2252.8 2046002.9  1.0  1.0  5  0 284185560
$GNGGA,000000.000,,,,,0,00,,,M,,,,0000*2B
$GNRMC,000000.000,A,,,,,,,000000,,*26
$GPGSA,A,1,,,,,,,,,,,,,,,*1E
$BDGSA,A,1,,,,,,,,,,,,,,,*0F
$GPGSV,2,1,05,01,00,000,46,11,00,000,36,17,00,000,45,18,00,000,41*72
$GPGSV,2,2,05,28,00,000,40*42
$LOGTIM,0,0.000000,0.000000,0.000000,0.000000,0.000*0A
EndT:        0
---00000011--- Acq_st=3 2019-5-22 06:56:9 
[00]  G01  f 46   1621.6 2045997.9  1.0  1.0  5  0 284186562
[01]  G11  f 36   1677.0 2045997.8  1.0  1.0  5  0 284186560
[02]  G17  f 45  -1907.5 2046002.5  1.0  1.0  5  0 284186554
[03]  G18  f 41   2747.1 2045996.5  1.0  1.0  5  0 284186557
[05]  G28  f 41  -2261.6 2046002.9  1.0  1.0  5  0 284186560
[16]  B08  1  7   -187.7 4092000.3  0.1  0.0  1  0         0
$GNGGA,000000.000,,,,,0,00,,,M,,,,0000*2B
$GNRMC,000000.000,A,,,,,,,000000,,*26
$GPGSA,A,1,,,,,,,,,,,,,,,*1E
$BDGSA,A,1,,,,,,,,,,,,,,,*0F
$GPGSV,2,1,05,01,00,000,46,11,00,000,36,17,00,000,45,18,00,000,41*72
$GPGSV,2,2,05,28,00,000,41*43
$LOGTIM,0,0.000000,0.000000,0.000000,0.000000,0.000*0A
EndT:        0
---00000012--- Acq_st=3 2019-5-22 06:56:10 
[00]  G01  f 46   1618.0 2045997.9  1.0  1.0  5  0 284187562
[01]  G11  f 36   1673.1 2045997.8  1.0  1.0  5  0 284187560
[02]  G17  f 45  -1911.3 2046002.5  1.0  1.0  5  0 284187554
[03]  G18  f 41   2743.5 2045996.4  1.0  1.0  5  0 284187557
[05]  G28  f 41  -2265.3 2046002.9  1.0  1.0  5  0 284187560
[16]  B08  7 21   -196.6 4092000.5  0.2  0.0 20  0       520
[17]  B10  1  7   -453.0 4092002.3 -0.1  0.0  1  0         0
$GNGGA,000000.000,,,,,0,00,,,M,,,,0000*2B
$GNRMC,000000.000,A,,,,,,,000000,,*26
$GPGSA,A,1,,,,,,,,,,,,,,,*1E
$BDGSA,A,1,,,,,,,,,,,,,,,*0F
$GPGSV,2,1,05,01,00,000,46,11,00,000,36,17,00,000,45,18,00,000,41*72
$GPGSV,2,2,05,28,00,000,41*43
$BDGSV,1,1,01,08,00,000,21*52
$LOGTIM,0,0.000000,0.000000,0.000000,0.000000,0.000*0A
EndT:        0
---00000013--- Acq_st=3 2019-5-22 06:56:11 
[00]  G01  f 46   1621.2 2045997.9  1.0  1.0  5  0 284188562
[01]  G11  f 36   1675.8 2045997.9  1.0  0.9  5  0 284188560
[02]  G17  f 45  -1908.8 2046002.5  1.0  1.0  5  0 284188554
[03]  G18  f 41   2745.8 2045996.5  1.0  1.0  5  0 284188557
[05]  G28  f 41  -2262.1 2046002.9  1.0  1.0  5  0 284188560
[16]  B08  7 39   -194.0 4092000.5  0.6  1.0  5  0      1510
[17]  B10  7 23   -436.1 4092001.0  0.2  0.0 20  0       610
$GNGGA,000000.000,,,,,0,00,,,M,,,,0000*2B
$GNRMC,000000.000,A,,,,,,,000000,,*26
$GPGSA,A,1,,,,,,,,,,,,,,,*1E
$BDGSA,A,1,,,,,,,,,,,,,,,*0F
$GPGSV,2,1,05,01,00,000,46,11,00,000,36,17,00,000,45,18,00,000,41*72
$GPGSV,2,2,05,28,00,000,41*43
$BDGSV,1,1,02,08,00,000,39,10,00,000,23*68
$LOGTIM,0,0.000000,0.000000,0.000000,0.000000,0.000*0A
EndT:        0
---00000014--- Acq_st=3 2019-5-22 06:56:12 
[00]  G01  f 46   1617.9 2045997.9  1.0  1.0  5  0 284189562
[01]  G11  f 36   1672.5 2045997.8  1.0  1.0  5  0 284189560
[02]  G17  f 45  -1912.1 2046002.5  1.0  1.0  5  0 284189554
[03]  G18  f 41   2742.4 2045996.5  1.0  1.0  5  0 284189557
[05]  G28  f 40  -2265.7 2046002.9  1.0  1.0  5  0 284189560
[16]  B08  7 39   -197.0 4092000.5  1.0  1.0  5  0      2510
[17]  B10  7 36   -440.3 4092001.1  1.0  1.0  5  0      1591
$GNGGA,000000.000,,,,,0,00,,,M,,,,0000*2B
$GNRMC,000000.000,A,,,,,,,000000,,*26
$GPGSA,A,1,,,,,,,,,,,,,,,*1E
$BDGSA,A,1,,,,,,,,,,,,,,,*0F
$GPGSV,2,1,05,01,00,000,46,11,00,000,36,17,00,000,45,18,00,000,41*72
$GPGSV,2,2,05,28,00,000,40*42
$BDGSV,1,1,02,08,00,000,39,10,00,000,36*6C
$LOGTIM,0,0.000000,0.000000,0.000000,0.000000,0.000*0A
EndT:        0
---00000015--- Acq_st=3 2019-5-22 06:56:13 
[00]  G01  f 46   1616.3 2045997.9  1.0  1.0  5  0 284190562
[01]  G11  f 36   1671.1 2045997.8  1.0  1.0  5  0 284190560
[02]  G17  f 45  -1914.0 2046002.5  1.0  1.0  5  0 284190554
[03]  G18  f 42   2740.9 2045996.4  1.0  1.0  5  0 284190557
[05]  G28  f 39  -2267.0 2046002.9  1.0  1.0  5  0 284190560
[16]  B08  7 38   -198.9 4092000.5  1.0  1.0  5  0      3510
[17]  B10  7 36   -441.1 4092001.1  1.0  1.0  5  0      2591
$GNGGA,000000.000,,,,,0,00,,,M,,,,0000*2B
$GNRMC,000000.000,A,,,,,,,000000,,*26
$GPGSA,A,1,,,,,,,,,,,,,,,*1E
$BDGSA,A,1,,,,,,,,,,,,,,,*0F
$GPGSV,2,1,05,01,00,000,46,11,00,000,36,17,00,000,45,18,00,000,42*71
$GPGSV,2,2,05,28,00,000,39*4C
$BDGSV,1,1,02,08,00,000,38,10,00,000,36*6D
$LOGTIM,0,0.000000,0.000000,0.000000,0.000000,0.000*0A
EndT:        0
---00000016--- Acq_st=3 2019-5-22 06:56:14 
[00]  G01  f 47   1618.9 2045997.9  1.0  1.0  5  0 284191562
[01]  G11  f 36   1673.3 2045997.8  1.0  1.0  5  0 284191560
[02]  G17  f 45  -1912.1 2046002.5  1.0  1.0  5  0 284191554
[03]  G18  f 42   2743.0 2045996.4  1.0  1.0  5  0 284191557
[05]  G28  f 39  -2265.3 2046003.0  1.0  1.0  5  0 284191560
[16]  B08  7 39   -196.7 4092000.5  1.0  1.0  5  0      4510
[17]  B10  7 35   -439.1 4092001.1  1.0  1.0  5  0      3591
$GNGGA,000000.000,,,,,0,00,,,M,,,,0000*2B
$GNRMC,000000.000,A,,,,,,,000000,,*26
$GPGSA,A,1,,,,,,,,,,,,,,,*1E
$BDGSA,A,1,,,,,,,,,,,,,,,*0F
$GPGSV,2,1,05,01,00,000,47,11,00,000,36,17,00,000,45,18,00,000,42*70
$GPGSV,2,2,05,28,00,000,39*4C
$BDGSV,1,1,02,08,00,000,39,10,00,000,35*6F
$LOGTIM,0,0.000000,0.000000,0.000000,0.000000,0.000*0A
EndT:        0
---00000017--- Acq_st=3 2019-5-22 06:56:15 
[00]  G01  f 47   1623.2 2045997.9  1.0  1.0  5  0 284192562
[01]  G11  f 37   1676.9 2045997.8  1.0  0.9  5  0 284192560
[02]  G17  f 44  -1907.9 2046002.5  1.0  1.0  5  0 284192554
[03]  G18  f 42   2747.4 2045996.4  1.0  1.0  5  0 284192557
[05]  G28  f 39  -2261.2 2046003.0  1.0  1.0  5  0 284192560
[16]  B08 1f 39   -193.3 4092000.5  1.0  1.0  5  0      5510
[17]  B10 1f 36   -435.5 4092001.2  1.0  1.0  5  0      4591
$GNGGA,000000.000,,,,,0,00,,,M,,,,0000*2B
$GNRMC,000000.000,A,,,,,,,000000,,*26
$GPGSA,A,1,,,,,,,,,,,,,,,*1E
$BDGSA,A,1,,,,,,,,,,,,,,,*0F
$GPGSV,2,1,05,01,00,000,47,11,00,000,37,17,00,000,44,18,00,000,42*70
$GPGSV,2,2,05,28,00,000,39*4C
$BDGSV,1,1,02,08,00,000,39,10,00,000,36*6C
$LOGTIM,0,0.000000,0.000000,0.000000,0.000000,0.000*0A
EndT:        0
---00000018--- Acq_st=3 2019-5-22 06:56:16 
[00]  G01  f 47   1622.5 2045997.9  1.0  1.0  5  0 284193562
[01]  G11  f 37   1676.7 2045997.8  1.0  1.0  5  0 284193560
[02]  G17  f 44  -1909.2 2046002.5  1.0  1.0  5  0 284193554
[03]  G18  f 42   2746.6 2045996.4  1.0  1.0  5  0 284193557
[05]  G28  f 39  -2261.9 2046002.9  1.0  1.0  5  0 284193560
[16]  B08 1f 39   -193.9 4092000.5  1.0  1.0  5  0 284179510
[17]  B10 1f 36   -436.6 4092001.1  1.0  1.0  5  0 284179511
$GNGGA,000000.000,,,,,0,00,,,M,,,,0000*2B
$GNRMC,000000.000,A,,,,,,,000000,,*26
$GPGSA,A,1,,,,,,,,,,,,,,,*1E
$BDGSA,A,1,,,,,,,,,,,,,,,*0F
$GPGSV,2,1,05,01,00,000,47,11,00,000,37,17,00,000,44,18,00,000,42*70
$GPGSV,2,2,05,28,00,000,39*4C
$BDGSV,1,1,02,08,00,000,39,10,00,000,36*6C
$LOGTIM,0,0.000000,0.000000,0.000000,0.000000,0.000*0A
EndT:        0
---00000019--- Acq_st=3 2019-5-22 06:56:17 
[00]  G01  f 47   1622.4 2045997.9  1.0  1.0  5  0 284194562
[01]  G11  f 37   1676.7 2045997.7  1.0  1.0  5  0 284194560
[02]  G17  f 44  -1909.7 2046002.5  1.0  1.0  5  0 284194554
[03]  G18  f 42   2746.0 2045996.4  1.0  1.0  5  0 284194557
[05]  G28  f 39  -2261.9 2046002.9  1.0  1.0  5  0 284194560
[16]  B08 1f 38   -194.8 4092000.5  1.0  1.0  5  0 284180510
[17]  B10 1f 35   -436.9 4092001.2  1.0  0.9  5  0 284180511
$GNGGA,000000.000,,,,,0,00,,,M,,,,0000*2B
$GNRMC,000000.000,A,,,,,,,000000,,*26
$GPGSA,A,1,,,,,,,,,,,,,,,*1E
$BDGSA,A,1,,,,,,,,,,,,,,,*0F
$GPGSV,2,1,05,01,00,000,47,11,00,000,37,17,00,000,44,18,00,000,42*70
$GPGSV,2,2,05,28,00,000,39*4C
$BDGSV,1,1,02,08,00,000,38,10,00,000,35*6E
$LOGTIM,0,0.000000,0.000000,0.000000,0.000000,0.000*0A
EndT:        0
---00000020--- Acq_st=3 2019-5-22 06:56:18 
[00]  G01  f 47   1621.0 2045997.9  1.0  1.0  5  0 284195562
[01]  G11  f 37   1674.8 2045997.8  1.0  0.9  5  0 284195560
[02]  G17  f 44  -1911.4 2046002.5  1.0  1.0  5  0 284195554
[03]  G18  f 42   2744.4 2045996.4  1.0  1.0  5  0 284195557
[05]  G28  f 39  -2263.5 2046002.9  1.0  1.0  5  0 284195560
[16]  B08 1f 39   -196.2 4092000.5  1.0  1.0  5  0 284181510
[17]  B10 1f 36   -438.4 4092001.1  1.0  1.0  5  0 284181511
[18]  B27  1 26   1827.8 4091994.7  0.3  0.0  1  0         0
$GNGGA,000000.000,,,,,0,00,,,M,,,,0000*2B
$GNRMC,000000.000,A,,,,,,,000000,,*26
$GPGSA,A,1,,,,,,,,,,,,,,,*1E
$BDGSA,A,1,,,,,,,,,,,,,,,*0F
$GPGSV,2,1,05,01,00,000,47,11,00,000,37,17,00,000,44,18,00,000,42*70
$GPGSV,2,2,05,28,00,000,39*4C
$BDGSV,1,1,02,08,00,000,39,10,00,000,36*6C
$LOGTIM,0,0.000000,0.000000,0.000000,0.000000,0.000*0A
EndT:        0
---00000021--- Acq_st=3 2019-5-22 06:56:19 
[00]  G01  f 46   1621.9 2045997.9  1.0  1.0  5  0 284196562
[01]  G11  f 38   1674.5 2045997.9  1.0  1.0  5  0 284196560
[02]  G17  f 44  -1911.2 2046002.5  1.0  1.0  5  0 284196554
[03]  G18  f 42   2744.8 2045996.4  1.0  1.0  5  0 284196557
[05]  G28  f 39  -2262.9 2046002.9  1.0  1.0  5  0 284196560
[16]  B08 1f 39   -196.1 4092000.5  1.0  1.0  5  0 284182510
[17]  B10 1f 36   -438.2 4092001.1  1.0  1.0  5  0 284182511
[18]  B27  1 37   1827.3 4091995.1  1.0  0.0  1  0       865
[19]  B29  1 27  -1415.2 4092004.4  0.2  0.0  1  0         0
[20]  B30  1  7    587.0 4091997.8 -0.1  0.0  1  0         0
$GNGGA,000000.000,,,,,0,00,,,M,,,,0000*2B
$GNRMC,000000.000,A,,,,,,,000000,,*26
$GPGSA,A,1,,,,,,,,,,,,,,,*1E
$BDGSA,A,1,,,,,,,,,,,,,,,*0F
$GPGSV,2,1,05,01,00,000,46,11,00,000,38,17,00,000,44,18,00,000,42*7E
$GPGSV,2,2,05,28,00,000,39*4C
$BDGSV,1,1,02,08,00,000,39,10,00,000,36*6C
$LOGTIM,0,0.000000,0.000000,0.000000,0.000000,0.000*0A
EndT:        0
---00000022--- Acq_st=7 2019-5-22 06:56:20 
[00]  G01  f 46   1622.9 2045997.9  1.0  1.0  5  0 284197562
[01]  G11  f 37   1675.9 2045997.9  1.0  1.0  5  0 284197560
[02]  G17  f 44  -1910.2 2046002.5  1.0  1.0  5  0 284197554
[03]  G18  f 43   2746.3 2045996.4  1.0  1.0  5  0 284197557
[05]  G28  f 39  -2261.8 2046003.0  1.0  1.0  5  0 284197560
[16]  B08 1f 38   -194.8 4092000.5  1.0  0.9  5  0 284183510
[17]  B10 1f 36   -437.6 4092001.1  1.0  1.0  5  0 284183511
[18]  B27  1 37   1828.6 4091995.1  0.8  0.0  1  0      1865
[19]  B29  1 39  -1414.3 4092003.2  1.0  0.0  1  0       954
[20]  B30  7 21    605.2 4091998.4  0.3  0.0 20  0       499
$GNGGA,000000.000,,,,,0,00,,,M,,,,0000*2B
$GNRMC,000000.000,A,,,,,,,000000,,*26
$GPGSA,A,1,,,,,,,,,,,,,,,*1E
$BDGSA,A,1,,,,,,,,,,,,,,,*0F
$GPGSV,2,1,05,01,00,000,46,11,00,000,37,17,00,000,44,18,00,000,43*70
$GPGSV,2,2,05,28,00,000,39*4C
$BDGSV,1,1,03,08,00,000,38,10,00,000,36,30,00,000,21*5C
$LOGTIM,0,0.000000,0.000000,0.000000,0.000000,0.000*0A
EndT:        0
---00000023--- Acq_st=3 2019-5-22 06:56:21 
[00]  G01  f 47   1624.2 2045997.9  1.0  1.0  5  0 284198562
[01]  G11  f 37   1677.3 2045997.8  1.0  1.1  5  0 284198560
[02]  G17  f 44  -1909.6 2046002.5  1.0  1.0  5  0 284198554
[03]  G18  f 43   2747.0 2045996.4  1.0  1.0  5  0 284198557
[05]  G28  f 38  -2260.3 2046002.9  1.0  1.0  5  0 284198560
[16]  B08 1f 38   -194.4 4092000.5  1.0  1.0  5  0 284184510
[17]  B10 1f 36   -435.9 4092001.1  1.0  1.0  5  0 284184511
[18]  B27  7 28   1826.3 4091995.2  0.3  1.0 10  0      2865
[19]  B29  7 30  -1412.5 4092003.7  0.8  1.0  5  0      1954
[20]  B30  7 46    606.3 4091998.4  1.0  1.0  5  0      1496
$GNGGA,000000.000,,,,,0,00,,,M,,,,0000*2B
$GNRMC,000000.000,A,,,,,,,000000,,*26
$GPGSA,A,1,,,,,,,,,,,,,,,*1E
$BDGSA,A,1,,,,,,,,,,,,,,,*0F
$GPGSV,2,1,05,01,00,000,47,11,00,000,37,17,00,000,44,18,00,000,43*71
$GPGSV,2,2,05,28,00,000,38*4D
$BDGSV,2,1,05,08,00,000,38,10,00,000,36,27,00,000,28,29,00,000,30*6E
$BDGSV,2,2,05,30,00,000,46*5C
$LOGTIM,0,0.000000,0.000000,0.000000,0.000000,0.000*0A
EndT:        0
---00000024--- Acq_st=3 2019-5-22 06:56:22 
[00]  G01  f 47   1626.4 2045997.9  1.0  1.0  5  0 284199562
[01]  G11  f 37   1678.3 2045997.8  1.0  1.0  5  0 284199560
[02]  G17  f 44  -1907.9 2046002.5  1.0  1.0  5  0 284199554
[03]  G18  f 43   2748.8 2045996.4  1.0  1.0  5  0 284199557
[05]  G28  f 38  -2258.8 2046003.0  1.0  1.0  5  0 284199560
[16]  B08 1f 39   -191.9 4092000.5  1.0  1.0  5  0 284185510
[17]  B10 1f 36   -435.0 4092001.1  1.0  1.0  5  0 284185511
[18]  B27  7 36   1830.5 4091995.2  0.9  1.0  5  0      3865
[19]  B29  7 39  -1411.9 4092003.7  1.0  1.0  5  0      2954
[20]  B30  7 46    607.5 4091998.4  1.0  1.0  5  0      2496
$GNGGA,000000.000,,,,,0,00,,,M,,,,0000*2B
$GNRMC,000000.000,A,,,,,,,000000,,*26
$GPGSA,A,1,,,,,,,,,,,,,,,*1E
$BDGSA,A,1,,,,,,,,,,,,,,,*0F
$GPGSV,2,1,05,01,00,000,47,11,00,000,37,17,00,000,44,18,00,000,43*71
$GPGSV,2,2,05,28,00,000,38*4D
$BDGSV,2,1,05,08,00,000,39,10,00,000,36,27,00,000,36,29,00,000,39*69
$BDGSV,2,2,05,30,00,000,46*5C
$LOGTIM,0,0.000000,0.000000,0.000000,0.000000,0.000*0A
EndT:        0
---00000025--- Acq_st=3 2019-5-22 06:56:23 
[00]  G01  f 47   1626.9 2045997.9  1.0  1.0  5  0 284200562
[01]  G11  f 37   1679.8 2045997.8  1.0  1.0  5  0 284200560
[02]  G17  f 44  -1907.6 2046002.5  1.0  1.0  5  0 284200554
[03]  G18  f 43   2749.2 2045996.4  1.0  1.0  5  0 284200557
[05]  G28  f 38  -2258.0 2046003.0  1.0  1.0  5  0 284200560
[16]  B08 1f 38   -191.9 4092000.5  1.0  1.0  5  0 284186510
[17]  B10 1f 36   -434.0 4092001.1  1.0  1.0  5  0 284186511
[18]  B27  7 36   1831.3 4091995.2  1.0  1.0  5  0      4865
[19]  B29  7 40  -1411.5 4092003.6  1.0  1.0  5  0      3954
[20]  B30  7 46    607.9 4091998.4  1.0  1.0  5  0      3496
$GNGGA,000000.000,,,,,0,00,,,M,,,,0000*2B
$GNRMC,000000.000,A,,,,,,,000000,,*26
$GPGSA,A,1,,,,,,,,,,,,,,,*1E
$BDGSA,A,1,,,,,,,,,,,,,,,*0F
$GPGSV,2,1,05,01,00,000,47,11,00,000,37,17,00,000,44,18,00,000,43*71
$GPGSV,2,2,05,28,00,000,38*4D
$BDGSV,2,1,05,08,00,000,38,10,00,000,36,27,00,000,36,29,00,000,40*66
$BDGSV,2,2,05,30,00,000,46*5C
$LOGTIM,0,0.000000,0.000000,0.000000,0.000000,0.000*0A
EndT:        0
---00000026--- Acq_st=3 2019-5-22 06:56:24 
[00]  G01  f 46   1631.3 2045997.9  1.0  1.0  5  0 284201562
[01]  G11  f 36   1684.0 2045997.9  1.0  1.0  5  0 284201560
[02]  G17  f 44  -1903.3 2046002.5  1.0  1.0  5  0 284201554
[03]  G18  f 43   2753.8 2045996.4  1.0  1.0  5  0 284201557
[05]  G28  f 37  -2254.1 2046003.0  1.0  1.0  5  0 284201560
[16]  B08 1f 39   -188.1 4092000.5  1.0  1.0  5  0 284187510
[17]  B10 1f 36   -430.4 4092001.1  1.0  1.0  5  0 284187511
[18]  B27  7 36   1835.2 4091995.2  1.0  0.9  5  0      5865
[19]  B29  7 40  -1407.4 4092003.7  1.0  1.0  5  0      4954
[20]  B30  7 46    612.0 4091998.4  1.0  1.0  5  0      4496
$GNGGA,000000.000,,,,,0,00,,,M,,,,0000*2B
$GNRMC,000000.000,A,,,,,,,000000,,*26
$GPGSA,A,1,,,,,,,,,,,,,,,*1E
$BDGSA,A,1,,,,,,,,,,,,,,,*0F
$GPGSV,2,1,05,01,00,000,46,11,00,000,36,17,00,000,44,18,00,000,43*71
$GPGSV,2,2,05,28,00,000,37*42
$BDGSV,2,1,05,08,00,000,39,10,00,000,36,27,00,000,36,29,00,000,40*67
$BDGSV,2,2,05,30,00,000,46*5C
$LOGTIM,0,0.000000,0.000000,0.000000,0.000000,0.000*0A
EndT:        0
---00000027--- Acq_st=3 2019-5-22 06:56:25 
[00]  G01  f 46   1633.8 2045997.9  1.0  1.0  5  0 284202562
[01]  G11  f 36   1685.9 2045997.8  1.0  0.9  5  0 284202560
[02]  G17  f 44  -1901.4 2046002.5  1.0  1.0  5  0 284202554
[03]  G18  f 42   2755.9 2045996.4  1.0  1.0  5  0 284202557
[05]  G28  f 37  -2250.9 2046003.0  1.0  1.0  5  0 284202560
[16]  B08 1f 39   -186.1 4092000.5  1.0  1.0  5  0 284188510
[17]  B10 1f 37   -428.0 4092001.2  1.0  1.0  5  0 284188511
[18]  B27  7 36   1836.7 4091995.1  1.0  0.9  5  0      6865
[19]  B29  7 40  -1405.1 4092003.7  1.0  1.0  5  0      5954
[20]  B30  7 46    614.3 4091998.3  1.0  1.0  5  0      5496
$GNGGA,000000.000,,,,,0,00,,,M,,,,0000*2B
$GNRMC,000000.000,A,,,,,,,000000,,*26
$GPGSA,A,1,,,,,,,,,,,,,,,*1E
$BDGSA,A,1,,,,,,,,,,,,,,,*0F
$GPGSV,2,1,05,01,00,000,46,11,00,000,36,17,00,000,44,18,00,000,42*70
$GPGSV,2,2,05,28,00,000,37*42
$BDGSV,2,1,05,08,00,000,39,10,00,000,37,27,00,000,36,29,00,000,40*66
$BDGSV,2,2,05,30,00,000,46*5C
$LOGTIM,0,0.000000,0.000000,0.000000,0.000000,0.000*0A
EndT:        0
---00000028--- Acq_st=3 2019-5-22 06:56:26 
[00]  G01  f 46   1630.6 2045997.9  1.0  1.0  5  0 284203562
[01]  G11  f 37   1682.6 2045997.8  1.0  0.9  5  0 284203560
[02]  G17  f 44  -1904.9 2046002.5  1.0  1.0  5  0 284203554
[03]  G18  f 43   2752.4 2045996.4  1.0  1.0  5  0 284203557
[05]  G28  f 37  -2254.8 2046003.0  1.0  1.0  5  0 284203560
[16]  B08 1f 38   -189.2 4092000.5  1.0  1.0  5  0 284189510
[17]  B10 1f 36   -431.1 4092001.1  1.0  1.0  5  0 284189511
[18]  B27  7 36   1832.8 4091995.2  1.0  1.0  5  0      7865
[19]  B29  7 40  -1408.9 4092003.7  1.0  1.0  5  0      6954
[20]  B30  7 46    610.7 4091998.4  1.0  1.0  5  0      6496
$GNGGA,000000.000,,,,,0,00,,,M,,,,0000*2B
$GNRMC,000000.000,A,,,,,,,000000,,*26
$GPGSA,A,1,,,,,,,,,,,,,,,*1E
$BDGSA,A,1,,,,,,,,,,,,,,,*0F
$GPGSV,2,1,05,01,00,000,46,11,00,000,37,17,00,000,44,18,00,000,43*70
$GPGSV,2,2,05,28,00,000,37*42
$BDGSV,2,1,05,08,00,000,38,10,00,000,36,27,00,000,36,29,00,000,40*66
$BDGSV,2,2,05,30,00,000,46*5C
$LOGTIM,0,0.000000,0.000000,0.000000,0.000000,0.000*0A
EndT:        0
---00000029--- Acq_st=3 2019-5-22 06:56:27 
[00]  G01  f 46   1629.7 2045997.9  1.0  1.0  5  0 284204562
[01]  G11  f 37   1681.2 2045997.8  1.0  1.0  5  0 284204560
[02]  G17  f 44  -1906.6 2046002.5  1.0  1.0  5  0 284204554
[03]  G18  f 43   2751.2 2045996.4  1.0  1.0  5  0 284204557
[05]  G28  f 36  -2255.7 2046003.0  1.0  1.0  5  0 284204560
[16]  B08 1f 38   -190.9 4092000.5  1.0  0.9  5  0 284190510
[17]  B10 1f 37   -433.2 4092001.1  1.0  1.0  5  0 284190511
[18]  B27 1f 36   1831.4 4091995.2  1.0  0.9  5  0      8865
[19]  B29 1f 40  -1410.4 4092003.7  1.0  1.0  5  0      7954
[20]  B30 1f 46    609.1 4091998.4  1.0  1.0  5  0      7496
$GNGGA,000000.000,,,,,0,00,,,M,,,,0000*2B
$GNRMC,000000.000,A,,,,,,,000000,,*26
$GPGSA,A,1,,,,,,,,,,,,,,,*1E
$BDGSA,A,1,,,,,,,,,,,,,,,*0F
$GPGSV,2,1,05,01,00,000,46,11,00,000,37,17,00,000,44,18,00,000,43*70
$GPGSV,2,2,05,28,00,000,36*43
$BDGSV,2,1,05,08,00,000,38,10,00,000,37,27,00,000,36,29,00,000,40*67
$BDGSV,2,2,05,30,00,000,46*5C
$LOGTIM,0,0.000000,0.000000,0.000000,0.000000,0.000*0A
EndT:        0
---00000030--- Acq_st=3 2019-5-22 06:56:28 
[00]  G01  f 45   1628.2 2045997.9  1.0  1.0  5  0 284205562
[01]  G11  f 36   1680.1 2045997.8  1.0  0.9  5  0 284205560
[02]  G17  f 45  -1908.2 2046002.5  1.0  1.0  5  0 284205554
[03]  G18  f 43   2749.5 2045996.4  1.0  1.0  5  0 284205557
[05]  G28  f 37  -2257.0 2046002.9  1.0  1.0  5  0 284205560
[16]  B08 1f 38   -192.5 4092000.5  1.0  1.0  5  0 284191510
[17]  B10 1f 37   -434.6 4092001.1  1.0  1.0  5  0 284191511
[18]  B27 1f 36   1830.2 4091995.2  1.0  1.0  5  0 284191545
[19]  B29 1f 40  -1411.1 4092003.7  1.0  1.0  5  0 284191554
[20]  B30 1f 46    607.7 4091998.4  1.0  1.0  5  0 284191556
$GNGGA,000000.000,,,,,0,00,,,M,,,,0000*2B
$GNRMC,000000.000,A,,,,,,,000000,,*26
$GPGSA,A,1,,,,,,,,,,,,,,,*1E
$BDGSA,A,1,,,,,,,,,,,,,,,*0F
$GPGSV,2,1,05,01,00,000,45,11,00,000,36,17,00,000,45,18,00,000,43*73
$GPGSV,2,2,05,28,00,000,37*42
$BDGSV,2,1,05,08,00,000,38,10,00,000,37,27,00,000,36,29,00,000,40*67
$BDGSV,2,2,05,30,00,000,46*5C
$LOGTIM,0,0.000000,0.000000,0.000000,0.000000,0.000*0A
EndT:        0
---00000031--- Acq_st=3 2019-5-22 06:56:29 
[00]  G01  f 45   1630.6 2045997.9  1.0  1.0  5  0 284206562
[01]  G11  f 36   1681.7 2045997.9  1.0  0.9  5  0 284206560
[02]  G17  f 45  -1906.4 2046002.5  1.0  1.0  5  0 284206554
[03]  G18  f 43   2751.9 2045996.4  1.0  1.0  5  0 284206557
[05]  G28  f 37  -2255.4 2046002.9  1.0  0.9  5  0 284206560
[16]  B08 1f 39   -189.9 4092000.5  1.0  1.0  5  0 284192510
[17]  B10 1f 37   -432.1 4092001.1  1.0  1.0  5  0 284192511
[18]  B27 1f 35   1832.2 4091995.2  1.0  0.9  5  0 284192545
[19]  B29 1f 40  -1409.2 4092003.7  1.0  1.0  5  0 284192554
[20]  B30 1f 46    609.9 4091998.4  1.0  1.0  5  0 284192556
$GNGGA,000000.000,,,,,0,00,,,M,,,,0000*2B
$GNRMC,000000.000,A,,,,,,,000000,,*26
$GPGSA,A,1,,,,,,,,,,,,,,,*1E
$BDGSA,A,1,,,,,,,,,,,,,,,*0F
$GPGSV,2,1,05,01,00,000,45,11,00,000,36,17,00,000,45,18,00,000,43*73
$GPGSV,2,2,05,28,00,000,37*42
$BDGSV,2,1,05,08,00,000,39,10,00,000,37,27,00,000,35,29,00,000,40*65
$BDGSV,2,2,05,30,00,000,46*5C
$LOGTIM,0,0.000000,0.000000,0.000000,0.000000,0.000*0A
EndT:        0
---00000032--- Acq_st=3 2019-5-22 06:56:30 
[00]  G01  f 45   1634.5 2045997.9  1.0  1.0  5  0 284207562
[01]  G11  f 36   1685.4 2045997.8  1.0  1.0  5  0 284207560
[02]  G17  f 45  -1903.2 2046002.5  1.0  1.0  5  0 284207554
[03]  G18  f 43   2754.8 2045996.4  1.0  1.0  5  0 284207557
[05]  G28  f 38  -2251.6 2046002.9  1.0  1.0  5  0 284207560
[16]  B08 1f 39   -187.3 4092000.5  1.0  0.9  5  0 284193510
[17]  B10 1f 37   -428.9 4092001.1  1.0  1.0  5  0 284193511
[18]  B27 1f 34   1835.1 4091995.2  1.0  0.9  5  0 284193545
[19]  B29 1f 40  -1406.2 4092003.7  1.0  1.0  5  0 284193554
[20]  B30 1f 47    613.2 4091998.4  1.0  1.0  5  0 284193556
lsq: nits= 4
$GNGGA,065630.632,3112.8137,N,12136.4143,E,1,05,12.2,118.6,M,,,,0000*23
$GNRMC,065630.632,A,3112.8137,N,12136.4143,E,0.42,0.00,220519,,*1E
$GPGSA,A,3,01,11,17,18,28,,,,,,,,13.0,12.2,4.3*32
$BDGSA,A,3,,,,,,,,,,,,,13.0,12.2,4.3*27
$GPGSV,2,1,05,01,00,000,45,11,00,000,36,17,00,000,45,18,00,000,43*73
$GPGSV,2,2,05,28,00,000,38*4D
$BDGSV,2,1,05,08,00,000,39,10,00,000,37,27,00,000,34,29,00,000,40*64
$BDGSV,2,2,05,30,00,000,47*5D
$LOGTIM,1,9316978.344316,0.000000,0.000000,0.000000,-60.682*10
EndT:        1
---00000033--- Acq_st=3 2019-5-22 06:56:31 
[00]  G01  f 45   1631.5 2045997.9  1.0  1.0  5  0 284208562
[01]  G11  f 36   1682.1 2045997.8  1.0  1.0  5  0 284208560
[02]  G17  f 45  -1906.0 2046002.5  1.0  1.0  5  0 284208554
[03]  G18  f 44   2752.4 2045996.4  1.0  1.0  5  0 284208557
[05]  G28  f 38  -2254.5 2046003.0  1.0  1.0  5  0 284208560
[16]  B08 1f 38   -190.0 4092000.5  1.0  1.0  5  0 284194510
[17]  B10 1f 37   -431.5 4092001.1  1.0  1.0  5  0 284194511
[18]  B27 1f 35   1831.6 4091995.2  1.0  1.0  5  0 284194545
[19]  B29 1f 40  -1408.9 4092003.7  1.0  1.0  5  0 284194554
[20]  B30 1f 46    610.2 4091998.4  1.0  1.0  5  0 284194556
lsq: nits= 2
$GNGGA,065632.000,3112.8147,N,12136.4123,E,1,05,12.2,113.6,M,,,,0000*2C
$GNRMC,065632.000,A,3112.8147,N,12136.4123,E,0.23,0.00,220519,,*1D
$GPGSA,A,3,01,11,17,18,28,,,,,,,,13.0,12.2,4.3*32
$BDGSA,A,3,,,,,,,,,,,,,13.0,12.2,4.3*27
$GPGSV,2,1,05,01,00,000,45,11,00,000,36,17,00,000,45,18,00,000,44*74
$GPGSV,2,2,05,28,00,000,38*4D
$BDGSV,2,1,05,08,00,000,38,10,00,000,37,27,00,000,35,29,00,000,40*64
$BDGSV,2,2,05,30,00,000,46*5C
$LOGTIM,1,-84.410578,0.000000,0.000000,0.000000,-61.509*03
EndT:        2
---00000034--- Acq_st=3 2019-5-22 06:56:32 
[00]  G01  f 45   1626.2 2045997.9  1.0  1.0  5  0 284209931
[01]  G11  f 36   1676.5 2045997.8  1.0  1.0  5  0 284209929
[02]  G17  f 44  -1911.7 2046002.5  1.0  1.0  5  0 284209923
[03]  G18  f 44   2747.1 2045996.4  1.0  1.0  5  0 284209926
[05]  G28  f 38  -2260.0 2046002.9  1.0  1.0  5  0 284209929
[16]  B08 1f 38   -195.8 4092000.5  1.0  1.0  5  0 284195879
[17]  B10 1f 37   -437.5 4092001.1  1.0  1.0  5  0 284195879
[18]  B27 1f 35   1825.9 4091995.2  1.0  1.0  5  0 284195913
[19]  B29 1f 40  -1415.0 4092003.7  1.0  1.0  5  0 284195922
[20]  B30 1f 46    604.2 4091998.4  1.0  1.0  5  0 284195925
lsq: nits= 2
$GNGGA,065633.000,3112.8132,N,12136.4122,E,1,05,12.3,112.7,M,,,,0000*2F
$GNRMC,065633.000,A,3112.8132,N,12136.4122,E,0.57,0.00,220519,,*1C
$GPGSA,A,3,01,11,17,18,28,,,,,,,,13.0,12.3,4.3*33
$BDGSA,A,3,,,,,,,,,,,,,13.0,12.3,4.3*26
$GPGSV,2,1,05,01,59,033,45,11,47,040,36,17,30,295,44,18,32,042,44*74
$GPGSV,2,2,05,28,58,326,38*47
$BDGSV,2,1,05,08,00,000,38,10,00,000,37,27,00,000,35,29,00,000,40*64
$BDGSV,2,2,05,30,00,000,46*5C
$LOGTIM,1,-148.775906,0.000000,0.000000,0.000000,-62.736*3A
EndT:        2
---00000035--- Acq_st=3 2019-5-22 06:56:33 
[00]  G01  f 45   1620.6 2045997.9  1.0  1.0  5  0 284210931
[01]  G11  f 36   1672.0 2045997.9  1.0  1.0  5  0 284210929
[02]  G17  f 44  -1917.6 2046002.5  1.0  1.0  5  0 284210923
[03]  G18  f 44   2741.1 2045996.5  1.0  1.0  5  0 284210926
[05]  G28  f 39  -2266.0 2046002.9  1.0  1.0  5  0 284210929
[16]  B08 1f 38   -202.3 4092000.6  1.0  1.0  5  0 284196879
[17]  B10 1f 37   -444.0 4092001.2  1.0  1.0  5  0 284196879
[18]  B27 1f 34   1820.2 4091995.3  1.0  1.0  5  0 284196913
[19]  B29 1f 40  -1420.6 4092003.7  1.0  1.0  5  0 284196922
[20]  B30 1f 46    598.3 4091998.4  1.0  1.0  5  0 284196925
lsq: nits= 2
$GNGGA,065634.000,3112.8103,N,12136.4126,E,1,05,12.3,110.6,M,,,,0000*2D
$GNRMC,065634.000,A,3112.8103,N,12136.4126,E,2.32,282.00,220519,,*14
$GPGSA,A,3,01,11,17,18,28,,,,,,,,13.0,12.3,4.3*33
$BDGSA,A,3,,,,,,,,,,,,,13.0,12.3,4.3*26
$GPGSV,2,1,05,01,59,033,45,11,47,040,36,17,30,295,44,18,32,042,44*74
$GPGSV,2,2,05,28,58,326,39*46
$BDGSV,2,1,05,08,00,000,38,10,00,000,37,27,00,000,34,29,00,000,40*65
$BDGSV,2,2,05,30,00,000,46*5C
$LOGTIM,1,-216.217435,0.000000,0.000000,0.000000,-64.155*3B
EndT:        2
---00000036--- Acq_st=3 2019-5-22 06:56:34 
[00]  G01  f 44   1622.3 2045997.9  1.0  1.0  5  0 284211931
[01]  G11  f 36   1672.4 2045997.9  1.0  1.1  5  0 284211929
[02]  G17  f 45  -1916.4 2046002.5  1.0  1.0  5  0 284211923
[03]  G18  f 44   2742.4 2045996.4  1.0  1.0  5  0 284211926
[05]  G28  f 39  -2264.5 2046002.9  1.0  1.0  5  0 284211929
[16]  B08 1f 38   -199.9 4092000.5  1.0  1.0  5  0 284197879
[17]  B10 1f 37   -442.9 4092001.1  1.0  1.0  5  0 284197879
[18]  B27 1f 34   1820.9 4091995.1  1.0  0.9  5  0 284197913
[19]  B29 1f 40  -1419.3 4092003.7  1.0  1.0  5  0 284197922
[20]  B30 1f 46    600.0 4091998.4  1.0  1.0  5  0 284197925
lsq: nits= 2
$GNGGA,065635.000,3112.8062,N,12136.4137,E,1,05,12.3,107.4,M,,,,0000*2E
$GNRMC,065635.000,A,3112.8062,N,12136.4137,E,4.99,280.28,220519,,*1C
$GPGSA,A,3,01,11,17,18,28,,,,,,,,13.0,12.3,4.3*33
$BDGSA,A,3,,,,,,,,,,,,,13.0,12.3,4.3*26
$GPGSV,2,1,05,01,59,033,44,11,47,040,36,17,30,295,45,18,32,042,44*74
$GPGSV,2,2,05,28,58,326,39*46
$BDGSV,2,1,05,08,00,000,38,10,00,000,37,27,00,000,34,29,00,000,40*65
$BDGSV,2,2,05,30,00,000,46*5C
$LOGTIM,1,-285.692568,0.000000,0.000000,0.000000,-64.890*31
EndT:        2
---00000037--- Acq_st=3 2019-5-22 06:56:35 
[00]  G01  f 44   1624.4 2045997.9  1.0  1.0  5  0 284212931
[01]  G11  f 36   1674.2 2045997.8  1.0  0.9  5  0 284212929
[02]  G17  f 45  -1914.9 2046002.5  1.0  1.0  5  0 284212923
[03]  G18  f 43   2744.2 2045996.5  1.0  1.0  5  0 284212926
[05]  G28  f 40  -2262.4 2046002.9  1.0  1.0  5  0 284212929
[16]  B08 1f 38   -198.7 4092000.5  1.0  1.0  5  0 284198879
[17]  B10 1f 37   -440.8 4092001.1  1.0  1.0  5  0 284198879
[18]  B27 1f 33   1822.7 4091995.1  1.0  1.0  5  0 284198913
[19]  B29 1f 40  -1417.7 4092003.7  1.0  1.0  5  0 284198922
[20]  B30 1f 46    601.4 4091998.4  1.0  1.0  5  0 284198925
lsq: nits= 2
$GNGGA,065636.000,3112.8002,N,12136.4155,E,1,05,12.3,102.7,M,,,,0000*29
$GNRMC,065636.000,A,3112.8002,N,12136.4155,E,7.30,280.97,220519,,*19
$GPGSA,A,3,01,11,17,18,28,,,,,,,,13.0,12.3,4.3*33
$BDGSA,A,3,,,,,,,,,,,,,13.0,12.3,4.3*26
$GPGSV,2,1,05,01,59,033,44,11,47,040,36,17,30,295,45,18,32,042,43*73
$GPGSV,2,2,05,28,58,326,40*48
$BDGSV,2,1,05,08,00,000,38,10,00,000,37,27,00,000,33,29,00,000,40*62
$BDGSV,2,2,05,30,00,000,46*5C
$LOGTIM,1,-357.481608,0.000000,0.000000,0.000000,-65.893*38
EndT:        2
---00000038--- Acq_st=3 2019-5-22 06:56:36 
[00]  G01  f 44   1620.4 2045997.9  1.0  1.0  5  0 284213931
[01]  G11  f 36   1671.0 2045997.9  1.0  1.1  5  0 284213929
[02]  G17  f 45  -1918.9 2046002.5  1.0  1.0  5  0 284213923
[03]  G18  f 43   2740.3 2045996.4  1.0  1.0  5  0 284213926
[05]  G28  f 41  -2266.4 2046003.0  1.0  1.0  5  0 284213929
[16]  B08 1f 39   -202.2 4092000.5  1.0  1.0  5  0 284199879
[17]  B10 1f 37   -443.7 4092001.1  1.0  1.0  5  0 284199879
[18]  B27 1f 34   1818.9 4091995.3  1.0  1.0  5  0 284199913
[19]  B29 1f 41  -1421.2 4092003.7  1.0  1.0  5  0 284199922
[20]  B30 1f 46    597.7 4091998.4  1.0  1.0  5  0 284199925
lsq: nits= 2
$GNGGA,065637.000,3112.7928,N,12136.4175,E,1,05,12.3,97.4,M,,,,0000*1A
$GNRMC,065637.000,A,3112.7928,N,12136.4175,E,8.92,280.69,220519,,*12
$GPGSA,A,3,01,11,17,18,28,,,,,,,,13.1,12.3,4.3*32
$BDGSA,A,3,,,,,,,,,,,,,13.1,12.3,4.3*27
$GPGSV,2,1,05,01,59,033,44,11,47,040,36,17,30,295,45,18,32,042,43*73
$GPGSV,2,2,05,28,58,326,41*49
$BDGSV,2,1,05,08,00,000,39,10,00,000,37,27,00,000,34,29,00,000,41*65
$BDGSV,2,2,05,30,00,000,46*5C
$LOGTIM,1,-431.185508,0.000000,0.000000,0.000000,-66.981*3C
EndT:        2
---00000039--- Acq_st=3 2019-5-22 06:56:37 
[00]  G01  f 43   1620.1 2045997.9  1.0  1.0  5  0 284214931
[01]  G11  f 36   1670.0 2045997.9  1.0  1.0  5  0 284214929
[02]  G17  f 45  -1919.9 2046002.5  1.0  1.0  5  0 284214923
[03]  G18  f 43   2739.5 2045996.5  1.0  1.0  5  0 284214926
[05]  G28  f 41  -2266.7 2046002.9  1.0  1.0  5  0 284214929
[16]  B08 1f 38   -203.0 4092000.5  1.0  1.0  5  0 284200879
[17]  B10 1f 37   -445.3 4092001.2  1.0  1.0  5  0 284200879
[18]  B27 1f 34   1817.8 4091995.2  1.0  1.0  5  0 284200913
[19]  B29 1f 42  -1421.8 4092003.7  1.0  1.0  5  0 284200922
[20]  B30 1f 47    596.5 4091998.4  1.0  1.0  5  0 284200925
lsq: nits= 2
$GNGGA,065638.000,3112.7841,N,12136.4203,E,1,05,12.4,92.1,M,,,,0000*1E
$GNRMC,065638.000,A,3112.7841,N,12136.4203,E,11.66,280.48,220519,,*21
$GPGSA,A,3,01,11,17,18,28,,,,,,,,13.1,12.4,4.3*35
$BDGSA,A,3,,,,,,,,,,,,,13.1,12.4,4.3*20
$GPGSV,2,1,05,01,59,033,43,11,47,040,36,17,30,295,45,18,32,042,43*74
$GPGSV,2,2,05,28,58,326,41*49
$BDGSV,2,1,05,08,00,000,38,10,00,000,37,27,00,000,34,29,00,000,42*67
$BDGSV,2,2,05,30,00,000,47*5D
$LOGTIM,1,-506.287476,0.000000,0.000000,0.000000,-67.791*3E
EndT:        2
---00000040--- Acq_st=3 2019-5-22 06:56:38 
[00]  G01  f 43   1624.0 2045997.9  1.0  1.0  5  0 284215931
[01]  G11  f 37   1674.1 2045997.8  1.0  0.9  5  0 284215929
[02]  G17  f 45  -1916.3 2046002.5  1.0  1.0  5  0 284215923
[03]  G18  f 43   2743.1 2045996.5  1.0  1.0  5  0 284215926
[05]  G28  f 41  -2263.4 2046003.0  1.0  1.0  5  0 284215929
[16]  B08 1f 38   -199.7 4092000.5  1.0  1.0  5  0 284201879
[17]  B10 1f 37   -441.7 4092001.1  1.0  1.0  5  0 284201879
[18]  B27 1f 33   1821.6 4091995.2  1.0  0.9  5  0 284201913
[19]  B29 1f 41  -1418.6 4092003.6  1.0  1.0  5  0 284201922
[20]  B30 1f 47    600.2 4091998.4  1.0  1.0  5  0 284201925
lsq: nits= 2
$GNGGA,065639.000,3112.7445,N,12136.4302,E,1,05,12.4,60.9,M,,,,0000*12
$GNRMC,065639.000,A,3112.7445,N,12136.4302,E,26.58,280.41,220519,,*28
$GPGSA,A,3,01,11,17,18,28,,,,,,,,13.1,12.4,4.3*35
$BDGSA,A,3,,,,,,,,,,,,,13.1,12.4,4.3*20
$GPGSV,2,1,05,01,59,033,43,11,47,040,37,17,30,295,45,18,32,042,43*75
$GPGSV,2,2,05,28,58,326,41*49
$BDGSV,2,1,05,08,00,000,38,10,00,000,37,27,00,000,33,29,00,000,41*63
$BDGSV,2,2,05,30,00,000,47*5D
$LOGTIM,1,-623.784778,0.000000,0.000000,0.000000,-72.651*38
EndT:        2
---00000041--- Acq_st=7 2019-5-22 06:56:39 
[00]  G01  f 43   1630.4 2045997.9  1.0  1.0  5  0 284216931
[01]  G11  f 37   1680.1 2045997.8  1.0  1.0  5  0 284216929
[02]  G17  f 45  -1910.5 2046002.5  1.0  1.0  5  0 284216923
[03]  G18  f 43   2749.3 2045996.4  1.0  1.0  5  0 284216926
[05]  G28  f 41  -2257.1 2046002.9  1.0  1.0  5  0 284216929
[16]  B08 1f 38   -194.9 4092000.5  1.0  1.0  5  0 284202879
[17]  B10 1f 37   -435.9 4092001.2  1.0  1.0  5  0 284202879
[18]  B27 1f 33   1826.4 4091995.1  1.0  1.0  5  0 284202913
[19]  B29 1f 42  -1412.7 4092003.6  1.0  1.0  5  0 284202922
[20]  B30 1f 46    606.1 4091998.4  1.0  1.0  5  0 284202925
lsq: nits= 2
$GNGGA,065640.000,3112.7171,N,12136.4376,E,1,05,12.4,42.2,M,,,,0000*16
$GNRMC,065640.000,A,3112.7171,N,12136.4376,E,35.65,280.49,220519,,*23
$GPGSA,A,3,01,11,17,18,28,,,,,,,,13.1,12.4,4.3*35
$BDGSA,A,3,,,,,,,,,,,,,13.1,12.4,4.3*20
$GPGSV,2,1,05,01,59,033,43,11,47,040,37,17,30,295,45,18,32,042,43*75
$GPGSV,2,2,05,28,58,326,41*49
$BDGSV,2,1,05,08,00,000,38,10,00,000,37,27,00,000,33,29,00,000,42*60
$BDGSV,2,2,05,30,00,000,46*5C
$LOGTIM,1,-722.637910,0.000000,0.000000,0.000000,-74.637*37
EndT:        2
---00000042--- Acq_st=7 2019-5-22 06:56:40 
[00]  G01  f 43   1633.5 2045997.9  1.0  1.0  5  0 284217931
[01]  G11  f 36   1684.0 2045997.8  1.0  1.0  5  0 284217929
[02]  G17  f 45  -1907.8 2046002.5  1.0  1.0  5  0 284217923
[03]  G18  f 43   2752.3 2045996.5  1.0  1.0  5  0 284217926
[05]  G28  f 41  -2253.9 2046002.9  1.0  1.0  5  0 284217929
[16]  B08 1f 38   -191.1 4092000.5  1.0  1.0  5  0 284203879
[17]  B10 1f 37   -432.8 4092001.1  1.0  1.0  5  0 284203879
[18]  B27 1f 33   1829.4 4091995.2  1.0  1.0  5  0 284203913
[19]  B29 1f 42  -1409.5 4092003.7  1.0  1.0  5  0 284203922
[20]  B30 1f 47    608.9 4091998.4  1.0  1.0  5  0 284203925
lsq: nits= 2
$GNGGA,065641.000,3112.6940,N,12136.4444,E,1,05,12.4,28.7,M,,,,0000*13
$GNRMC,065641.000,A,3112.6940,N,12136.4444,E,39.22,280.38,220519,,*26
$GPGSA,A,3,01,11,17,18,28,,,,,,,,13.1,12.4,4.3*35
$BDGSA,A,3,,,,,,,,,,,,,13.1,12.4,4.3*20
$GPGSV,2,1,05,01,59,033,43,11,47,040,36,17,30,295,45,18,32,042,43*74
$GPGSV,2,2,05,28,58,326,41*49
$BDGSV,2,1,05,08,00,000,38,10,00,000,37,27,00,000,33,29,00,000,42*60
$BDGSV,2,2,05,30,00,000,47*5D
$LOGTIM,1,-814.240095,0.000000,0.000000,0.000000,-75.932*36
EndT:        2
---00000043--- Acq_st=7 2019-5-22 06:56:41 
[00]  G01  f 43   1630.1 2045997.9  1.0  1.0  5  0 284218931
[01]  G11  f 37   1679.1 2045997.8  1.0  0.9  5  0 284218929
[02]  G17  f 45  -1910.9 2046002.5  1.0  1.0  5  0 284218923
[03]  G18  f 42   2748.9 2045996.4  1.0  1.0  5  0 284218926
[05]  G28  f 41  -2257.2 2046002.9  1.0  1.0  5  0 284218929
[16]  B08 1f 38   -194.6 4092000.5  1.0  1.0  5  0 284204879
[17]  B10 1f 37   -436.4 4092001.2  1.0  0.9  5  0 284204879
[18]  B27 1f 34   1826.1 4091995.2  1.0  0.9  5  0 284204913
[19]  B29 1f 42  -1412.8 4092003.7  1.0  1.0  5  0 284204922
[20]  B30 1f 47    605.6 4091998.4  1.0  1.0  5  0 284204925
lsq: nits= 2
$GNGGA,065642.000,3112.6806,N,12136.4480,E,1,05,12.4,25.2,M,,,,0000*13
$GNRMC,065642.000,A,3112.6806,N,12136.4480,E,39.61,280.11,220519,,*22
$GPGSA,A,3,01,11,17,18,28,,,,,,,,13.2,12.4,4.3*36
$BDGSA,A,3,,,,,,,,,,,,,13.2,12.4,4.3*23
$GPGSV,2,1,05,01,59,033,43,11,47,040,37,17,30,295,45,18,32,042,42*74
$GPGSV,2,2,05,28,58,326,41*49
$BDGSV,2,1,05,08,00,000,38,10,00,000,37,27,00,000,34,29,00,000,42*67
$BDGSV,2,2,05,30,00,000,47*5D
$LOGTIM,1,-892.003573,0.000000,0.000000,0.000000,-75.866*30
EndT:        2
---00000044--- Acq_st=3 2019-5-22 06:56:42 
[00]  G01  f 42   1630.4 2045997.9  1.0  1.0  5  0 284219931
[01]  G11  f 37   1679.0 2045997.8  1.0  0.9  5  0 284219929
[02]  G17  f 45  -1911.4 2046002.5  1.0  1.0  5  0 284219923
[03]  G18  f 43   2748.9 2045996.4  1.0  1.0  5  0 284219926
[05]  G28  f 40  -2257.1 2046003.0  1.0  1.0  5  0 284219929
[16]  B08 1f 38   -195.1 4092000.5  1.0  1.0  5  0 284205879
[17]  B10 1f 37   -436.3 4092001.2  1.0  1.0  5  0 284205879
[18]  B27 1f 34   1825.1 4091995.2  1.0  1.0  5  0 284205913
[19]  B29 1f 42  -1413.5 4092003.7  1.0  1.0  5  0 284205922
[20]  B30 1f 47    605.2 4091998.4  1.0  1.0  5  0 284205925
lsq: nits= 2
$GNGGA,065643.000,3112.6687,N,12136.4511,E,1,05,12.4,22.7,M,,,,0000*1E
$GNRMC,065643.000,A,3112.6687,N,12136.4511,E,39.44,280.05,220519,,*2F
$GPGSA,A,3,01,11,17,18,28,,,,,,,,13.2,12.4,4.3*36
$BDGSA,A,3,,,,,,,,,,,,,13.2,12.4,4.3*23
$GPGSV,2,1,05,01,59,033,42,11,47,040,37,17,30,295,45,18,32,042,43*74
$GPGSV,2,2,05,28,58,326,40*48
$BDGSV,2,1,05,08,00,000,38,10,00,000,37,27,00,000,34,29,00,000,42*67
$BDGSV,2,2,05,30,00,000,47*5D
$LOGTIM,1,-967.556588,0.000000,0.000000,0.000000,-75.637*30
EndT:        2
---00000045--- Acq_st=3 2019-5-22 06:56:43 
[00]  G01  f 43   1635.1 2045997.9  1.0  1.0  5  0 284220931
[01]  G11  f 38   1682.9 2045997.8  1.0  1.0  5  0 284220929
[02]  G17  f 45  -1907.5 2046002.5  1.0  1.0  5  0 284220923
[03]  G18  f 42   2752.9 2045996.4  1.0  1.0  5  0 284220926
[05]  G28  f 40  -2253.2 2046002.9  1.0  1.0  5  0 284220929
[16]  B08 1f 38   -191.3 4092000.5  1.0  1.0  5  0 284206879
[17]  B10 1f 37   -433.0 4092001.1  1.0  1.0  5  0 284206879
[18]  B27 1f 34   1829.4 4091995.3  1.0  1.0  5  0 284206913
[19]  B29 1f 43  -1409.4 4092003.7  1.0  1.0  5  0 284206922
[20]  B30 1f 47    609.0 4091998.4  1.0  1.0  5  0 284206925
lsq: nits= 2
$GNGGA,065644.000,3112.6559,N,12136.4548,E,1,05,12.5,22.0,M,,,,0000*13
$GNRMC,065644.000,A,3112.6559,N,12136.4548,E,41.50,279.90,220519,,*24
$GPGSA,A,3,01,11,17,18,28,,,,,,,,13.2,12.5,4.3*37
$BDGSA,A,3,,,,,,,,,,,,,13.2,12.5,4.3*22
$GPGSV,2,1,05,01,59,033,43,11,47,040,38,17,30,295,45,18,32,042,42*7B
$GPGSV,2,2,05,28,58,326,40*48
$BDGSV,2,1,05,08,00,000,38,10,00,000,37,27,00,000,34,29,00,000,43*66
$BDGSV,2,2,05,30,00,000,47*5D
$LOGTIM,1,-1042.386199,0.000000,0.000000,0.000000,-75.150*06
EndT:        2
---00000046--- Acq_st=3 2019-5-22 06:56:44 
[00]  G01  f 43   1637.2 2045997.9  1.0  1.0  5  0 284221931
[01]  G11  f 38   1685.4 2045997.8  1.0  0.9  5  0 284221929
[02]  G17  f 45  -1905.4 2046002.5  1.0  1.0  5  0 284221923
[03]  G18  f 42   2755.1 2045996.4  1.0  1.0  5  0 284221926
[05]  G28  f 40  -2250.5 2046003.0  1.0  1.0  5  0 284221929
[16]  B08 1f 38   -189.1 4092000.5  1.0  1.0  5  0 284207879
[17]  B10 1f 37   -430.6 4092001.1  1.0  0.9  5  0 284207879
[18]  B27 1f 35   1829.9 4091995.1  1.0  1.0  5  0 284207913
[19]  B29 1f 43  -1407.1 4092003.7  1.0  1.0  5  0 284207922
[20]  B30 1f 47    611.4 4091998.4  1.0  1.0  5  0 284207925
lsq: nits= 2
$GNGGA,065645.000,3112.6515,N,12136.4543,E,1,10,12.5,28.0,M,,,,0000*1F
$GNRMC,065645.000,A,3112.6515,N,12136.4543,E,38.24,279.29,220519,,*29
$GPGSA,A,3,01,11,17,18,28,,,,,,,,13.2,12.5,4.3*37
$BDGSA,A,3,08,10,27,29,30,,,,,,,,13.2,12.5,4.3*26
$GPGSV,2,1,05,01,59,033,43,11,47,040,38,17,30,295,45,18,32,042,42*7B
$GPGSV,2,2,05,28,58,326,40*48
$BDGSV,2,1,05,08,00,000,38,10,00,000,37,27,00,000,35,29,00,000,43*67
$BDGSV,2,2,05,30,00,000,47*5D
$LOGTIM,3,-1103.282626,-1177.672909,0.000000,0.000000,-73.804*16
EndT:        2
---00000047--- Acq_st=3 2019-5-22 06:56:45 
[00]  G01  f 44   1634.0 2045997.9  1.0  1.0  5  0 284222931
[01]  G11  f 38   1683.0 2045997.8  1.0  1.0  5  0 284222929
[02]  G17  f 45  -1908.4 2046002.5  1.0  1.0  5  0 284222923
[03]  G18  f 42   2752.2 2045996.5  1.0  1.0  5  0 284222926
[05]  G28  f 40  -2253.5 2046003.0  1.0  1.0  5  0 284222929
[16]  B08 1f 38   -191.7 4092000.5  1.0  1.0  5  0 284208879
[17]  B10 1f 37   -432.9 4092001.1  1.0  1.0  5  0 284208879
[18]  B27 1f 34   1828.6 4091995.2  1.0  0.9  5  0 284208913
[19]  B29 1f 43  -1410.4 4092003.7  1.0  1.0  5  0 284208922
[20]  B30 1f 47    608.5 4091998.4  1.0  1.0  5  0 284208925
lsq: nits= 2
$GNGGA,065646.000,3112.6665,N,12136.4516,E,1,08,4.1,36.5,M,,,,0000*28
$GNRMC,065646.000,A,3112.6665,N,12136.4516,E,19.84,281.69,220519,,*24
$GPGSA,A,3,01,11,17,18,28,,,,,,,,4.1,4.1,0.9*3F
$BDGSA,A,3,08,10,27,,,,,,,,,,4.1,4.1,0.9*26
$GPGSV,2,1,05,01,59,033,44,11,47,040,38,17,30,295,45,18,32,042,42*7C
$GPGSV,2,2,05,28,58,326,40*48
$BDGSV,2,1,05,08,71,274,38,10,75,286,37,27,12,065,34,29,43,292,43*61
$BDGSV,2,2,05,30,54,024,47*5A
$LOGTIM,3,-1146.922557,-1223.470576,0.000000,0.000000,-69.486*18
EndT:        3
---00000048--- Acq_st=3 2019-5-22 06:56:46 
[00]  G01  f 44   1635.0 2045997.9  1.0  1.0  5  0 284223931
[01]  G11  f 39   1683.9 2045997.8  1.0  1.0  5  0 284223929
[02]  G17  f 45  -1908.0 2046002.5  1.0  1.0  5  0 284223923
[03]  G18  f 42   2752.4 2045996.4  1.0  1.0  5  0 284223926
[05]  G28  f 40  -2252.9 2046002.9  1.0  1.0  5  0 284223929
[16]  B08 1f 38   -191.6 4092000.5  1.0  1.0  5  0 284209879
[17]  B10 1f 37   -432.5 4092001.1  1.0  1.0  5  0 284209879
[18]  B27 1f 35   1828.3 4091995.2  1.0  1.0  5  0 284209913
[19]  B29 1f 43  -1409.9 4092003.7  1.0  1.0  5  0 284209922
[20]  B30 1f 47    608.6 4091998.4  1.0  1.0  5  0 284209925
lsq: nits= 2
$GNGGA,065647.000,3112.6781,N,12136.4492,E,1,10,2.2,45.2,M,,,,0000*20
$GNRMC,065647.000,A,3112.6781,N,12136.4492,E,13.83,281.50,220519,,*24
$GPGSA,A,3,01,11,17,18,28,,,,,,,,2.4,2.2,0.8*38
$BDGSA,A,3,08,10,27,29,30,,,,,,,,2.4,2.2,0.8*29
$GPGSV,2,1,05,01,59,033,44,11,47,040,39,17,30,295,45,18,32,042,42*7D
$GPGSV,2,2,05,28,58,326,40*48
$BDGSV,2,1,05,08,71,274,38,10,75,286,37,27,12,065,35,29,43,292,43*60
$BDGSV,2,2,05,30,54,024,47*5A
$LOGTIM,3,-1194.776465,-1311.393288,0.000000,0.000000,-67.701*16
EndT:        3
---00000049--- Acq_st=3 2019-5-22 06:56:47 
[00]  G01  f 43   1633.9 2045997.9  1.0  1.0  5  0 284224931
[01]  G11  f 39   1682.3 2045997.8  1.0  1.0  5  0 284224929
[02]  G17  f 45  -1910.0 2046002.5  1.0  1.0  5  0 284224923
[03]  G18  f 42   2751.1 2045996.4  1.0  1.0  5  0 284224926
[05]  G28  f 40  -2254.6 2046002.9  1.0  1.0  5  0 284224929
[16]  B08 1f 39   -192.9 4092000.5  1.0  0.9  5  0 284210879
[17]  B10 1f 37   -435.2 4092001.0  1.0  1.0  5  0 284210879
[18]  B27 1f 35   1826.1 4091995.2  1.0  1.0  5  0 284210913
[19]  B29 1f 43  -1411.4 4092003.7  1.0  1.0  5  0 284210922
[20]  B30 1f 46    607.0 4091998.4  1.0  1.0  5  0 284210925
lsq: nits= 2
$GNGGA,065648.000,3112.6821,N,12136.4483,E,1,10,2.2,48.5,M,,,,0000*20
$GNRMC,065648.000,A,3112.6821,N,12136.4483,E,10.10,281.65,220519,,*21
$GPGSA,A,3,01,11,17,18,28,,,,,,,,2.4,2.2,0.8*38
$BDGSA,A,3,08,10,27,29,30,,,,,,,,2.4,2.2,0.8*29
$GPGSV,2,1,05,01,59,033,43,11,47,040,39,17,30,295,45,18,32,042,42*7A
$GPGSV,2,2,05,28,58,326,40*48
$BDGSV,2,1,05,08,71,274,39,10,75,286,37,27,12,065,35,29,43,292,43*61
$BDGSV,2,2,05,30,54,024,46*5B
$LOGTIM,3,-1252.106860,-1374.712571,0.000000,0.000000,-66.388*1C
EndT:        3
---00000050--- Acq_st=3 2019-5-22 06:56:48 
[00]  G01  f 44   1637.7 2045997.9  1.0  1.0  5  0 284225931
[01]  G11  f 39   1685.5 2045997.8  1.0  1.0  5  0 284225929
[02]  G17  f 44  -1906.2 2046002.5  1.0  1.0  5  0 284225923
[03]  G18  f 42   2754.8 2045996.4  1.0  1.0  5  0 284225926
[05]  G28  f 39  -2250.8 2046003.0  1.0  1.0  5  0 284225929
[16]  B08 1f 38   -189.9 4092000.5  1.0  1.0  5  0 284211879
[17]  B10 1f 37   -430.6 4092001.1  1.0  1.0  5  0 284211879
[18]  B27 1f 35   1829.3 4091995.2  1.0  0.9  5  0 284211913
[19]  B29 1f 43  -1407.7 4092003.7  1.0  1.0  5  0 284211922
[20]  B30 1f 46    610.6 4091998.4  1.0  1.0  5  0 284211925
lsq: nits= 2
$GNGGA,065649.000,3112.6808,N,12136.4460,E,1,10,2.2,49.7,M,,,,0000*24
$GNRMC,065649.000,A,3112.6808,N,12136.4460,E,9.20,281.05,220519,,*1B
$GPGSA,A,3,01,11,17,18,28,,,,,,,,2.4,2.2,0.8*38
$BDGSA,A,3,08,10,27,29,30,,,,,,,,2.4,2.2,0.8*29
$GPGSV,2,1,05,01,59,033,44,11,47,040,39,17,30,295,44,18,32,042,42*7C
$GPGSV,2,2,05,28,58,326,39*46
$BDGSV,2,1,05,08,71,274,38,10,75,286,37,27,12,065,35,29,43,292,43*60
$BDGSV,2,2,05,30,54,024,46*5B
$LOGTIM,3,-1315.335782,-1448.716344,0.000000,0.000000,-65.362*14
EndT:        3
---00000051--- Acq_st=3 2019-5-22 06:56:49 
[00]  G01  f 44   1641.5 2045997.9  1.0  1.0  5  0 284226931
[01]  G11  f 39   1689.1 2045997.8  1.0  1.0  5  0 284226929
[02]  G17  f 45  -1902.7 2046002.5  1.0  1.0  5  0 284226923
[03]  G18  f 42   2758.4 2045996.4  1.0  1.0  5  0 284226926
[05]  G28  f 39  -2247.7 2046002.9  1.0  1.0  5  0 284226929
[16]  B08 1f 38   -185.7 4092000.5  1.0  1.0  5  0 284212879
[17]  B10 1f 38   -427.2 4092001.1  1.0  1.0  5  0 284212879
[18]  B27 1f 35   1832.6 4091995.2  1.0  1.0  5  0 284212913
[19]  B29 1f 43  -1404.4 4092003.7  1.0  1.0  5  0 284212922
[20]  B30 1f 46    613.7 4091998.4  1.0  1.0  5  0 284212925
lsq: nits= 2
$GNGGA,065650.000,3112.6821,N,12136.4460,E,1,10,2.2,50.4,M,,,,0000*2C
$GNRMC,065650.000,A,3112.6821,N,12136.4460,E,7.49,281.69,220519,,*13
$GPGSA,A,3,01,11,17,18,28,,,,,,,,2.4,2.2,0.8*38
$BDGSA,A,3,08,10,27,29,30,,,,,,,,2.4,2.2,0.8*29
$GPGSV,2,1,05,01,59,033,44,11,47,040,39,17,30,295,45,18,32,042,42*7D
$GPGSV,2,2,05,28,58,326,39*46
$BDGSV,2,1,05,08,71,274,38,10,75,286,38,27,12,065,35,29,43,292,43*6F
$BDGSV,2,2,05,30,54,024,46*5B
$LOGTIM,3,-1374.608259,-1507.317988,0.000000,0.000000,-64.379*15
EndT:        3
---00000052--- Acq_st=3 2019-5-22 06:56:50 
[00]  G01  f 45   1641.5 2045997.8  1.0  1.0  5  0 284227931
[01]  G11  f 39   1689.7 2045997.8  1.0  1.0  5  0 284227929
[02]  G17  f 44  -1902.8 2046002.5  1.0  1.0  5  0 284227923
[03]  G18  f 42   2758.6 2045996.4  1.0  1.0  5  0 284227926
[05]  G28  f 40  -2246.8 2046002.9  1.0  1.0  5  0 284227929
[16]  B08 1f 38   -186.3 4092000.5  1.0  1.0  5  0 284213879
[17]  B10 1f 37   -427.3 4092001.1  1.0  0.9  5  0 284213879
[18]  B27 1f 36   1833.5 4091995.2  1.0  0.9  5  0 284213913
[19]  B29 1f 42  -1404.3 4092003.7  1.0  1.0  5  0 284213922
[20]  B30 1f 46    614.0 4091998.4  1.0  1.0  5  0 284213925
lsq: nits= 2
$GNGGA,065651.000,3112.6833,N,12136.4459,E,1,10,2.2,50.9,M,,,,0000*29
$GNRMC,065651.000,A,3112.6833,N,12136.4459,E,5.91,281.65,220519,,*10
$GPGSA,A,3,01,11,17,18,28,,,,,,,,2.4,2.2,0.8*38
$BDGSA,A,3,08,10,27,29,30,,,,,,,,2.4,2.2,0.8*29
$GPGSV,2,1,05,01,59,033,45,11,47,040,39,17,30,295,44,18,32,042,42*7D
$GPGSV,2,2,05,28,58,326,40*48
$BDGSV,2,1,05,08,71,274,38,10,75,286,37,27,12,065,36,29,43,292,42*62
$BDGSV,2,2,05,30,54,024,46*5B
$LOGTIM,3,-1433.860884,-1566.406743,0.000000,0.000000,-63.561*1A
EndT:        3
---00000053--- Acq_st=3 2019-5-22 06:56:51 
[00]  G01  f 45   1643.4 2045997.9  1.0  1.0  5  0 284228931
[01]  G11  f 39   1690.6 2045997.9  1.0  1.0  5  0 284228929
[02]  G17  f 44  -1901.7 2046002.5  1.0  1.0  5  0 284228923
[03]  G18  f 42   2759.7 2045996.4  1.0  1.0  5  0 284228926
[05]  G28  f 39  -2245.4 2046002.9  1.0  1.0  5  0 284228929
[16]  B08 1f 39   -185.6 4092000.5  1.0  1.0  5  0 284214879
[17]  B10 1f 37   -426.0 4092001.1  1.0  1.0  5  0 284214879
[18]  B27 1f 35   1834.1 4091995.2  1.0  1.0  5  0 284214913
[19]  B29 1f 42  -1403.0 4092003.7  1.0  1.0  5  0 284214922
[20]  B30 1f 46    615.2 4091998.4  1.0  1.0  5  0 284214925
lsq: nits= 2
$GNGGA,065652.000,3112.6817,N,12136.4440,E,1,10,2.2,50.6,M,,,,0000*2B
$GNRMC,065652.000,A,3112.6817,N,12136.4440,E,4.88,280.77,220519,,*16
$GPGSA,A,3,01,11,17,18,28,,,,,,,,2.4,2.2,0.8*38
$BDGSA,A,3,08,10,27,29,30,,,,,,,,2.4,2.2,0.8*29
$GPGSV,2,1,05,01,59,033,45,11,47,040,39,17,30,295,44,18,32,042,42*7D
$GPGSV,2,2,05,28,58,326,39*46
$BDGSV,2,1,05,08,71,274,39,10,75,286,37,27,12,065,35,29,43,292,42*60
$BDGSV,2,2,05,30,54,024,46*5B
$LOGTIM,3,-1496.803372,-1632.629995,0.000000,0.000000,-63.096*17
EndT:        3
---00000054--- Acq_st=3 2019-5-22 06:56:52 
[00]  G01  f 45   1641.1 2045997.9  1.0  1.0  5  0 284229931
[01]  G11  f 39   1688.4 2045997.8  1.0  1.0  5  0 284229929
[02]  G17  f 45  -1904.6 2046002.5  1.0  1.0  5  0 284229923
[03]  G18  f 43   2757.3 2045996.4  1.0  1.0  5  0 284229926
[05]  G28  f 40  -2247.8 2046002.9  1.0  1.0  5  0 284229929
[16]  B08 1f 38   -187.5 4092000.5  1.0  0.9  5  0 284215879
[17]  B10 1f 37   -428.8 4092001.1  1.0  1.0  5  0 284215879
[18]  B27 1f 35   1831.1 4091995.2  1.0  1.0  5  0 284215913
[19]  B29 1f 42  -1405.7 4092003.7  1.0  1.0  5  0 284215922
[20]  B30 1f 46    612.6 4091998.4  1.0  1.0  5  0 284215925
lsq: nits= 2
$GNGGA,065653.000,3112.6806,N,12136.4447,E,1,10,2.2,49.1,M,,,,0000*22
$GNRMC,065653.000,A,3112.6806,N,12136.4447,E,3.17,283.03,220519,,*11
$GPGSA,A,3,01,11,17,18,28,,,,,,,,2.4,2.2,0.8*38
$BDGSA,A,3,08,10,27,29,30,,,,,,,,2.4,2.2,0.8*29
$GPGSV,2,1,05,01,59,033,45,11,47,040,39,17,30,295,45,18,32,042,43*7D
$GPGSV,2,2,05,28,58,326,40*48
$BDGSV,2,1,05,08,71,274,38,10,75,286,37,27,12,065,35,29,43,292,42*61
$BDGSV,2,2,05,30,54,024,46*5B
$LOGTIM,3,-1558.874824,-1694.951475,0.000000,0.000000,-63.158*10
EndT:        3

