FlashID=0x1 0x20 0x18
BBram_blkflag1:  9cd: f632
FW Ver: 1.30  
GPS00 Init Dop:   5000, 40
GPS01 Init Dop:   5000, 40
GPS02 Init Dop:   5000, 40
GPS03 Init Dop:   5000, 40
GPS04 Init Dop:   5000, 40
GPS05 Init Dop:   5000, 40
GPS06 Init Dop:   5000, 40
GPS07 Init Dop:   5000, 40
GPS08 Init Dop:   5000, 40
GPS09 Init Dop:   5000, 40
GPS10 Init Dop:   5000, 40
GPS11 Init Dop:   5000, 40
GPS12 Init Dop:   5000, 40
GPS13 Init Dop:   5000, 40
GPS14 Init Dop:   5000, 40
GPS15 Init Dop:   5000, 40
GPS16 Init Dop:   5000, 40
GPS17 Init Dop:   5000, 40
GPS18 Init Dop:   5000, 40
GPS19 Init Dop:   5000, 40
GPS20 Init Dop:   5000, 40
GPS21 Init Dop:   5000, 40
GPS22 Init Dop:   5000, 40
GPS23 Init Dop:   5000, 40
GPS24 Init Dop:   5000, 40
GPS25 Init Dop:   5000, 40
GPS26 Init Dop:   5000, 40
GPS27 Init Dop:   5000, 40
GPS28 Init Dop:   5000, 40
GPS29 Init Dop:   5000, 40
GPS30 Init Dop:   5000, 40
GPS31 Init Dop:   5000, 40
BDS00 Init Dop:   5000, 40
BDS01 Init Dop:   5000, 40
BDS02 Init Dop:   5000, 40
BDS03 Init Dop:   5000, 40
BDS04 Init Dop:   5000, 40
BDS05 Init Dop:   5000, 40
BDS06 Init Dop:   5000, 40
BDS07 Init Dop:   5000, 40
BDS08 Init Dop:   5000, 40
BDS09 Init Dop:   5000, 40
BDS10 Init Dop:   5000, 40
BDS11 Init Dop:   5000, 40
BDS12 Init Dop:   5000, 40
BDS13 Init Dop:   5000, 40
BDS14 Init Dop:   5000, 40
BDS15 Init Dop:   5000, 40
BDS16 Init Dop:   5000, 40
BDS17 Init Dop:   5000, 40
BDS18 Init Dop:   5000, 40
BDS19 Init Dop:   5000, 40
BDS20 Init Dop:   5000, 40
BDS21 Init Dop:   5000, 40
BDS22 Init Dop:   5000, 40
BDS23 Init Dop:   5000, 40
BDS24 Init Dop:   5000, 40
BDS25 Init Dop:   5000, 40
BDS26 Init Dop:   5000, 40
BDS27 Init Dop:   5000, 40
BDS28 Init Dop:   5000, 40
BDS29 Init Dop:   5000, 40
BDS30 Init Dop:   5000, 40
BDS31 Init Dop:   5000, 40
good luck!
---00000001--- Acq_st=3 2019-5-22 07:01:7 
[00]  G01  1 29   1745.5 2045999.1  0.0  0.0  1  0         0
$GNGGA,000000.000,,,,,0,00,,,M,,,,0000*2B
$GNRMC,000000.000,A,,,,,,,000000,,*26
$GPGSA,A,1,,,,,,,,,,,,,,,*1E
$BDGSA,A,1,,,,,,,,,,,,,,,*0F
$LOGTIM,0,0.000000,0.000000,0.000000,0.000000,0.000*0A
EndT:        0
---00000002--- Acq_st=3 2019-5-22 07:01:8 
[00]  G01  7 28   1741.3 2045997.6  0.4  0.0 10  0        18
$GNGGA,000000.000,,,,,0,00,,,M,,,,0000*2B
$GNRMC,000000.000,A,,,,,,,000000,,*26
$GPGSA,A,1,,,,,,,,,,,,,,,*1E
$BDGSA,A,1,,,,,,,,,,,,,,,*0F
$GPGSV,1,1,01,01,00,000,28*43
$LOGTIM,0,0.000000,0.000000,0.000000,0.000000,0.000*0A
EndT:        0
---00000003--- Acq_st=3 2019-5-22 07:01:9 
[00]  G01  7 45   1742.0 2045997.6  1.0  1.0  5  0        15
[01]  G11  1 25   1736.1 2045999.3  0.1  0.0  1  0         0
$GNGGA,000000.000,,,,,0,00,,,M,,,,0000*2B
$GNRMC,000000.000,A,,,,,,,000000,,*26
$GPGSA,A,1,,,,,,,,,,,,,,,*1E
$BDGSA,A,1,,,,,,,,,,,,,,,*0F
$GPGSV,1,1,01,01,00,000,45*48
$LOGTIM,0,0.000000,0.000000,0.000000,0.000000,0.000*0A
EndT:        0
---00000004--- Acq_st=3 2019-5-22 07:01:10 
[00]  G01  7 45   1743.9 2045997.7  1.0  1.0  5  0        15
[01]  G11  7 16   1744.6 2045997.7  0.3  0.0 20  0         6
[02]  G17  1  0   6301.6 2046002.0  0.0  0.0  1  0         0
$GNGGA,000000.000,,,,,0,00,,,M,,,,0000*2B
$GNRMC,000000.000,A,,,,,,,000000,,*26
$GPGSA,A,1,,,,,,,,,,,,,,,*1E
$BDGSA,A,1,,,,,,,,,,,,,,,*0F
$GPGSV,1,1,02,01,00,000,45,11,00,000,16*7C
$LOGTIM,0,0.000000,0.000000,0.000000,0.000000,0.000*0A
EndT:        0
---00000005--- Acq_st=3 2019-5-22 07:01:11 
[00]  G01  7 44   1744.3 2045997.7  1.0  1.0  5  0        15
[01]  G11  7 39   1744.0 2045997.7  1.0  1.0  5  0        13
[02]  G17  1 21  -1911.6 2046003.7  0.0  0.0  1  0         6
[03]  G18  1 22   2808.6 2045997.3 -0.1  0.0  1  0         0
[04]  G19  1  7  -2759.7 2046004.3  0.1  0.0  1  0         0
$GNGGA,000000.000,,,,,0,00,,,M,,,,0000*2B
$GNRMC,000000.000,A,,,,,,,000000,,*26
$GPGSA,A,1,,,,,,,,,,,,,,,*1E
$BDGSA,A,1,,,,,,,,,,,,,,,*0F
$GPGSV,1,1,02,01,00,000,44,11,00,000,39*70
$LOGTIM,0,0.000000,0.000000,0.000000,0.000000,0.000*0A
EndT:        0
---00000006--- Acq_st=3 2019-5-22 07:01:12 
[00]  G01  7 44   1743.5 2045997.7  1.0  1.0  5  0        15
[01]  G11  7 40   1744.3 2045997.7  1.0  1.0  5  0        13
[02]  G17  7 31  -1898.5 2046002.4  0.6  1.0  5  0         6
[03]  G18  7 28   2804.7 2045996.2 -0.2  1.0 10  0        13
[04]  G19  7 21  -2712.1 2046003.5  0.1  0.0 20  0        19
$GNGGA,000000.000,,,,,0,00,,,M,,,,0000*2B
$GNRMC,000000.000,A,,,,,,,000000,,*26
$GPGSA,A,1,,,,,,,,,,,,,,,*1E
$BDGSA,A,1,,,,,,,,,,,,,,,*0F
$GPGSV,2,1,05,01,00,000,44,11,00,000,40,17,00,000,31,18,00,000,28*7D
$GPGSV,2,2,05,19,00,000,21*47
$LOGTIM,0,0.000000,0.000000,0.000000,0.000000,0.000*0A
EndT:        1
---00000007--- Acq_st=3 2019-5-22 07:01:13 
[00]  G01  7 43   1744.4 2045997.7  1.0  1.0  5  0        15
[01]  G11  7 39   1744.7 2045997.7  1.0  1.0  5  0        13
[02]  G17  7 40  -1898.2 2046002.4  1.0  1.0  5  0         8
[03]  G18  7 41   2806.1 2045996.3  0.9  1.0  5  0        10
[04]  G19  7 35  -2708.7 2046003.6  0.7  1.0  5  0         3
[05]  G28  1 11  -2199.9 2046003.9 -0.0  0.0  1  0         0
$GNGGA,000000.000,,,,,0,00,,,M,,,,0000*2B
$GNRMC,000000.000,A,,,,,,,000000,,*26
$GPGSA,A,1,,,,,,,,,,,,,,,*1E
$BDGSA,A,1,,,,,,,,,,,,,,,*0F
$GPGSV,2,1,05,01,00,000,43,11,00,000,39,17,00,000,40,18,00,000,41*7D
$GPGSV,2,2,05,19,00,000,35*42
$LOGTIM,0,0.000000,0.000000,0.000000,0.000000,0.000*0A
EndT:        0
---00000008--- Acq_st=3 2019-5-22 07:01:14 
[00]  G01  f 43   1748.7 2045997.7  1.0  1.0  5  0        15
[01]  G11  f 39   1748.2 2045997.8  1.0  1.0  5  0        13
[02]  G17  f 40  -1893.7 2046002.5  1.0  1.0  5  0         8
[03]  G18  f 42   2810.2 2045996.2  1.0  1.0  5  0        10
[04]  G19  f 35  -2705.7 2046003.5  1.0  0.9  5  0         3
[05]  G28  7 19  -2170.0 2046002.8  0.4  0.0 20  0         0
$GNGGA,000000.000,,,,,0,00,,,M,,,,0000*2B
$GNRMC,000000.000,A,,,,,,,000000,,*26
$GPGSA,A,1,,,,,,,,,,,,,,,*1E
$BDGSA,A,1,,,,,,,,,,,,,,,*0F
$GPGSV,2,1,06,01,00,000,43,11,00,000,39,17,00,000,40,18,00,000,42*7D
$GPGSV,2,2,06,19,00,000,35,28,00,000,19*73
$LOGTIM,0,0.000000,0.000000,0.000000,0.000000,0.000*0A
EndT:        0
---00000009--- Acq_st=3 2019-5-22 07:01:15 
[00]  G01  f 43   1748.5 2045997.7  1.0  1.0  5  0 284492055
[01]  G11  f 39   1748.9 2045997.7  1.0  1.0  5  0 284492053
[02]  G17  f 39  -1894.7 2046002.5  1.0  1.0  5  0 284492048
[03]  G18  f 42   2810.0 2045996.3  1.0  1.0  5  0 284492050
[04]  G19  f 36  -2705.4 2046003.5  1.0  1.0  5  0 284492043
[05]  G28  7 38  -2169.9 2046002.8  0.7  1.0  5  0        14
$GNGGA,000000.000,,,,,0,00,,,M,,,,0000*2B
$GNRMC,000000.000,A,,,,,,,000000,,*26
$GPGSA,A,1,,,,,,,,,,,,,,,*1E
$BDGSA,A,1,,,,,,,,,,,,,,,*0F
$GPGSV,2,1,06,01,00,000,43,11,00,000,39,17,00,000,39,18,00,000,42*73
$GPGSV,2,2,06,19,00,000,36,28,00,000,38*73
$LOGTIM,0,0.000000,0.000000,0.000000,0.000000,0.000*0A
EndT:        0
---00000010--- Acq_st=3 2019-5-22 07:01:16 
[00]  G01  f 42   1753.4 2045997.7  1.0  1.0  5  0 284493055
[01]  G11  f 39   1752.2 2045997.7  1.0  1.0  5  0 284493053
[02]  G17  f 39  -1890.2 2046002.4  1.0  1.0  5  0 284493048
[03]  G18  f 42   2813.9 2045996.3  1.0  1.0  5  0 284493050
[04]  G19  f 36  -2702.2 2046003.5  1.0  1.0  5  0 284493043
[05]  G28  7 38  -2165.5 2046002.7  1.0  1.0  5  0        14
$GNGGA,000000.000,,,,,0,00,,,M,,,,0000*2B
$GNRMC,000000.000,A,,,,,,,000000,,*26
$GPGSA,A,1,,,,,,,,,,,,,,,*1E
$BDGSA,A,1,,,,,,,,,,,,,,,*0F
$GPGSV,2,1,06,01,00,000,42,11,00,000,39,17,00,000,39,18,00,000,42*72
$GPGSV,2,2,06,19,00,000,36,28,00,000,38*73
$LOGTIM,0,0.000000,0.000000,0.000000,0.000000,0.000*0A
EndT:        0
---00000011--- Acq_st=3 2019-5-22 07:01:17 
[00]  G01  f 42   1753.0 2045997.7  1.0  1.0  5  0 284494055
[01]  G11  f 39   1752.2 2045997.7  1.0  1.0  5  0 284494053
[02]  G17  f 39  -1890.8 2046002.4  1.0  1.0  5  0 284494048
[03]  G18  f 43   2813.8 2045996.3  1.0  1.0  5  0 284494050
[04]  G19  f 35  -2702.0 2046003.5  1.0  0.9  5  0 284494043
[05]  G28  7 38  -2166.1 2046002.8  1.0  1.0  5  0        14
$GNGGA,000000.000,,,,,0,00,,,M,,,,0000*2B
$GNRMC,000000.000,A,,,,,,,000000,,*26
$GPGSA,A,1,,,,,,,,,,,,,,,*1E
$BDGSA,A,1,,,,,,,,,,,,,,,*0F
$GPGSV,2,1,06,01,00,000,42,11,00,000,39,17,00,000,39,18,00,000,43*73
$GPGSV,2,2,06,19,00,000,35,28,00,000,38*70
$LOGTIM,0,0.000000,0.000000,0.000000,0.000000,0.000*0A
EndT:        0
---00000012--- Acq_st=3 2019-5-22 07:01:18 
[00]  G01  f 42   1753.7 2045997.8  1.0  1.0  5  0 284495055
[01]  G11  f 39   1752.6 2045997.7  1.0  1.0  5  0 284495053
[02]  G17  f 40  -1890.6 2046002.5  1.0  1.0  5  0 284495048
[03]  G18  f 43   2814.1 2045996.3  1.0  1.0  5  0 284495050
[04]  G19  f 35  -2702.3 2046003.5  1.0  1.0  5  0 284495043
[05]  G28  7 38  -2164.9 2046002.8  1.0  1.0  5  0        14
$GNGGA,000000.000,,,,,0,00,,,M,,,,0000*2B
$GNRMC,000000.000,A,,,,,,,000000,,*26
$GPGSA,A,1,,,,,,,,,,,,,,,*1E
$BDGSA,A,1,,,,,,,,,,,,,,,*0F
$GPGSV,2,1,06,01,00,000,42,11,00,000,39,17,00,000,40,18,00,000,43*7D
$GPGSV,2,2,06,19,00,000,35,28,00,000,38*70
$LOGTIM,0,0.000000,0.000000,0.000000,0.000000,0.000*0A
EndT:        0
---00000013--- Acq_st=3 2019-5-22 07:01:19 
[00]  G01  f 42   1756.7 2045997.7  1.0  1.0  5  0 284496055
[01]  G11  f 39   1756.0 2045997.7  1.0  1.0  5  0 284496053
[02]  G17  f 40  -1887.8 2046002.5  1.0  1.0  5  0 284496048
[03]  G18  f 42   2817.1 2045996.3  1.0  1.0  5  0 284496050
[04]  G19  f 35  -2699.6 2046003.6  1.0  1.0  5  0 284496043
[05]  G28  7 38  -2162.0 2046002.8  1.0  1.0  5  0        14
[16]  B10  1  7   -405.2 4092001.2 -0.0  0.0  1  0         0
$GNGGA,000000.000,,,,,0,00,,,M,,,,0000*2B
$GNRMC,000000.000,A,,,,,,,000000,,*26
$GPGSA,A,1,,,,,,,,,,,,,,,*1E
$BDGSA,A,1,,,,,,,,,,,,,,,*0F
$GPGSV,2,1,06,01,00,000,42,11,00,000,39,17,00,000,40,18,00,000,42*7C
$GPGSV,2,2,06,19,00,000,35,28,00,000,38*70
$LOGTIM,0,0.000000,0.000000,0.000000,0.000000,0.000*0A
EndT:        0
---00000014--- Acq_st=3 2019-5-22 07:01:20 
[00]  G01  f 41   1754.5 2045997.7  1.0  1.0  5  0 284497055
[01]  G11  f 38   1753.9 2045997.7  1.0  1.0  5  0 284497053
[02]  G17  f 40  -1890.1 2046002.4  1.0  1.0  5  0 284497048
[03]  G18  f 43   2814.9 2045996.4  1.0  1.0  5  0 284497050
[04]  G19  f 35  -2701.6 2046003.5  1.0  1.0  5  0 284497043
[05]  G28  f 37  -2164.6 2046002.8  1.0  1.0  5  0        14
[16]  B10  7 24   -391.2 4092001.0  0.3  0.0 20  0       621
$GNGGA,000000.000,,,,,0,00,,,M,,,,0000*2B
$GNRMC,000000.000,A,,,,,,,000000,,*26
$GPGSA,A,1,,,,,,,,,,,,,,,*1E
$BDGSA,A,1,,,,,,,,,,,,,,,*0F
$GPGSV,2,1,06,01,00,000,41,11,00,000,38,17,00,000,40,18,00,000,43*7F
$GPGSV,2,2,06,19,00,000,35,28,00,000,37*7F
$BDGSV,1,1,01,10,00,000,24*5E
$LOGTIM,0,0.000000,0.000000,0.000000,0.000000,0.000*0A
EndT:        0
---00000015--- Acq_st=3 2019-5-22 07:01:21 
[00]  G01  f 41   1754.2 2045997.7  1.0  1.0  5  0 284498055
[01]  G11  f 38   1753.1 2045997.8  1.0  1.0  5  0 284498053
[02]  G17  f 40  -1890.8 2046002.4  1.0  1.0  5  0 284498048
[03]  G18  f 43   2814.7 2045996.3  1.0  1.0  5  0 284498050
[04]  G19  f 35  -2702.5 2046003.5  1.0  0.9  5  0 284498043
[05]  G28  f 38  -2164.2 2046002.8  1.0  1.0  5  0 284498054
[16]  B10  7 38   -392.0 4092001.0  0.8  1.0  5  0      1604
$GNGGA,000000.000,,,,,0,00,,,M,,,,0000*2B
$GNRMC,000000.000,A,,,,,,,000000,,*26
$GPGSA,A,1,,,,,,,,,,,,,,,*1E
$BDGSA,A,1,,,,,,,,,,,,,,,*0F
$GPGSV,2,1,06,01,00,000,41,11,00,000,38,17,00,000,40,18,00,000,43*7F
$GPGSV,2,2,06,19,00,000,35,28,00,000,38*70
$BDGSV,1,1,01,10,00,000,38*53
$LOGTIM,0,0.000000,0.000000,0.000000,0.000000,0.000*0A
EndT:        0
---00000016--- Acq_st=3 2019-5-22 07:01:22 
[00]  G01  f 42   1754.7 2045997.7  1.0  1.0  5  0 284499055
[01]  G11  f 38   1753.2 2045997.8  1.0  1.0  5  0 284499053
[02]  G17  f 41  -1891.5 2046002.5  1.0  1.0  5  0 284499048
[03]  G18  f 43   2814.0 2045996.3  1.0  1.0  5  0 284499050
[04]  G19  f 35  -2702.0 2046003.5  1.0  0.9  5  0 284499043
[05]  G28  f 38  -2164.6 2046002.8  1.0  1.0  5  0 284499054
[16]  B10 1f 39   -392.1 4092001.0  1.0  1.0  5  0      2604
$GNGGA,000000.000,,,,,0,00,,,M,,,,0000*2B
$GNRMC,000000.000,A,,,,,,,000000,,*26
$GPGSA,A,1,,,,,,,,,,,,,,,*1E
$BDGSA,A,1,,,,,,,,,,,,,,,*0F
$GPGSV,2,1,06,01,00,000,42,11,00,000,38,17,00,000,41,18,00,000,43*7D
$GPGSV,2,2,06,19,00,000,35,28,00,000,38*70
$BDGSV,1,1,01,10,00,000,39*52
$LOGTIM,0,0.000000,0.000000,0.000000,0.000000,0.000*0A
EndT:        0
---00000017--- Acq_st=3 2019-5-22 07:01:23 
[00]  G01  f 41   1757.8 2045997.7  1.0  1.0  5  0 284500055
[01]  G11  f 38   1756.2 2045997.7  1.0  1.0  5  0 284500053
[02]  G17  f 41  -1888.2 2046002.4  1.0  1.0  5  0 284500048
[03]  G18  f 43   2817.3 2045996.3  1.0  1.0  5  0 284500050
[04]  G19  f 35  -2700.2 2046003.5  1.0  0.9  5  0 284500043
[05]  G28  f 38  -2161.8 2046002.7  1.0  1.0  5  0 284500054
[16]  B10 1f 38   -389.4 4092001.0  1.0  1.0  5  0 284486004
$GNGGA,000000.000,,,,,0,00,,,M,,,,0000*2B
$GNRMC,000000.000,A,,,,,,,000000,,*26
$GPGSA,A,1,,,,,,,,,,,,,,,*1E
$BDGSA,A,1,,,,,,,,,,,,,,,*0F
$GPGSV,2,1,06,01,00,000,41,11,00,000,38,17,00,000,41,18,00,000,43*7E
$GPGSV,2,2,06,19,00,000,35,28,00,000,38*70
$BDGSV,1,1,01,10,00,000,38*53
$LOGTIM,0,0.000000,0.000000,0.000000,0.000000,0.000*0A
EndT:        0
---00000018--- Acq_st=3 2019-5-22 07:01:24 
[00]  G01  f 41   1759.8 2045997.7  1.0  1.0  5  0 284501055
[01]  G11  f 37   1757.7 2045997.7  1.0  1.0  5  0 284501053
[02]  G17  f 41  -1886.4 2046002.4  1.0  1.0  5  0 284501048
[03]  G18  f 43   2819.3 2045996.3  1.0  1.0  5  0 284501050
[04]  G19  f 36  -2698.0 2046003.5  1.0  1.0  5  0 284501043
[05]  G28  f 39  -2159.5 2046002.8  1.0  1.0  5  0 284501054
[16]  B10 1f 38   -387.7 4092001.0  1.0  1.0  5  0 284487004
$GNGGA,000000.000,,,,,0,00,,,M,,,,0000*2B
$GNRMC,000000.000,A,,,,,,,000000,,*26
$GPGSA,A,1,,,,,,,,,,,,,,,*1E
$BDGSA,A,1,,,,,,,,,,,,,,,*0F
$GPGSV,2,1,06,01,00,000,41,11,00,000,37,17,00,000,41,18,00,000,43*71
$GPGSV,2,2,06,19,00,000,36,28,00,000,39*72
$BDGSV,1,1,01,10,00,000,38*53
$LOGTIM,0,0.000000,0.000000,0.000000,0.000000,0.000*0A
EndT:        0
---00000019--- Acq_st=3 2019-5-22 07:01:25 
[00]  G01  f 42   1756.9 2045997.7  1.0  1.0  5  0 284502055
[01]  G11  f 36   1755.3 2045997.8  1.0  0.9  5  0 284502053
[02]  G17  f 41  -1890.0 2046002.5  1.0  1.0  5  0 284502048
[03]  G18  f 43   2816.1 2045996.3  1.0  1.0  5  0 284502050
[04]  G19  f 35  -2701.8 2046003.5  1.0  0.9  5  0 284502043
[05]  G28  f 39  -2161.8 2046002.8  1.0  1.0  5  0 284502054
[16]  B10 1f 38   -389.8 4092001.0  1.0  1.0  5  0 284488004
$GNGGA,000000.000,,,,,0,00,,,M,,,,0000*2B
$GNRMC,000000.000,A,,,,,,,000000,,*26
$GPGSA,A,1,,,,,,,,,,,,,,,*1E
$BDGSA,A,1,,,,,,,,,,,,,,,*0F
$GPGSV,2,1,06,01,00,000,42,11,00,000,36,17,00,000,41,18,00,000,43*73
$GPGSV,2,2,06,19,00,000,35,28,00,000,39*71
$BDGSV,1,1,01,10,00,000,38*53
$LOGTIM,0,0.000000,0.000000,0.000000,0.000000,0.000*0A
EndT:        0
---00000020--- Acq_st=3 2019-5-22 07:01:26 
[00]  G01  f 41   1758.5 2045997.7  1.0  1.0  5  0 284503055
[01]  G11  f 35   1755.4 2045997.7  1.0  1.0  5  0 284503053
[02]  G17  f 41  -1889.1 2046002.5  1.0  1.0  5  0 284503048
[03]  G18  f 43   2817.3 2045996.3  1.0  1.0  5  0 284503050
[04]  G19  f 36  -2699.6 2046003.5  1.0  1.0  5  0 284503043
[05]  G28  f 40  -2161.0 2046002.8  1.0  1.0  5  0 284503054
[16]  B10 1f 39   -389.4 4092001.0  1.0  1.0  5  0 284489004
$GNGGA,000000.000,,,,,0,00,,,M,,,,0000*2B
$GNRMC,000000.000,A,,,,,,,000000,,*26
$GPGSA,A,1,,,,,,,,,,,,,,,*1E
$BDGSA,A,1,,,,,,,,,,,,,,,*0F
$GPGSV,2,1,06,01,00,000,41,11,00,000,35,17,00,000,41,18,00,000,43*73
$GPGSV,2,2,06,19,00,000,36,28,00,000,40*7C
$BDGSV,1,1,01,10,00,000,39*52
$LOGTIM,0,0.000000,0.000000,0.000000,0.000000,0.000*0A
EndT:        0
---00000021--- Acq_st=3 2019-5-22 07:01:27 
[00]  G01  f 41   1755.4 2045997.7  1.0  1.0  5  0 284504055
[01]  G11  f 35   1753.2 2045997.8  1.0  0.9  5  0 284504053
[02]  G17  f 42  -1892.1 2046002.4  1.0  1.0  5  0 284504048
[03]  G18  f 43   2814.2 2045996.3  1.0  1.0  5  0 284504050
[04]  G19  f 35  -2703.4 2046003.5  1.0  1.0  5  0 284504043
[05]  G28  f 40  -2164.7 2046002.8  1.0  1.0  5  0 284504054
[16]  B10 1f 39   -392.9 4092001.0  1.0  1.0  5  0 284490004
[17]  B27  1  7   1787.5 4091994.6 -0.1  0.0  1  0         0
$GNGGA,000000.000,,,,,0,00,,,M,,,,0000*2B
$GNRMC,000000.000,A,,,,,,,000000,,*26
$GPGSA,A,1,,,,,,,,,,,,,,,*1E
$BDGSA,A,1,,,,,,,,,,,,,,,*0F
$GPGSV,2,1,06,01,00,000,41,11,00,000,35,17,00,000,42,18,00,000,43*70
$GPGSV,2,2,06,19,00,000,35,28,00,000,40*7F
$BDGSV,1,1,01,10,00,000,39*52
$LOGTIM,0,0.000000,0.000000,0.000000,0.000000,0.000*0A
EndT:        0
---00000022--- Acq_st=3 2019-5-22 07:01:28 
[00]  G01  f 42   1750.1 2045997.7  1.0  1.0  5  0 284505055
[01]  G11  f 34   1747.5 2045997.7  1.0  1.0  5  0 284505053
[02]  G17  f 42  -1897.8 2046002.5  1.0  1.0  5  0 284505048
[03]  G18  f 43   2808.8 2045996.3  1.0  1.0  5  0 284505050
[04]  G19  f 35  -2709.1 2046003.5  1.0  1.0  5  0 284505043
[05]  G28  f 40  -2169.0 2046002.8  1.0  1.0  5  0 284505054
[16]  B10 1f 38   -397.8 4092001.0  1.0  1.0  5  0 284491004
[17]  B27  1  7   1813.2 4091994.9  0.3  0.0  1  0       282
[18]  B29  1  7  -1421.8 4092003.1 -0.1  0.0  1  0         0
$GNGGA,000000.000,,,,,0,00,,,M,,,,0000*2B
$GNRMC,000000.000,A,,,,,,,000000,,*26
$GPGSA,A,1,,,,,,,,,,,,,,,*1E
$BDGSA,A,1,,,,,,,,,,,,,,,*0F
$GPGSV,2,1,06,01,00,000,42,11,00,000,34,17,00,000,42,18,00,000,43*72
$GPGSV,2,2,06,19,00,000,35,28,00,000,40*7F
$BDGSV,1,1,01,10,00,000,38*53
$LOGTIM,0,0.000000,0.000000,0.000000,0.000000,0.000*0A
EndT:        0
---00000023--- Acq_st=3 2019-5-22 07:01:29 
[00]  G01  f 42   1748.8 2045997.7  1.0  1.0  5  0 284506055
[01]  G11  f 35   1747.0 2045997.7  1.0  0.9  5  0 284506053
[02]  G17  f 42  -1899.5 2046002.5  1.0  1.0  5  0 284506048
[03]  G18  f 43   2807.1 2045996.4  1.0  1.0  5  0 284506050
[04]  G19  f 35  -2711.2 2046003.5  1.0  0.9  5  0 284506043
[05]  G28  f 40  -2170.7 2046002.8  1.0  1.0  5  0 284506054
[16]  B10 1f 38   -399.4 4092001.0  1.0  1.0  5  0 284492004
[17]  B27  7 36   1811.8 4091995.3  0.8  1.0  5  0      1282
[18]  B29  1  7  -1375.6 4092003.4  0.1  0.0  1  0       301
[19]  B30  1  7    630.9 4091998.2  0.2  0.0  1  0         0
$GNGGA,000000.000,,,,,0,00,,,M,,,,0000*2B
$GNRMC,000000.000,A,,,,,,,000000,,*26
$GPGSA,A,1,,,,,,,,,,,,,,,*1E
$BDGSA,A,1,,,,,,,,,,,,,,,*0F
$GPGSV,2,1,06,01,00,000,42,11,00,000,35,17,00,000,42,18,00,000,43*73
$GPGSV,2,2,06,19,00,000,35,28,00,000,40*7F
$BDGSV,1,1,02,10,00,000,38,27,00,000,36*60
$LOGTIM,0,0.000000,0.000000,0.000000,0.000000,0.000*0A
EndT:        0
---00000024--- Acq_st=7 2019-5-22 07:01:30 
[00]  G01  f 41   1754.2 2045997.7  1.0  1.0  5  0 284507055
[01]  G11  f 35   1751.4 2045997.7  1.0  1.0  5  0 284507053
[02]  G17  f 42  -1894.2 2046002.4  1.0  1.0  5  0 284507048
[03]  G18  f 43   2812.7 2045996.4  1.0  1.0  5  0 284507050
[04]  G19  f 34  -2705.7 2046003.5  1.0  0.9  5  0 284507043
[05]  G28  f 40  -2165.6 2046002.8  1.0  1.0  5  0 284507054
[16]  B10 1f 39   -394.2 4092001.0  1.0  1.0  5  0 284493004
[17]  B27  7 38   1816.4 4091995.2  1.0  1.0  5  0      2278
[18]  B29  7 35  -1369.9 4092003.7  0.6  1.0  5  0      1288
[19]  B30  7 28    636.4 4091998.3  0.2  1.0 10  0       810
lsq: nits= 4
$GNGGA,070130.125,3112.7110,N,12136.4365,E,1,05,7.5,76.3,M,,,,0000*22
$GNRMC,070130.125,A,3112.7110,N,12136.4365,E,0.79,0.00,220519,,*18
$GPGSA,A,3,01,11,17,18,19,,,,,,,,8.1,7.5,3.1*3D
$BDGSA,A,3,,,,,,,,,,,,,8.1,7.5,3.1*2A
$GPGSV,2,1,06,01,00,000,41,11,00,000,35,17,00,000,42,18,00,000,43*70
$GPGSV,2,2,06,19,00,000,34,28,00,000,40*7E
$BDGSV,1,1,04,10,00,000,39,27,00,000,38,29,00,000,35,30,00,000,28*6D
$LOGTIM,1,9200209.251905,0.000000,0.000000,0.000000,-61.061*1C
EndT:        1
---00000025--- Acq_st=7 2019-5-22 07:01:30 
[00]  G01  f 41   1757.9 2045997.7  1.0  1.0  5  0 284508055
[01]  G11  f 34   1755.7 2045997.6  1.0  0.9  5  0 284508053
[02]  G17  f 42  -1891.0 2046002.5  1.0  1.0  5  0 284508048
[03]  G18  f 43   2815.9 2045996.4  1.0  1.0  5  0 284508050
[04]  G19  f 35  -2702.4 2046003.4  1.0  0.9  5  0 284508043
[05]  G28  f 40  -2161.9 2046002.8  1.0  1.0  5  0 284508054
[16]  B10 1f 39   -391.2 4092001.0  1.0  1.0  5  0 284494004
[17]  B27  7 38   1819.2 4091995.2  1.0  1.0  5  0      3278
[18]  B29  7 36  -1367.5 4092003.6  1.0  1.0  5  0      2288
[19]  B30  7 46    639.0 4091998.3  0.9  1.0  5  0      1809
lsq: nits= 2
$GNGGA,070132.000,3112.7096,N,12136.4395,E,1,05,7.5,81.0,M,,,,0000*2D
$GNRMC,070132.000,A,3112.7096,N,12136.4395,E,0.34,0.00,220519,,*15
$GPGSA,A,3,01,11,17,18,19,,,,,,,,8.1,7.5,3.1*3D
$BDGSA,A,3,,,,,,,,,,,,,8.1,7.5,3.1*2A
$GPGSV,2,1,06,01,00,000,41,11,00,000,34,17,00,000,42,18,00,000,43*71
$GPGSV,2,2,06,19,00,000,35,28,00,000,40*7F
$BDGSV,1,1,04,10,00,000,39,27,00,000,38,29,00,000,36,30,00,000,46*66
$LOGTIM,1,-112.798247,0.000000,0.000000,0.000000,-60.148*35
EndT:        2
---00000026--- Acq_st=3 2019-5-22 07:01:32 
[00]  G01  f 42   1761.2 2045997.7  1.0  1.0  5  0 284509930
[01]  G11  f 34   1758.5 2045997.6  1.0  1.0  5  0 284509928
[02]  G17  f 43  -1888.0 2046002.5  1.0  1.0  5  0 284509923
[03]  G18  f 43   2818.9 2045996.4  1.0  1.0  5  0 284509925
[04]  G19  f 34  -2698.6 2046003.4  1.0  0.9  5  0 284509919
[05]  G28  f 41  -2158.5 2046002.8  1.0  1.0  5  0 284509929
[16]  B10 1f 39   -388.1 4092001.0  1.0  1.0  5  0 284495879
[17]  B27  7 38   1822.8 4091995.2  1.0  1.0  5  0      5153
[18]  B29  7 36  -1364.2 4092003.6  1.0  1.0  5  0      4163
[19]  B30  7 46    642.2 4091998.3  1.0  1.0  5  0      3685
lsq: nits= 2
$GNGGA,070133.000,3112.7091,N,12136.4394,E,1,05,7.5,81.5,M,,,,0000*2F
$GNRMC,070133.000,A,3112.7091,N,12136.4394,E,0.26,0.00,220519,,*11
$GPGSA,A,3,01,11,17,18,19,,,,,,,,8.1,7.5,3.1*3D
$BDGSA,A,3,,,,,,,,,,,,,8.1,7.5,3.1*2A
$GPGSV,2,1,06,01,57,033,42,11,45,042,34,17,32,297,43,18,30,042,43*7E
$GPGSV,2,2,06,19,13,282,34,28,00,000,41*75
$BDGSV,1,1,04,10,00,000,39,27,00,000,38,29,00,000,36,30,00,000,46*66
$LOGTIM,1,-172.961764,0.000000,0.000000,0.000000,-60.165*30
EndT:        2
---00000027--- Acq_st=3 2019-5-22 07:01:33 
[00]  G01  f 41   1760.8 2045997.7  1.0  1.0  5  0 284510930
[01]  G11  f 34   1757.7 2045997.7  1.0  1.0  5  0 284510928
[02]  G17  f 42  -1888.5 2046002.5  1.0  1.0  5  0 284510923
[03]  G18  f 43   2818.6 2045996.3  1.0  1.0  5  0 284510925
[04]  G19  f 34  -2700.5 2046003.5  1.0  1.0  5  0 284510919
[05]  G28  f 41  -2159.0 2046002.8  1.0  1.0  5  0 284510929
[16]  B10 1f 39   -388.5 4092001.0  1.0  1.0  5  0 284496879
[17]  B27  7 38   1822.2 4091995.2  1.0  1.0  5  0      6153
[18]  B29  7 36  -1365.0 4092003.6  1.0  1.0  5  0      5163
[19]  B30  7 47    641.5 4091998.3  1.0  1.0  5  0      4685
lsq: nits= 2
$GNGGA,070134.000,3112.7091,N,12136.4393,E,1,05,7.5,81.0,M,,,,0000*2A
$GNRMC,070134.000,A,3112.7091,N,12136.4393,E,0.38,0.00,220519,,*1E
$GPGSA,A,3,01,11,17,18,19,,,,,,,,8.1,7.5,3.1*3D
$BDGSA,A,3,,,,,,,,,,,,,8.1,7.5,3.1*2A
$GPGSV,2,1,06,01,57,033,41,11,45,042,34,17,32,297,42,18,30,042,43*7C
$GPGSV,2,2,06,19,13,282,34,28,00,000,41*75
$BDGSV,1,1,04,10,00,000,39,27,00,000,38,29,00,000,36,30,00,000,47*67
$LOGTIM,1,-233.602915,0.000000,0.000000,0.000000,-60.414*37
EndT:        2
---00000028--- Acq_st=3 2019-5-22 07:01:34 
[00]  G01  f 42   1759.7 2045997.7  1.0  1.0  5  0 284511930
[01]  G11  f 35   1755.2 2045997.7  1.0  0.9  5  0 284511928
[02]  G17  f 43  -1890.3 2046002.4  1.0  1.0  5  0 284511923
[03]  G18  f 43   2817.1 2045996.3  1.0  1.0  5  0 284511925
[04]  G19  f 33  -2701.8 2046003.5  1.0  0.9  5  0 284511919
[05]  G28  f 41  -2160.7 2046002.8  1.0  1.0  5  0 284511929
[16]  B10 1f 39   -389.7 4092001.0  1.0  1.0  5  0 284497879
[17]  B27 1f 38   1820.1 4091995.2  1.0  1.0  5  0 284497913
[18]  B29 1f 36  -1367.3 4092003.6  1.0  1.0  5  0 284497923
[19]  B30 1f 47    639.8 4091998.3  1.0  1.0  5  0 284497925
lsq: nits= 2
$GNGGA,070135.000,3112.7093,N,12136.4391,E,1,05,7.5,80.1,M,,,,0000*2B
$GNRMC,070135.000,A,3112.7093,N,12136.4391,E,0.13,0.00,220519,,*16
$GPGSA,A,3,01,11,17,18,19,,,,,,,,8.1,7.5,3.1*3D
$BDGSA,A,3,,,,,,,,,,,,,8.1,7.5,3.1*2A
$GPGSV,2,1,06,01,57,033,42,11,45,042,35,17,32,297,43,18,30,042,43*7F
$GPGSV,2,2,06,19,13,282,33,28,00,000,41*72
$BDGSV,1,1,04,10,00,000,39,27,00,000,38,29,00,000,36,30,00,000,47*67
$LOGTIM,1,-294.538962,0.000000,0.000000,0.000000,-60.536*31
EndT:        2
---00000029--- Acq_st=3 2019-5-22 07:01:35 
[00]  G01  f 42   1759.9 2045997.7  1.0  1.0  5  0 284512930
[01]  G11  f 35   1757.1 2045997.7  1.0  1.0  5  0 284512928
[02]  G17  f 43  -1890.0 2046002.5  1.0  1.0  5  0 284512923
[03]  G18  f 43   2817.3 2045996.4  1.0  1.0  5  0 284512925
[04]  G19  f 32  -2701.0 2046003.5  1.0  1.0  5  0 284512919
[05]  G28  f 41  -2160.3 2046002.8  1.0  1.0  5  0 284512929
[16]  B10 1f 38   -390.0 4092001.0  1.0  1.0  5  0 284498879
[17]  B27 1f 38   1820.2 4091995.2  1.0  1.0  5  0 284498913
[18]  B29 1f 37  -1366.0 4092003.6  1.0  1.0  5  0 284498923
[19]  B30 1f 47    640.1 4091998.3  1.0  1.0  5  0 284498925
lsq: nits= 2
$GNGGA,070136.000,3112.7097,N,12136.4388,E,1,05,7.5,79.1,M,,,,0000*22
$GNRMC,070136.000,A,3112.7097,N,12136.4388,E,0.15,0.00,220519,,*1F
$GPGSA,A,3,01,11,17,18,19,,,,,,,,8.1,7.5,3.1*3D
$BDGSA,A,3,,,,,,,,,,,,,8.1,7.5,3.1*2A
$GPGSV,2,1,06,01,57,033,42,11,45,042,35,17,32,297,43,18,30,042,43*7F
$GPGSV,2,2,06,19,13,282,32,28,00,000,41*73
$BDGSV,1,1,04,10,00,000,38,27,00,000,38,29,00,000,37,30,00,000,47*67
$LOGTIM,1,-355.184894,0.000000,0.000000,0.000000,-60.512*30
EndT:        2
---00000030--- Acq_st=3 2019-5-22 07:01:36 
[00]  G01  f 43   1760.5 2045997.7  1.0  1.0  5  0 284513930
[01]  G11  f 34   1756.4 2045997.7  1.0  0.9  5  0 284513928
[02]  G17  f 43  -1889.8 2046002.4  1.0  1.0  5  0 284513923
[03]  G18  f 43   2817.5 2045996.3  1.0  1.0  5  0 284513925
[04]  G19  f 34  -2701.1 2046003.4  1.0  1.0  5  0 284513919
[05]  G28  f 41  -2159.4 2046002.8  1.0  1.0  5  0 284513929
[16]  B10 1f 39   -390.0 4092001.0  1.0  1.0  5  0 284499879
[17]  B27 1f 38   1820.6 4091995.2  1.0  1.0  5  0 284499913
[18]  B29 1f 36  -1366.1 4092003.5  1.0  0.9  5  0 284499923
[19]  B30 1f 47    640.9 4091998.3  1.0  1.0  5  0 284499925
lsq: nits= 2
$GNGGA,070137.000,3112.7101,N,12136.4385,E,1,05,7.5,78.2,M,,,,0000*22
$GNRMC,070137.000,A,3112.7101,N,12136.4385,E,0.11,0.00,220519,,*19
$GPGSA,A,3,01,11,17,18,19,,,,,,,,8.1,7.5,3.1*3D
$BDGSA,A,3,,,,,,,,,,,,,8.1,7.5,3.1*2A
$GPGSV,2,1,06,01,57,033,43,11,45,042,34,17,32,297,43,18,30,042,43*7F
$GPGSV,2,2,06,19,13,282,34,28,00,000,41*75
$BDGSV,1,1,04,10,00,000,39,27,00,000,38,29,00,000,36,30,00,000,47*67
$LOGTIM,1,-415.847219,0.000000,0.000000,0.000000,-60.520*3B
EndT:        2
---00000031--- Acq_st=3 2019-5-22 07:01:37 
[00]  G01  f 43   1761.2 2045997.7  1.0  1.0  5  0 284514930
[01]  G11  f 34   1757.8 2045997.7  1.0  1.0  5  0 284514928
[02]  G17  f 42  -1889.6 2046002.5  1.0  1.0  5  0 284514923
[03]  G18  f 43   2817.9 2045996.4  1.0  1.0  5  0 284514925
[04]  G19  f 34  -2701.0 2046003.6  1.0  1.0  5  0 284514919
[05]  G28  f 42  -2159.0 2046002.8  1.0  1.0  5  0 284514929
[16]  B10 1f 38   -389.3 4092001.0  1.0  1.0  5  0 284500879
[17]  B27 1f 37   1819.9 4091995.2  1.0  1.0  5  0 284500913
[18]  B29 1f 36  -1365.3 4092003.6  1.0  1.0  5  0 284500923
[19]  B30 1f 47    640.7 4091998.3  1.0  1.0  5  0 284500925
lsq: nits= 2
$GNGGA,070138.000,3112.7107,N,12136.4382,E,1,05,7.5,76.9,M,,,,0000*29
$GNRMC,070138.000,A,3112.7107,N,12136.4382,E,0.47,0.00,220519,,*14
$GPGSA,A,3,01,11,17,18,19,,,,,,,,8.1,7.5,3.1*3D
$BDGSA,A,3,,,,,,,,,,,,,8.1,7.5,3.1*2A
$GPGSV,2,1,06,01,57,033,43,11,45,042,34,17,32,297,42,18,30,042,43*7E
$GPGSV,2,2,06,19,13,282,34,28,00,000,42*76
$BDGSV,1,1,04,10,00,000,38,27,00,000,37,29,00,000,36,30,00,000,47*69
$LOGTIM,1,-476.936070,0.000000,0.000000,0.000000,-60.866*3B
EndT:        2
---00000032--- Acq_st=3 2019-5-22 07:01:38 
[00]  G01  f 43   1757.5 2045997.7  1.0  1.0  5  0 284515930
[01]  G11  f 34   1754.4 2045997.6  1.0  0.9  5  0 284515928
[02]  G17  f 43  -1893.6 2046002.5  1.0  1.0  5  0 284515923
[03]  G18  f 43   2814.1 2045996.3  1.0  1.0  5  0 284515925
[04]  G19  f 34  -2705.6 2046003.6  1.0  0.9  5  0 284515919
[05]  G28  f 41  -2162.8 2046002.8  1.0  1.0  5  0 284515929
[16]  B10 1f 39   -393.6 4092001.0  1.0  0.9  5  0 284501879
[17]  B27 1f 37   1816.3 4091995.2  1.0  1.0  5  0 284501913
[18]  B29 1f 37  -1369.6 4092003.5  1.0  1.0  5  0 284501923
[19]  B30 1f 47    636.7 4091998.3  1.0  1.0  5  0 284501925
lsq: nits= 2
$GNGGA,070139.000,3112.7139,N,12136.4368,E,1,05,7.5,68.2,M,,,,0000*25
$GNRMC,070139.000,A,3112.7139,N,12136.4368,E,0.48,0.00,220519,,*13
$GPGSA,A,3,01,11,17,18,19,,,,,,,,8.1,7.5,3.1*3D
$BDGSA,A,3,,,,,,,,,,,,,8.1,7.5,3.1*2A
$GPGSV,2,1,06,01,57,033,43,11,45,042,34,17,32,297,43,18,30,042,43*7F
$GPGSV,2,2,06,19,13,282,34,28,00,000,41*75
$BDGSV,1,1,04,10,00,000,39,27,00,000,37,29,00,000,37,30,00,000,47*69
$LOGTIM,1,-540.470924,0.000000,0.000000,0.000000,-61.251*37
EndT:        2
---00000033--- Acq_st=3 2019-5-22 07:01:39 
[00]  G01  f 43   1757.2 2045997.7  1.0  1.0  5  0 284516930
[01]  G11  f 34   1753.3 2045997.7  1.0  0.9  5  0 284516928
[02]  G17  f 43  -1893.5 2046002.5  1.0  1.0  5  0 284516923
[03]  G18  f 43   2813.8 2045996.4  1.0  1.0  5  0 284516925
[04]  G19  f 35  -2704.9 2046003.4  1.0  1.0  5  0 284516919
[05]  G28  f 41  -2162.8 2046002.8  1.0  1.0  5  0 284516929
[16]  B10 1f 39   -394.0 4092001.0  1.0  1.0  5  0 284502879
[17]  B27 1f 38   1815.8 4091995.2  1.0  1.0  5  0 284502913
[18]  B29 1f 37  -1370.0 4092003.5  1.0  1.0  5  0 284502923
[19]  B30 1f 48    636.6 4091998.3  1.0  1.0  5  0 284502925
lsq: nits= 2
$GNGGA,070140.000,3112.7155,N,12136.4365,E,1,05,7.5,63.5,M,,,,0000*20
$GNRMC,070140.000,A,3112.7155,N,12136.4365,E,0.23,0.00,220519,,*17
$GPGSA,A,3,01,11,17,18,19,,,,,,,,8.1,7.5,3.1*3D
$BDGSA,A,3,,,,,,,,,,,,,8.1,7.5,3.1*2A
$GPGSV,2,1,06,01,57,033,43,11,45,042,34,17,32,297,43,18,30,042,43*7F
$GPGSV,2,2,06,19,13,282,35,28,00,000,41*74
$BDGSV,1,1,04,10,00,000,39,27,00,000,38,29,00,000,37,30,00,000,48*69
$LOGTIM,1,-603.058257,0.000000,0.000000,0.000000,-61.234*31
EndT:        2
---00000034--- Acq_st=3 2019-5-22 07:01:40 
[00]  G01  f 43   1760.5 2045997.7  1.0  1.0  5  0 284517930
[01]  G11  f 34   1754.9 2045997.7  1.0  0.9  5  0 284517928
[02]  G17  f 43  -1891.6 2046002.4  1.0  1.0  5  0 284517923
[03]  G18  f 43   2816.4 2045996.3  1.0  1.0  5  0 284517925
[04]  G19  f 35  -2703.7 2046003.5  1.0  1.0  5  0 284517919
[05]  G28  f 41  -2160.4 2046002.8  1.0  1.0  5  0 284517929
[16]  B10 1f 39   -391.5 4092001.0  1.0  1.0  5  0 284503879
[17]  B27 1f 37   1818.0 4091995.2  1.0  1.0  5  0 284503913
[18]  B29 1f 37  -1367.6 4092003.6  1.0  1.0  5  0 284503923
[19]  B30 1f 47    638.9 4091998.3  1.0  1.0  5  0 284503925
lsq: nits= 2
$GNGGA,070141.000,3112.7158,N,12136.4365,E,1,05,7.5,63.0,M,,,,0000*29
$GNRMC,070141.000,A,3112.7158,N,12136.4365,E,0.57,0.00,220519,,*18
$GPGSA,A,3,01,11,17,18,19,,,,,,,,8.1,7.5,3.1*3D
$BDGSA,A,3,,,,,,,,,,,,,8.1,7.5,3.1*2A
$GPGSV,2,1,06,01,57,033,43,11,45,042,34,17,32,297,43,18,30,042,43*7F
$GPGSV,2,2,06,19,13,282,35,28,00,000,41*74
$BDGSV,1,1,04,10,00,000,39,27,00,000,37,29,00,000,37,30,00,000,47*69
$LOGTIM,1,-663.468984,0.000000,0.000000,0.000000,-60.608*3F
EndT:        2
---00000035--- Acq_st=3 2019-5-22 07:01:41 
[00]  G01  f 43   1766.0 2045997.7  1.0  1.0  5  0 284518930
[01]  G11  f 35   1762.4 2045997.7  1.0  0.9  5  0 284518928
[02]  G17  f 43  -1886.3 2046002.5  1.0  1.0  5  0 284518923
[03]  G18  f 43   2822.2 2045996.4  1.0  1.0  5  0 284518925
[04]  G19  f 35  -2696.6 2046003.5  1.0  0.9  5  0 284518919
[05]  G28  f 41  -2154.4 2046002.8  1.0  1.0  5  0 284518929
[16]  B10 1f 39   -385.3 4092001.0  1.0  1.0  5  0 284504879
[17]  B27 1f 37   1824.1 4091995.2  1.0  1.0  5  0 284504913
[18]  B29 1f 37  -1361.5 4092003.6  1.0  1.0  5  0 284504923
[19]  B30 1f 47    644.6 4091998.3  1.0  1.0  5  0 284504925
lsq: nits= 2
$GNGGA,070142.000,3112.7176,N,12136.4364,E,1,05,7.5,57.1,M,,,,0000*21
$GNRMC,070142.000,A,3112.7176,N,12136.4364,E,0.64,0.00,220519,,*16
$GPGSA,A,3,01,11,17,18,19,,,,,,,,8.1,7.5,3.1*3D
$BDGSA,A,3,,,,,,,,,,,,,8.1,7.5,3.1*2A
$GPGSV,2,1,06,01,57,033,43,11,45,042,35,17,32,297,43,18,30,042,43*7E
$GPGSV,2,2,06,19,13,282,35,28,00,000,41*74
$BDGSV,1,1,04,10,00,000,39,27,00,000,37,29,00,000,37,30,00,000,47*69
$LOGTIM,1,-725.449829,0.000000,0.000000,0.000000,-60.456*30
EndT:        2
---00000036--- Acq_st=3 2019-5-22 07:01:42 
[00]  G01  f 44   1767.3 2045997.7  1.0  1.0  5  0 284519930
[01]  G11  f 34   1763.1 2045997.7  1.0  1.0  5  0 284519928
[02]  G17  f 43  -1885.5 2046002.4  1.0  1.0  5  0 284519923
[03]  G18  f 43   2822.8 2045996.4  1.0  1.0  5  0 284519925
[04]  G19  f 35  -2696.0 2046003.5  1.0  1.0  5  0 284519919
[05]  G28  f 42  -2153.3 2046002.8  1.0  1.0  5  0 284519929
[16]  B10 1f 39   -384.3 4092001.1  1.0  1.0  5  0 284505879
[17]  B27 1f 37   1824.4 4091995.2  1.0  1.0  5  0 284505913
[18]  B29 1f 38  -1360.6 4092003.6  1.0  1.0  5  0 284505923
[19]  B30 1f 47    645.3 4091998.3  1.0  1.0  5  0 284505925
[20]  B08  1  7   -156.5 4092001.1  0.1  0.0  1  0       920
lsq: nits= 2
$GNGGA,070143.000,3112.7181,N,12136.4366,E,1,05,7.5,53.6,M,,,,0000*29
$GNRMC,070143.000,A,3112.7181,N,12136.4366,E,0.39,0.00,220519,,*15
$GPGSA,A,3,01,11,17,18,19,,,,,,,,8.1,7.5,3.1*3D
$BDGSA,A,3,,,,,,,,,,,,,8.1,7.5,3.1*2A
$GPGSV,2,1,06,01,57,033,44,11,45,042,34,17,32,297,43,18,30,042,43*78
$GPGSV,2,2,06,19,13,282,35,28,00,000,41*74
$BDGSV,1,1,04,10,00,000,39,27,00,000,37,29,00,000,38,30,00,000,47*66
$LOGTIM,1,-787.787849,0.000000,0.000000,0.000000,-60.725*38
EndT:        2
---00000037--- Acq_st=3 2019-5-22 07:01:43 
[00]  G01  f 43   1765.0 2045997.7  1.0  1.0  5  0 284520930
[01]  G11  f 34   1760.3 2045997.7  1.0  1.0  5  0 284520928
[02]  G17  f 43  -1888.2 2046002.5  1.0  1.0  5  0 284520923
[03]  G18  f 42   2820.7 2045996.4  1.0  1.0  5  0 284520925
[04]  G19  f 35  -2698.6 2046003.4  1.0  1.0  5  0 284520919
[05]  G28  f 42  -2155.5 2046002.8  1.0  1.0  5  0 284520929
[16]  B10 1f 39   -387.3 4092001.0  1.0  0.9  5  0 284506879
[17]  B27 1f 37   1821.6 4091995.2  1.0  1.0  5  0 284506913
[18]  B29 1f 38  -1363.9 4092003.5  1.0  1.0  5  0 284506923
[19]  B30 1f 47    642.7 4091998.3  1.0  1.0  5  0 284506925
[20]  B08  7 29   -159.0 4092000.4  0.2  0.8  5  0      1919
lsq: nits= 2
$GNGGA,070144.000,3112.7182,N,12136.4368,E,1,05,7.5,50.5,M,,,,0000*23
$GNRMC,070144.000,A,3112.7182,N,12136.4368,E,0.27,0.00,220519,,*10
$GPGSA,A,3,01,11,17,18,19,,,,,,,,8.1,7.5,3.1*3D
$BDGSA,A,3,,,,,,,,,,,,,8.1,7.5,3.1*2A
$GPGSV,2,1,06,01,57,033,43,11,45,042,34,17,32,297,43,18,30,042,42*7E
$GPGSV,2,2,06,19,13,282,35,28,00,000,42*77
$BDGSV,2,1,05,10,00,000,39,27,00,000,37,29,00,000,38,30,00,000,47*64
$BDGSV,2,2,05,08,00,000,29*5E
$LOGTIM,1,-850.732865,0.000000,0.000000,0.000000,-61.162*39
EndT:        2
---00000038--- Acq_st=3 2019-5-22 07:01:44 
[00]  G01  f 43   1762.1 2045997.7  1.0  1.0  5  0 284521930
[01]  G11  f 35   1757.9 2045997.7  1.0  1.0  5  0 284521928
[02]  G17  f 43  -1891.2 2046002.4  1.0  1.0  5  0 284521923
[03]  G18  f 42   2817.8 2045996.3  1.0  1.0  5  0 284521925
[04]  G19  f 36  -2702.9 2046003.5  1.0  1.0  5  0 284521919
[05]  G28  f 41  -2158.6 2046002.8  1.0  1.0  5  0 284521929
[16]  B10 1f 39   -390.6 4092001.0  1.0  1.0  5  0 284507879
[17]  B27 1f 37   1817.7 4091995.2  1.0  1.0  5  0 284507913
[18]  B29 1f 38  -1366.6 4092003.6  1.0  1.0  5  0 284507923
[19]  B30 1f 47    639.5 4091998.3  1.0  1.0  5  0 284507925
[20]  B08  7 35   -161.8 4092000.5  1.0  1.0  5  0      2919
lsq: nits= 2
$GNGGA,070145.000,3112.7191,N,12136.4369,E,1,06,7.5,47.5,M,,,,0000*24
$GNRMC,070145.000,A,3112.7191,N,12136.4369,E,0.38,0.00,220519,,*1C
$GPGSA,A,3,01,11,17,18,19,,,,,,,,8.1,7.5,3.1*3D
$BDGSA,A,3,10,,,,,,,,,,,,8.1,7.5,3.1*2B
$GPGSV,2,1,06,01,57,033,43,11,45,042,35,17,32,297,43,18,30,042,42*7F
$GPGSV,2,2,06,19,13,282,36,28,00,000,41*77
$BDGSV,2,1,05,10,00,000,39,27,00,000,37,29,00,000,38,30,00,000,47*64
$BDGSV,2,2,05,08,00,000,35*53
$LOGTIM,3,-912.289786,-1141.595597,0.000000,0.000000,-61.015*20
EndT:        2
---00000039--- Acq_st=3 2019-5-22 07:01:45 
[00]  G01  f 44   1765.0 2045997.7  1.0  1.0  5  0 284522930
[01]  G11  f 35   1759.2 2045997.8  1.0  1.0  5  0 284522928
[02]  G17  f 43  -1888.9 2046002.4  1.0  1.0  5  0 284522923
[03]  G18  f 42   2820.2 2045996.3  1.0  1.0  5  0 284522925
[04]  G19  f 37  -2700.4 2046003.5  1.0  1.0  5  0 284522919
[05]  G28  f 42  -2155.9 2046002.8  1.0  1.0  5  0 284522929
[16]  B10 1f 39   -388.0 4092001.0  1.0  1.0  5  0 284508879
[17]  B27 1f 38   1820.6 4091995.2  1.0  1.0  5  0 284508913
[18]  B29 1f 38  -1363.1 4092003.6  1.0  1.0  5  0 284508923
[19]  B30 1f 47    641.9 4091998.3  1.0  1.0  5  0 284508925
[20]  B08  7 35   -159.9 4092000.4  1.0  1.0  5  0      3919
lsq: nits= 2
$GNGGA,070146.000,3112.7282,N,12136.4357,E,1,06,6.9,46.8,M,,,,0000*2A
$GNRMC,070146.000,A,3112.7282,N,12136.4357,E,4.52,98.66,220519,,*2A
$GPGSA,A,3,01,11,17,18,19,,,,,,,,7.0,6.9,1.1*3C
$BDGSA,A,3,10,,,,,,,,,,,,7.0,6.9,1.1*2A
$GPGSV,2,1,06,01,57,033,44,11,45,042,35,17,32,297,43,18,30,042,42*78
$GPGSV,2,2,06,19,13,282,37,28,00,000,42*75
$BDGSV,2,1,05,10,75,282,39,27,00,000,38,29,00,000,38,30,00,000,47*61
$BDGSV,2,2,05,08,00,000,35*53
$LOGTIM,3,-964.804987,-1158.525133,0.000000,0.000000,-59.903*2D
EndT:        2
---00000040--- Acq_st=3 2019-5-22 07:01:46 
[00]  G01  f 44   1762.9 2045997.7  1.0  1.0  5  0 284523930
[01]  G11  f 35   1756.8 2045997.7  1.0  0.9  5  0 284523928
[02]  G17  f 44  -1891.6 2046002.5  1.0  1.0  5  0 284523923
[03]  G18  f 42   2817.8 2045996.3  1.0  1.0  5  0 284523925
[04]  G19  f 36  -2703.0 2046003.5  1.0  1.0  5  0 284523919
[05]  G28  f 42  -2158.2 2046002.8  1.0  1.0  5  0 284523929
[16]  B10 1f 39   -390.2 4092001.0  1.0  1.0  5  0 284509879
[17]  B27 1f 38   1818.0 4091995.2  1.0  1.0  5  0 284509913
[18]  B29 1f 38  -1366.2 4092003.6  1.0  1.0  5  0 284509923
[19]  B30 1f 47    639.4 4091998.3  1.0  1.0  5  0 284509925
[20]  B08 1f 35   -161.4 4092000.4  1.0  1.0  5  0 284509879
lsq: nits= 2
$GNGGA,070147.000,3112.7305,N,12136.4356,E,1,06,6.9,44.4,M,,,,0000*2A
$GNRMC,070147.000,A,3112.7305,N,12136.4356,E,5.40,100.30,220519,,*15
$GPGSA,A,3,01,11,17,18,19,,,,,,,,7.0,6.9,1.1*3C
$BDGSA,A,3,10,,,,,,,,,,,,7.0,6.9,1.1*2A
$GPGSV,2,1,06,01,57,033,44,11,45,042,35,17,32,297,44,18,30,042,42*7F
$GPGSV,2,2,06,19,13,282,36,28,00,000,42*74
$BDGSV,2,1,05,10,75,282,39,27,00,000,38,29,00,000,38,30,00,000,47*61
$BDGSV,2,2,05,08,00,000,35*53
$LOGTIM,3,-1025.000153,-1207.377989,0.000000,0.000000,-60.036*19
EndT:        2
---00000041--- Acq_st=3 2019-5-22 07:01:47 
[00]  G01  f 44   1759.4 2045997.7  1.0  1.0  5  0 284524930
[01]  G11  f 35   1752.9 2045997.7  1.0  0.9  5  0 284524928
[02]  G17  f 44  -1895.0 2046002.5  1.0  1.0  5  0 284524923
[03]  G18  f 41   2814.2 2045996.3  1.0  1.0  5  0 284524925
[04]  G19  f 36  -2706.6 2046003.5  1.0  1.0  5  0 284524919
[05]  G28  f 42  -2161.2 2046002.8  1.0  1.0  5  0 284524929
[16]  B10 1f 39   -393.6 4092001.0  1.0  1.0  5  0 284510879
[17]  B27 1f 38   1814.2 4091995.2  1.0  1.0  5  0 284510913
[18]  B29 1f 39  -1370.3 4092003.5  1.0  1.0  5  0 284510923
[19]  B30 1f 47    636.0 4091998.3  1.0  1.0  5  0 284510925
[20]  B08 1f 35   -166.3 4092000.5  1.0  0.9  5  0 284510879
lsq: nits= 2
$GNGGA,070148.000,3112.7305,N,12136.4356,E,1,06,6.9,43.9,M,,,,0000*2F
$GNRMC,070148.000,A,3112.7305,N,12136.4356,E,4.99,101.59,220519,,*11
$GPGSA,A,3,01,11,17,18,19,,,,,,,,7.0,6.9,1.1*3C
$BDGSA,A,3,10,,,,,,,,,,,,7.0,6.9,1.1*2A
$GPGSV,2,1,06,01,57,033,44,11,45,042,35,17,32,297,44,18,30,042,41*7C
$GPGSV,2,2,06,19,13,282,36,28,00,000,42*74
$BDGSV,2,1,05,10,75,282,39,27,00,000,38,29,00,000,39,30,00,000,47*60
$BDGSV,2,2,05,08,00,000,35*53
$LOGTIM,3,-1087.054604,-1268.603522,0.000000,0.000000,-60.435*10
EndT:        2
---00000042--- Acq_st=3 2019-5-22 07:01:48 
[00]  G01  f 44   1757.5 2045997.7  1.0  1.0  5  0 284525930
[01]  G11  f 36   1751.2 2045997.7  1.0  1.0  5  0 284525928
[02]  G17  f 44  -1897.5 2046002.5  1.0  1.0  5  0 284525923
[03]  G18  f 41   2812.0 2045996.3  1.0  1.0  5  0 284525925
[04]  G19  f 35  -2708.9 2046003.5  1.0  0.9  5  0 284525919
[05]  G28  f 42  -2164.1 2046002.8  1.0  1.0  5  0 284525929
[16]  B10 1f 39   -396.2 4092001.1  1.0  1.0  5  0 284511879
[17]  B27 1f 39   1811.8 4091995.2  1.0  1.0  5  0 284511913
[18]  B29 1f 39  -1372.6 4092003.6  1.0  1.0  5  0 284511923
[19]  B30 1f 47    633.7 4091998.3  1.0  1.0  5  0 284511925
[20]  B08 1f 35   -167.1 4092000.5  1.0  1.0  5  0 284511879
lsq: nits= 2
$GNGGA,070149.000,3112.7297,N,12136.4356,E,1,07,6.8,42.0,M,,,,0000*2C
$GNRMC,070149.000,A,3112.7297,N,12136.4356,E,4.98,103.44,220519,,*15
$GPGSA,A,3,01,11,17,18,19,28,,,,,,,6.9,6.8,1.1*3F
$BDGSA,A,3,10,,,,,,,,,,,,6.9,6.8,1.1*23
$GPGSV,2,1,06,01,57,033,44,11,45,042,36,17,32,297,44,18,30,042,41*7F
$GPGSV,2,2,06,19,13,282,35,28,00,000,42*77
$BDGSV,2,1,05,10,75,282,39,27,00,000,39,29,00,000,39,30,00,000,47*61
$BDGSV,2,2,05,08,00,000,35*53
$LOGTIM,3,-1150.936066,-1331.702418,0.000000,0.000000,-61.000*12
EndT:        3
---00000043--- Acq_st=3 2019-5-22 07:01:49 
[00]  G01  f 44   1754.2 2045997.7  1.0  1.0  5  0 284526930
[01]  G11  f 37   1747.5 2045997.7  1.0  0.9  5  0 284526928
[02]  G17  f 44  -1901.5 2046002.5  1.0  1.0  5  0 284526923
[03]  G18  f 42   2808.0 2045996.3  1.0  1.0  5  0 284526925
[04]  G19  f 36  -2711.8 2046003.5  1.0  1.0  5  0 284526919
[05]  G28  f 42  -2167.5 2046002.8  1.0  1.0  5  0 284526929
[16]  B10 1f 39   -400.1 4092001.0  1.0  1.0  5  0 284512879
[17]  B27 1f 39   1807.3 4091995.2  1.0  1.0  5  0 284512913
[18]  B29 1f 39  -1376.3 4092003.6  1.0  1.0  5  0 284512923
[19]  B30 1f 47    629.7 4091998.3  1.0  1.0  5  0 284512925
[20]  B08 1f 35   -171.5 4092000.3  1.0  1.0  5  0 284512879
lsq: nits= 2
$GNGGA,070150.000,3112.7289,N,12136.4356,E,1,07,6.8,40.9,M,,,,0000*20
$GNRMC,070150.000,A,3112.7289,N,12136.4356,E,4.09,102.92,220519,,*10
$GPGSA,A,3,01,11,17,18,19,28,,,,,,,6.9,6.8,1.1*3F
$BDGSA,A,3,10,,,,,,,,,,,,6.9,6.8,1.1*23
$GPGSV,2,1,06,01,57,033,44,11,45,042,37,17,32,297,44,18,30,042,42*7D
$GPGSV,2,2,06,19,13,282,36,28,60,326,42*75
$BDGSV,2,1,05,10,75,282,39,27,00,000,39,29,00,000,39,30,00,000,47*61
$BDGSV,2,2,05,08,00,000,35*53
$LOGTIM,3,-1215.129258,-1396.634263,0.000000,0.000000,-61.316*1E
EndT:        3
---00000044--- Acq_st=3 2019-5-22 07:01:51 
[00]  G01  f 44   1755.5 2045997.7  1.0  1.0  5  0 284527930
[01]  G11  f 37   1748.7 2045997.6  1.0  1.0  5  0 284527928
[02]  G17  f 44  -1900.8 2046002.5  1.0  1.0  5  0 284527923
[03]  G18  f 41   2809.0 2045996.4  1.0  1.0  5  0 284527925
[04]  G19  f 37  -2711.6 2046003.6  1.0  1.0  5  0 284527919
[05]  G28  f 41  -2166.0 2046002.8  1.0  1.0  5  0 284527929
[16]  B10 1f 38   -398.8 4092001.0  1.0  1.0  5  0 284513879
[17]  B27 1f 39   1808.4 4091995.2  1.0  1.0  5  0 284513913
[18]  B29 1f 39  -1375.3 4092003.6  1.0  1.0  5  0 284513923
[19]  B30 1f 47    630.6 4091998.4  1.0  1.0  5  0 284513925
[20]  B08 1f 35   -171.1 4092000.4  1.0  0.9  5  0 284513879
lsq: nits= 2
$GNGGA,070151.000,3112.7291,N,12136.4355,E,1,07,6.8,40.0,M,,,,0000*22
$GNRMC,070151.000,A,3112.7291,N,12136.4355,E,3.78,103.18,220519,,*19
$GPGSA,A,3,01,11,17,18,19,28,,,,,,,6.9,6.8,1.1*3F
$BDGSA,A,3,10,,,,,,,,,,,,6.9,6.8,1.1*23
$GPGSV,2,1,06,01,57,033,44,11,45,042,37,17,32,297,44,18,30,042,41*7E
$GPGSV,2,2,06,19,13,282,37,28,60,326,41*77
$BDGSV,2,1,05,10,75,282,38,27,00,000,39,29,00,000,39,30,00,000,47*60
$BDGSV,2,2,05,08,00,000,35*53
$LOGTIM,3,-1278.439816,-1459.478546,0.000000,0.000000,-61.570*19
EndT:        3
---00000045--- Acq_st=7 2019-5-22 07:01:51 
[00]  G01  f 44   1753.9 2045997.7  1.0  1.0  5  0 284528930
[01]  G11  f 36   1747.2 2045997.7  1.0  1.0  5  0 284528928
[02]  G17  f 45  -1901.9 2046002.5  1.0  1.0  5  0 284528923
[03]  G18  f 42   2807.9 2045996.4  1.0  1.0  5  0 284528925
[04]  G19  f 36  -2713.4 2046003.5  1.0  0.9  5  0 284528919
[05]  G28  f 41  -2167.7 2046002.8  1.0  1.0  5  0 284528929
[16]  B10 1f 38   -399.9 4092001.0  1.0  1.0  5  0 284514879
[17]  B27 1f 39   1807.3 4091995.3  1.0  1.0  5  0 284514913
[18]  B29 1f 39  -1376.6 4092003.6  1.0  1.0  5  0 284514923
[19]  B30 1f 47    629.4 4091998.3  1.0  1.0  5  0 284514925
[20]  B08 1f 35   -171.9 4092000.5  1.0  1.0  5  0 284514879
lsq: nits= 2
$GNGGA,070152.000,3112.7294,N,12136.4355,E,1,07,6.8,39.4,M,,,,0000*2E
$GNRMC,070152.000,A,3112.7294,N,12136.4355,E,3.68,103.10,220519,,*16
$GPGSA,A,3,01,11,17,18,19,28,,,,,,,6.9,6.8,1.1*3F
$BDGSA,A,3,10,,,,,,,,,,,,6.9,6.8,1.1*23
$GPGSV,2,1,06,01,56,033,44,11,45,042,36,17,32,297,45,18,30,042,42*7C
$GPGSV,2,2,06,19,13,282,36,28,60,326,41*76
$BDGSV,2,1,07,10,75,282,38,27,00,000,39,29,00,000,39,30,00,000,47*62
$BDGSV,2,2,07,08,00,000,35,04,35,122,00,14,43,043,00*57
$LOGTIM,3,-1341.895209,-1522.425438,0.000000,0.000000,-61.915*1E
EndT:        3
---00000046--- Acq_st=7 2019-5-22 07:01:52 
[00]  G01  f 44   1751.9 2045997.8  1.0  1.0  5  0 284529930
[01]  G11  f 37   1745.3 2045997.8  1.0  1.0  5  0 284529928
[02]  G17  f 44  -1904.3 2046002.5  1.0  1.0  5  0 284529923
[03]  G18  f 42   2805.4 2045996.3  1.0  1.0  5  0 284529925
[04]  G19  f 36  -2716.0 2046003.6  1.0  0.9  5  0 284529919
[05]  G28  f 41  -2169.9 2046002.8  1.0  1.0  5  0 284529929
[16]  B10 1f 39   -402.1 4092001.1  1.0  1.0  5  0 284515879
[17]  B27 1f 39   1804.5 4091995.2  1.0  1.0  5  0 284515913
[18]  B29 1f 40  -1378.7 4092003.6  1.0  1.0  5  0 284515923
[19]  B30 1f 47    627.1 4091998.4  1.0  1.0  5  0 284515925
[20]  B08 1f 35   -174.8 4092000.5  1.0  1.0  5  0 284515879
lsq: nits= 2
$GNGGA,070153.000,3112.7301,N,12136.4355,E,1,07,6.8,39.3,M,,,,0000*25
$GNRMC,070153.000,A,3112.7301,N,12136.4355,E,3.51,103.86,220519,,*1F
$GPGSA,A,3,01,11,17,18,19,28,,,,,,,6.9,6.8,1.1*3F
$BDGSA,A,3,10,,,,,,,,,,,,6.9,6.8,1.1*23
$GPGSV,2,1,06,01,56,033,44,11,45,042,37,17,32,297,44,18,30,042,42*7C
$GPGSV,2,2,06,19,13,282,36,28,60,326,41*76
$BDGSV,2,1,07,10,75,282,39,27,00,000,39,29,00,000,40,30,00,000,47*6D
$BDGSV,2,2,07,08,00,000,35,04,35,122,00,14,43,043,00*57
$LOGTIM,3,-1405.119235,-1585.212621,0.000000,0.000000,-62.137*15
EndT:        3
---00000047--- Acq_st=3 2019-5-22 07:01:53 
[00]  G01  f 43   1752.5 2045997.7  1.0  1.0  5  0 284530930
[01]  G11  f 37   1745.2 2045997.7  1.0  1.0  5  0 284530928
[02]  G17  f 44  -1904.4 2046002.5  1.0  1.0  5  0 284530923
[03]  G18  f 42   2805.4 2045996.4  1.0  1.0  5  0 284530925
[04]  G19  f 35  -2715.4 2046003.5  1.0  1.0  5  0 284530919
[05]  G28  f 40  -2169.3 2046002.8  1.0  1.0  5  0 284530929
[16]  B10 1f 39   -403.1 4092001.1  1.0  1.0  5  0 284516879
[17]  B27 1f 39   1804.5 4091995.3  1.0  1.0  5  0 284516913
[18]  B29 1f 40  -1379.2 4092003.6  1.0  1.0  5  0 284516923
[19]  B30 1f 46    626.7 4091998.4  1.0  1.0  5  0 284516925
[20]  B08 1f 35   -174.5 4092000.4  1.0  0.9  5  0 284516879
lsq: nits= 2
$GNGGA,070154.000,3112.7308,N,12136.4357,E,1,07,6.8,39.2,M,,,,0000*28
$GNRMC,070154.000,A,3112.7308,N,12136.4357,E,2.93,102.34,220519,,*14
$GPGSA,A,3,01,11,17,18,19,28,,,,,,,6.9,6.8,1.1*3F
$BDGSA,A,3,10,,,,,,,,,,,,6.9,6.8,1.1*23
$GPGSV,2,1,06,01,56,033,43,11,45,042,37,17,32,297,44,18,30,042,42*7B
$GPGSV,2,2,06,19,13,282,35,28,60,326,40*74
$BDGSV,2,1,07,10,75,282,39,27,00,000,39,29,00,000,40,30,00,000,46*6C
$BDGSV,2,2,07,08,00,000,35,04,35,122,00,14,43,043,00*57
$LOGTIM,3,-1468.284136,-1648.008349,0.000000,0.000000,-62.206*18
EndT:        3
---00000048--- Acq_st=3 2019-5-22 07:01:54 
[00]  G01  f 43   1753.7 2045997.8  1.0  1.0  5  0 284531930
[01]  G11  f 37   1747.3 2045997.8  1.0  1.0  5  0 284531928
[02]  G17  f 44  -1903.3 2046002.4  1.0  1.0  5  0 284531923
[03]  G18  f 42   2806.8 2045996.4  1.0  1.0  5  0 284531925
[04]  G19  f 36  -2713.8 2046003.6  1.0  1.0  5  0 284531919
[05]  G28  f 40  -2168.1 2046002.8  1.0  1.0  5  0 284531929
[16]  B10 1f 39   -401.2 4092001.0  1.0  1.0  5  0 284517879
[17]  B27 1f 39   1805.3 4091995.3  1.0  1.0  5  0 284517913
[18]  B29 1f 40  -1377.3 4092003.6  1.0  1.0  5  0 284517923
[19]  B30 1f 46    628.3 4091998.4  1.0  1.0  5  0 284517925
[20]  B08 1f 35   -173.0 4092000.4  1.0  0.9  5  0 284517879
lsq: nits= 2
$GNGGA,070155.000,3112.7315,N,12136.4364,E,1,07,6.8,39.3,M,,,,0000*24
$GNRMC,070155.000,A,3112.7315,N,12136.4364,E,2.15,100.07,220519,,*15
$GPGSA,A,3,01,11,17,18,19,28,,,,,,,6.9,6.8,1.1*3F
$BDGSA,A,3,10,,,,,,,,,,,,6.9,6.8,1.1*23
$GPGSV,2,1,06,01,56,033,43,11,45,042,37,17,32,297,44,18,30,042,42*7B
$GPGSV,2,2,06,19,13,282,36,28,60,326,40*77
$BDGSV,2,1,07,10,75,282,39,27,00,000,39,29,00,000,40,30,00,000,46*6C
$BDGSV,2,2,07,08,00,000,35,04,35,122,00,14,43,043,00*57
$LOGTIM,3,-1530.923186,-1710.301744,0.000000,0.000000,-62.079*1C
EndT:        3
---00000049--- Acq_st=3 2019-5-22 07:01:55 
[00]  G01  f 43   1757.4 2045997.7  1.0  1.0  5  0 284532930
[01]  G11  f 36   1749.8 2045997.7  1.0  1.0  5  0 284532928
[02]  G17  f 45  -1900.0 2046002.5  1.0  1.0  5  0 284532923
[03]  G18  f 42   2810.3 2045996.4  1.0  1.0  5  0 284532925
[04]  G19  f 36  -2710.8 2046003.6  1.0  0.9  5  0 284532919
[05]  G28  f 39  -2164.7 2046002.9  1.0  1.0  5  0 284532929
[16]  B10 1f 39   -397.9 4092001.1  1.0  1.0  5  0 284518879
[17]  B27 1f 39   1808.6 4091995.3  1.0  1.0  5  0 284518913
[18]  B29 1f 40  -1374.3 4092003.6  1.0  1.0  5  0 284518923
[19]  B30 1f 46    631.3 4091998.3  1.0  1.0  5  0 284518925
[20]  B08 1f 36   -169.9 4092000.5  1.0  1.0  5  0 284518879
lsq: nits= 2
$GNGGA,070156.000,3112.7322,N,12136.4370,E,1,07,6.8,39.5,M,,,,0000*20
$GNRMC,070156.000,A,3112.7322,N,12136.4370,E,1.39,100.07,220519,,*1A
$GPGSA,A,3,01,11,17,18,19,28,,,,,,,6.9,6.8,1.1*3F
$BDGSA,A,3,10,,,,,,,,,,,,6.9,6.8,1.1*23
$GPGSV,2,1,06,01,56,033,43,11,45,042,36,17,32,297,45,18,30,042,42*7B
$GPGSV,2,2,06,19,13,282,36,28,60,326,39*79
$BDGSV,2,1,07,10,75,282,39,27,00,000,39,29,00,000,40,30,00,000,46*6C
$BDGSV,2,2,07,08,00,000,36,04,35,122,00,14,43,043,00*54
$LOGTIM,3,-1593.235363,-1772.287040,0.000000,0.000000,-61.914*19
EndT:        3
---00000050--- Acq_st=3 2019-5-22 07:01:56 
[00]  G01  f 43   1760.0 2045997.7  1.0  1.0  5  0 284533930
[01]  G11  f 35   1752.1 2045997.8  1.0  0.9  5  0 284533928
[02]  G17  f 44  -1897.9 2046002.5  1.0  1.0  5  0 284533923
[03]  G18  f 42   2812.9 2045996.4  1.0  1.0  5  0 284533925
[04]  G19  f 35  -2708.9 2046003.5  1.0  0.9  5  0 284533919
[05]  G28  f 39  -2162.4 2046002.8  1.0  1.0  5  0 284533929
[16]  B10 1f 39   -395.9 4092001.0  1.0  1.0  5  0 284519879
[17]  B27 1f 38   1810.5 4091995.2  1.0  0.9  5  0 284519913
[18]  B29 1f 40  -1371.9 4092003.6  1.0  1.0  5  0 284519923
[19]  B30 1f 46    633.4 4091998.3  1.0  1.0  5  0 284519925
[20]  B08 1f 36   -168.1 4092000.5  1.0  0.9  5  0 284519879
lsq: nits= 2
$GNGGA,070157.000,3112.7330,N,12136.4375,E,1,07,6.8,39.9,M,,,,0000*2B
$GNRMC,070157.000,A,3112.7330,N,12136.4375,E,1.03,100.07,220519,,*14
$GPGSA,A,3,01,11,17,18,19,28,,,,,,,6.9,6.8,1.1*3F
$BDGSA,A,3,10,,,,,,,,,,,,6.9,6.8,1.1*23
$GPGSV,2,1,06,01,56,033,43,11,45,042,35,17,32,297,44,18,30,042,42*79
$GPGSV,2,2,06,19,13,282,35,28,60,326,39*7A
$BDGSV,2,1,07,10,75,282,39,27,00,000,38,29,00,000,40,30,00,000,46*6D
$BDGSV,2,2,07,08,00,000,36,04,35,122,00,14,43,043,00*54
$LOGTIM,3,-1655.237121,-1833.960024,0.000000,0.000000,-61.774*14
EndT:        3
---00000051--- Acq_st=3 2019-5-22 07:01:57 
[00]  G01  f 43   1761.4 2045997.7  1.0  1.0  5  0 284534930
[01]  G11  f 35   1753.7 2045997.7  1.0  1.0  5  0 284534928
[02]  G17  f 43  -1896.5 2046002.4  1.0  1.0  5  0 284534923
[03]  G18  f 42   2814.7 2045996.3  1.0  1.0  5  0 284534925
[04]  G19  f 35  -2707.6 2046003.5  1.0  1.0  5  0 284534919
[05]  G28  f 38  -2160.6 2046002.9  1.0  1.0  5  0 284534929
[16]  B10 1f 39   -394.5 4092001.0  1.0  1.0  5  0 284520879
[17]  B27 1f 38   1812.4 4091995.3  1.0  1.0  5  0 284520913
[18]  B29 1f 40  -1370.5 4092003.6  1.0  1.0  5  0 284520923
[19]  B30 1f 46    634.8 4091998.3  1.0  1.0  5  0 284520925
[20]  B08 1f 36   -166.0 4092000.4  1.0  1.0  5  0 284520879
lsq: nits= 2
$GNGGA,070158.000,3112.7339,N,12136.4381,E,1,07,6.8,40.4,M,,,,0000*25
$GNRMC,070158.000,A,3112.7339,N,12136.4381,E,0.81,100.07,220519,,*12
$GPGSA,A,3,01,11,17,18,19,28,,,,,,,6.9,6.8,1.1*3F
$BDGSA,A,3,10,,,,,,,,,,,,6.9,6.8,1.1*23
$GPGSV,2,1,06,01,56,033,43,11,45,042,35,17,32,297,43,18,30,042,42*7E
$GPGSV,2,2,06,19,13,282,35,28,60,326,38*7B
$BDGSV,2,1,07,10,75,282,39,27,00,000,38,29,00,000,40,30,00,000,46*6D
$BDGSV,2,2,07,08,00,000,36,04,35,122,00,14,43,043,00*54
$LOGTIM,3,-1717.008485,-1895.421547,0.000000,0.000000,-61.647*13
EndT:        3
---00000052--- Acq_st=3 2019-5-22 07:01:58 
[00]  G01  f 43   1763.7 2045997.7  1.0  1.0  5  0 284535930
[01]  G11  f 35   1754.7 2045997.7  1.0  1.0  5  0 284535928
[02]  G17  f 43  -1895.2 2046002.5  1.0  1.0  5  0 284535923
[03]  G18  f 43   2816.1 2045996.3  1.0  1.0  5  0 284535925
[04]  G19  f 35  -2706.8 2046003.6  1.0  1.0  5  0 284535919
[05]  G28  f 38  -2158.6 2046002.8  1.0  1.0  5  0 284535929
[16]  B10 1f 39   -392.7 4092001.0  1.0  1.0  5  0 284521879
[17]  B27 1f 38   1812.7 4091995.2  1.0  1.0  5  0 284521913
[18]  B29 1f 40  -1369.3 4092003.6  1.0  1.0  5  0 284521923
[19]  B30 1f 45    636.2 4091998.3  1.0  1.0  5  0 284521925
[20]  B08 1f 36   -165.6 4092000.5  1.0  1.0  5  0 284521879
lsq: nits= 2
$GNGGA,070159.000,3112.7349,N,12136.4383,E,1,07,6.8,41.2,M,,,,0000*26
$GNRMC,070159.000,A,3112.7349,N,12136.4383,E,0.56,100.07,220519,,*1C
$GPGSA,A,3,01,11,17,18,19,28,,,,,,,6.9,6.8,1.1*3F
$BDGSA,A,3,10,,,,,,,,,,,,6.9,6.8,1.1*23
$GPGSV,2,1,06,01,56,033,43,11,45,042,35,17,32,297,43,18,30,042,43*7F
$GPGSV,2,2,06,19,13,282,35,28,60,326,38*7B
$BDGSV,2,1,07,10,75,282,39,27,00,000,38,29,00,000,40,30,00,000,45*6E
$BDGSV,2,2,07,08,00,000,36,04,35,122,00,14,43,043,00*54
$LOGTIM,3,-1778.339489,-1956.415260,0.000000,0.000000,-61.419*15
EndT:        3
---00000053--- Acq_st=3 2019-5-22 07:01:59 
[00]  G01  f 43   1765.8 2045997.7  1.0  1.0  5  0 284536930
[01]  G11  f 34   1757.3 2045997.7  1.0  1.0  5  0 284536928
[02]  G17  f 43  -1893.0 2046002.5  1.0  1.0  5  0 284536923
[03]  G18  f 43   2818.3 2045996.3  1.0  1.0  5  0 284536925
[04]  G19  f 35  -2703.9 2046003.5  1.0  1.0  5  0 284536919
[05]  G28  f 38  -2156.6 2046002.8  1.0  1.0  5  0 284536929
[16]  B10 1f 39   -390.6 4092001.1  1.0  1.0  5  0 284522879
[17]  B27 1f 39   1814.7 4091995.2  1.0  1.0  5  0 284522913
[18]  B29 1f 40  -1366.9 4092003.6  1.0  1.0  5  0 284522923
[19]  B30 1f 46    638.3 4091998.3  1.0  1.0  5  0 284522925
[20]  B08 1f 35   -164.1 4092000.4  1.0  0.9  5  0 284522879
lsq: nits= 2
$GNGGA,070200.000,3112.7348,N,12136.4382,E,1,07,6.8,42.6,M,,,,0000*2E
$GNRMC,070200.000,A,3112.7348,N,12136.4382,E,0.44,100.07,220519,,*10
$GPGSA,A,3,01,11,17,18,19,28,,,,,,,6.9,6.8,1.1*3F
$BDGSA,A,3,10,,,,,,,,,,,,6.9,6.8,1.1*23
$GPGSV,2,1,06,01,56,033,43,11,45,042,34,17,32,297,43,18,30,042,43*7E
$GPGSV,2,2,06,19,13,282,35,28,60,326,38*7B
$BDGSV,2,1,07,10,75,282,39,27,00,000,39,29,00,000,40,30,00,000,46*6C
$BDGSV,2,2,07,08,00,000,35,04,35,122,00,14,43,043,00*57
$LOGTIM,3,-1840.359560,-2019.291861,0.000000,0.000000,-61.452*1E
EndT:        3
---00000054--- Acq_st=3 2019-5-22 07:02:0 
[00]  G01  f 42   1764.4 2045997.7  1.0  1.0  5  0 284537930
[01]  G11  f 35   1757.0 2045997.7  1.0  1.0  5  0 284537928
[02]  G17  f 43  -1894.7 2046002.5  1.0  1.0  5  0 284537923
[03]  G18  f 43   2816.8 2045996.4  1.0  1.0  5  0 284537925
[04]  G19  f 34  -2705.8 2046003.5  1.0  1.0  5  0 284537919
[05]  G28  f 37  -2156.8 2046002.8  1.0  1.0  5  0 284537929
[16]  B10 1f 39   -392.0 4092001.0  1.0  1.0  5  0 284523879
[17]  B27 1f 39   1813.1 4091995.2  1.0  1.0  5  0 284523913
[18]  B29 1f 40  -1368.0 4092003.6  1.0  1.0  5  0 284523923
[19]  B30 1f 45    637.3 4091998.4  1.0  1.0  5  0 284523925
[20]  B08 1f 35   -164.1 4092000.5  1.0  1.0  5  0 284523879
lsq: nits= 2
$GNGGA,070201.000,3112.7357,N,12136.4380,E,1,07,6.8,43.7,M,,,,0000*23
$GNRMC,070201.000,A,3112.7357,N,12136.4380,E,0.68,100.07,220519,,*13
$GPGSA,A,3,01,11,17,18,19,28,,,,,,,6.9,6.8,1.1*3F
$BDGSA,A,3,10,,,,,,,,,,,,6.9,6.8,1.1*23
$GPGSV,2,1,06,01,56,033,42,11,45,042,35,17,32,297,43,18,30,042,43*7E
$GPGSV,2,2,06,19,13,282,34,28,60,326,37*75
$BDGSV,2,1,07,10,75,282,39,27,00,000,39,29,00,000,40,30,00,000,45*6F
$BDGSV,2,2,07,08,00,000,35,04,35,122,00,14,43,043,00*57
$LOGTIM,3,-1901.608824,-2080.196755,0.000000,0.000000,-61.554*1D
EndT:        3
---00000055--- Acq_st=3 2019-5-22 07:02:1 
[00]  G01  f 42   1764.5 2045997.7  1.0  1.0  5  0 284538930
[01]  G11  f 36   1755.5 2045997.7  1.0  1.0  5  0 284538928
[02]  G17  f 43  -1895.1 2046002.5  1.0  1.0  5  0 284538923
[03]  G18  f 43   2816.2 2045996.3  1.0  1.0  5  0 284538925
[04]  G19  f 35  -2706.2 2046003.5  1.0  1.0  5  0 284538919
[05]  G28  f 38  -2158.1 2046002.8  1.0  1.0  5  0 284538929
[16]  B10 1f 38   -392.7 4092001.0  1.0  1.0  5  0 284524879
[17]  B27 1f 39   1812.3 4091995.2  1.0  1.0  5  0 284524913
[18]  B29 1f 41  -1369.3 4092003.6  1.0  1.0  5  0 284524923
[19]  B30 1f 45    636.2 4091998.3  1.0  1.0  5  0 284524925
[20]  B08 1f 35   -165.7 4092000.4  1.0  1.0  5  0 284524879
lsq: nits= 2
$GNGGA,070202.000,3112.7366,N,12136.4378,E,1,07,6.8,44.6,M,,,,0000*23
$GNRMC,070202.000,A,3112.7366,N,12136.4378,E,0.82,100.07,220519,,*11
$GPGSA,A,3,01,11,17,18,19,28,,,,,,,6.9,6.8,1.1*3F
$BDGSA,A,3,10,,,,,,,,,,,,6.9,6.8,1.1*23
$GPGSV,2,1,06,01,56,033,42,11,45,042,36,17,32,297,43,18,30,042,43*7D
$GPGSV,2,2,06,19,13,282,35,28,60,326,38*7B
$BDGSV,2,1,07,10,75,282,38,27,00,000,39,29,00,000,41,30,00,000,45*6F
$BDGSV,2,2,07,08,00,000,35,04,35,122,00,14,43,043,00*57
$LOGTIM,3,-1962.978465,-2141.162866,0.000000,0.000000,-61.622*13
EndT:        3
---00000056--- Acq_st=3 2019-5-22 07:02:2 
[00]  G01  f 42   1764.0 2045997.7  1.0  1.0  5  0 284539930
[01]  G11  f 36   1755.3 2045997.7  1.0  1.0  5  0 284539928
[02]  G17  f 42  -1895.9 2046002.5  1.0  1.0  5  0 284539923
[03]  G18  f 43   2815.6 2045996.3  1.0  1.0  5  0 284539925
[04]  G19  f 35  -2707.2 2046003.5  1.0  1.0  5  0 284539919
[05]  G28  f 38  -2157.8 2046002.7  1.0  1.0  5  0 284539929
[16]  B10 1f 39   -393.4 4092001.0  1.0  0.9  5  0 284525879
[17]  B27 1f 38   1811.9 4091995.2  1.0  1.0  5  0 284525913
[18]  B29 1f 40  -1370.0 4092003.6  1.0  1.0  5  0 284525923
[19]  B30 1f 45    635.6 4091998.4  1.0  1.0  5  0 284525925
[20]  B08 1f 36   -165.3 4092000.4  1.0  1.0  5  0 284525879
lsq: nits= 2
$GNGGA,070203.000,3112.7373,N,12136.4376,E,1,07,6.8,45.8,M,,,,0000*27
$GNRMC,070203.000,A,3112.7373,N,12136.4376,E,0.84,100.07,220519,,*1C
$GPGSA,A,3,01,11,17,18,19,28,,,,,,,6.9,6.8,1.1*3F
$BDGSA,A,3,10,,,,,,,,,,,,6.9,6.8,1.1*23
$GPGSV,2,1,06,01,56,033,42,11,45,042,36,17,32,297,42,18,30,042,43*7C
$GPGSV,2,2,06,19,13,282,35,28,60,326,38*7B
