FlashID=0x1 0x20 0x18
BBram_blkflag1:  6fd: f902
FW Ver: 1.30  
GPS00 Init Dop:   5000, 40
GPS01 Init Dop:   5000, 40
GPS02 Init Dop:   5000, 40
GPS03 Init Dop:   5000, 40
GPS04 Init Dop:   5000, 40
GPS05 Init Dop:   5000, 40
GPS06 Init Dop:   5000, 40
GPS07 Init Dop:   5000, 40
GPS08 Init Dop:   5000, 40
GPS09 Init Dop:   5000, 40
GPS10 Init Dop:   5000, 40
GPS11 Init Dop:   5000, 40
GPS12 Init Dop:   5000, 40
GPS13 Init Dop:   5000, 40
GPS14 Init Dop:   5000, 40
GPS15 Init Dop:   5000, 40
GPS16 Init Dop:   5000, 40
GPS17 Init Dop:   5000, 40
GPS18 Init Dop:   5000, 40
GPS19 Init Dop:   5000, 40
GPS20 Init Dop:   5000, 40
GPS21 Init Dop:   5000, 40
GPS22 Init Dop:   5000, 40
GPS23 Init Dop:   5000, 40
GPS24 Init Dop:   5000, 40
GPS25 Init Dop:   5000, 40
GPS26 Init Dop:   5000, 40
GPS27 Init Dop:   5000, 40
GPS28 Init Dop:   5000, 40
GPS29 Init Dop:   5000, 40
GPS30 Init Dop:   5000, 40
GPS31 Init Dop:   5000, 40
BDS00 Init Dop:   5000, 40
BDS01 Init Dop:   5000, 40
BDS02 Init Dop:   5000, 40
BDS03 Init Dop:   5000, 40
BDS04 Init Dop:   5000, 40
BDS05 Init Dop:   5000, 40
BDS06 Init Dop:   5000, 40
BDS07 Init Dop:   5000, 40
BDS08 Init Dop:   5000, 40
BDS09 Init Dop:   5000, 40
BDS10 Init Dop:   5000, 40
BDS11 Init Dop:   5000, 40
BDS12 Init Dop:   5000, 40
BDS13 Init Dop:   5000, 40
BDS14 Init Dop:   5000, 40
BDS15 Init Dop:   5000, 40
BDS16 Init Dop:   5000, 40
BDS17 Init Dop:   5000, 40
BDS18 Init Dop:   5000, 40
BDS19 Init Dop:   5000, 40
BDS20 Init Dop:   5000, 40
BDS21 Init Dop:   5000, 40
BDS22 Init Dop:   5000, 40
BDS23 Init Dop:   5000, 40
BDS24 Init Dop:   5000, 40
BDS25 Init Dop:   5000, 40
BDS26 Init Dop:   5000, 40
BDS27 Init Dop:   5000, 40
BDS28 Init Dop:   5000, 40
BDS29 Init Dop:   5000, 40
BDS30 Init Dop:   5000, 40
BDS31 Init Dop:   5000, 40
good luck!
---00000001--- Acq_st=3 2019-5-22 07:12:40 
$GNGGA,000000.000,,,,,0,00,,,M,,,,0000*2B
$GNRMC,000000.000,A,,,,,,,000000,,*26
$GPGSA,A,1,,,,,,,,,,,,,,,*1E
$BDGSA,A,1,,,,,,,,,,,,,,,*0F
$LOGTIM,0,0.000000,0.000000,0.000000,0.000000,0.000*0A
EndT:        0
---00000002--- Acq_st=3 2019-5-22 07:12:41 
$GNGGA,000000.000,,,,,0,00,,,M,,,,0000*2B
$GNRMC,000000.000,A,,,,,,,000000,,*26
$GPGSA,A,1,,,,,,,,,,,,,,,*1E
$BDGSA,A,1,,,,,,,,,,,,,,,*0F
$LOGTIM,0,0.000000,0.000000,0.000000,0.000000,0.000*0A
EndT:        0
---00000003--- Acq_st=3 2019-5-22 07:12:42 
$GNGGA,000000.000,,,,,0,00,,,M,,,,0000*2B
$GNRMC,000000.000,A,,,,,,,000000,,*26
$GPGSA,A,1,,,,,,,,,,,,,,,*1E
$BDGSA,A,1,,,,,,,,,,,,,,,*0F
$LOGTIM,0,0.000000,0.000000,0.000000,0.000000,0.000*0A
EndT:        0
---00000004--- Acq_st=3 2019-5-22 07:12:43 
$GNGGA,000000.000,,,,,0,00,,,M,,,,0000*2B
$GNRMC,000000.000,A,,,,,,,000000,,*26
$GPGSA,A,1,,,,,,,,,,,,,,,*1E
$BDGSA,A,1,,,,,,,,,,,,,,,*0F
$LOGTIM,0,0.000000,0.000000,0.000000,0.000000,0.000*0A
EndT:        0
---00000005--- Acq_st=3 2019-5-22 07:12:44 
[00]  G18  1  7   3017.5 2045997.0  0.0  0.0  1  0         0
$GNGGA,000000.000,,,,,0,00,,,M,,,,0000*2B
$GNRMC,000000.000,A,,,,,,,000000,,*26
$GPGSA,A,1,,,,,,,,,,,,,,,*1E
$BDGSA,A,1,,,,,,,,,,,,,,,*0F
$LOGTIM,0,0.000000,0.000000,0.000000,0.000000,0.000*0A
EndT:        0
---00000006--- Acq_st=3 2019-5-22 07:12:45 
[00]  G18  1 10   3066.8 2045996.9  0.2  0.0  1  0         2
[01]  G19  1  7  -2887.5 2046003.1  0.0  0.0  1  0         0
$GNGGA,000000.000,,,,,0,00,,,M,,,,0000*2B
$GNRMC,000000.000,A,,,,,,,000000,,*26
$GPGSA,A,1,,,,,,,,,,,,,,,*1E
$BDGSA,A,1,,,,,,,,,,,,,,,*0F
$LOGTIM,0,0.000000,0.000000,0.000000,0.000000,0.000*0A
EndT:        0
---00000007--- Acq_st=3 2019-5-22 07:12:46 
[00]  G18  1  8   2951.5 2045997.0  0.2  0.0  1  0         2
[01]  G19  1  7  -2917.2 2046003.3  0.0  0.0  1  0        19
$GNGGA,000000.000,,,,,0,00,,,M,,,,0000*2B
$GNRMC,000000.000,A,,,,,,,000000,,*26
$GPGSA,A,1,,,,,,,,,,,,,,,*1E
$BDGSA,A,1,,,,,,,,,,,,,,,*0F
$LOGTIM,0,0.000000,0.000000,0.000000,0.000000,0.000*0A
EndT:        0
---00000008--- Acq_st=3 2019-5-22 07:12:47 
[00]  G18  1  7   3105.7 2045996.9 -0.0  0.0  1  0         2
[01]  G19  1 12  -2784.5 2046003.1 -0.0  0.0  1  0        19
$GNGGA,000000.000,,,,,0,00,,,M,,,,0000*2B
$GNRMC,000000.000,A,,,,,,,000000,,*26
$GPGSA,A,1,,,,,,,,,,,,,,,*1E
$BDGSA,A,1,,,,,,,,,,,,,,,*0F
$LOGTIM,0,0.000000,0.000000,0.000000,0.000000,0.000*0A
EndT:        0
---00000009--- Acq_st=3 2019-5-22 07:12:48 
$GNGGA,000000.000,,,,,0,00,,,M,,,,0000*2B
$GNRMC,000000.000,A,,,,,,,000000,,*26
$GPGSA,A,1,,,,,,,,,,,,,,,*1E
$BDGSA,A,1,,,,,,,,,,,,,,,*0F
$LOGTIM,0,0.000000,0.000000,0.000000,0.000000,0.000*0A
EndT:        0
---00000010--- Acq_st=3 2019-5-22 07:12:49 
$GNGGA,000000.000,,,,,0,00,,,M,,,,0000*2B
$GNRMC,000000.000,A,,,,,,,000000,,*26
$GPGSA,A,1,,,,,,,,,,,,,,,*1E
$BDGSA,A,1,,,,,,,,,,,,,,,*0F
$LOGTIM,0,0.000000,0.000000,0.000000,0.000000,0.000*0A
EndT:        0
---00000011--- Acq_st=3 2019-5-22 07:12:50 
$GNGGA,000000.000,,,,,0,00,,,M,,,,0000*2B
$GNRMC,000000.000,A,,,,,,,000000,,*26
$GPGSA,A,1,,,,,,,,,,,,,,,*1E
$BDGSA,A,1,,,,,,,,,,,,,,,*0F
$LOGTIM,0,0.000000,0.000000,0.000000,0.000000,0.000*0A
EndT:        0
---00000012--- Acq_st=3 2019-5-22 07:12:51 
$GNGGA,000000.000,,,,,0,00,,,M,,,,0000*2B
$GNRMC,000000.000,A,,,,,,,000000,,*26
$GPGSA,A,1,,,,,,,,,,,,,,,*1E
$BDGSA,A,1,,,,,,,,,,,,,,,*0F
$LOGTIM,0,0.000000,0.000000,0.000000,0.000000,0.000*0A
EndT:        0
---00000013--- Acq_st=3 2019-5-22 07:12:52 
$GNGGA,000000.000,,,,,0,00,,,M,,,,0000*2B
$GNRMC,000000.000,A,,,,,,,000000,,*26
$GPGSA,A,1,,,,,,,,,,,,,,,*1E
$BDGSA,A,1,,,,,,,,,,,,,,,*0F
$LOGTIM,0,0.000000,0.000000,0.000000,0.000000,0.000*0A
EndT:        0
---00000014--- Acq_st=3 2019-5-22 07:12:53 
[16]  B10  1  7   -261.5 4092001.5 -0.0  0.0  1  0         0
$GNGGA,000000.000,,,,,0,00,,,M,,,,0000*2B
$GNRMC,000000.000,A,,,,,,,000000,,*26
$GPGSA,A,1,,,,,,,,,,,,,,,*1E
$BDGSA,A,1,,,,,,,,,,,,,,,*0F
$LOGTIM,0,0.000000,0.000000,0.000000,0.000000,0.000*0A
EndT:        0
---00000015--- Acq_st=3 2019-5-22 07:12:54 
[16]  B10  1  7   -296.5 4092001.3  0.2  0.0  1  0       228
$GNGGA,000000.000,,,,,0,00,,,M,,,,0000*2B
$GNRMC,000000.000,A,,,,,,,000000,,*26
$GPGSA,A,1,,,,,,,,,,,,,,,*1E
$BDGSA,A,1,,,,,,,,,,,,,,,*0F
$LOGTIM,0,0.000000,0.000000,0.000000,0.000000,0.000*0A
EndT:        0
---00000016--- Acq_st=3 2019-5-22 07:12:55 
[16]  B10  7 34   -295.1 4092000.8  0.8  1.0  5  0      1228
[17]  B13  1  7   -527.0 4092001.0 -0.0  0.0  1  0         0
$GNGGA,000000.000,,,,,0,00,,,M,,,,0000*2B
$GNRMC,000000.000,A,,,,,,,000000,,*26
$GPGSA,A,1,,,,,,,,,,,,,,,*1E
$BDGSA,A,1,,,,,,,,,,,,,,,*0F
$BDGSV,1,1,01,10,00,000,34*5F
$LOGTIM,0,0.000000,0.000000,0.000000,0.000000,0.000*0A
EndT:        0
---00000017--- Acq_st=3 2019-5-22 07:12:56 
[16]  B10  7 38   -298.6 4092000.8  1.0  1.0  5  0      2216
[17]  B13  7 24   -520.4 4092001.4  0.3  0.0 20  0       622
$GNGGA,000000.000,,,,,0,00,,,M,,,,0000*2B
$GNRMC,000000.000,A,,,,,,,000000,,*26
$GPGSA,A,1,,,,,,,,,,,,,,,*1E
$BDGSA,A,1,,,,,,,,,,,,,,,*0F
$BDGSV,1,1,02,10,00,000,38,13,00,000,24*64
$LOGTIM,0,0.000000,0.000000,0.000000,0.000000,0.000*0A
EndT:        0
---00000018--- Acq_st=3 2019-5-22 07:12:57 
[16]  B10 1f 38   -300.3 4092000.8  1.0  1.0  5  0      3216
[17]  B13  7 37   -522.4 4092001.4  0.5  1.0  5  0      1611
$GNGGA,000000.000,,,,,0,00,,,M,,,,0000*2B
$GNRMC,000000.000,A,,,,,,,000000,,*26
$GPGSA,A,1,,,,,,,,,,,,,,,*1E
$BDGSA,A,1,,,,,,,,,,,,,,,*0F
$BDGSV,1,1,02,10,00,000,38,13,00,000,37*66
$LOGTIM,0,0.000000,0.000000,0.000000,0.000000,0.000*0A
EndT:        0
---00000019--- Acq_st=3 2019-5-22 07:12:58 
[16]  B10 1f 38   -303.9 4092000.8  1.0  1.0  5  0 285181776
[17]  B13  7 37   -526.0 4092001.4  1.0  1.0  5  0      2611
$GNGGA,000000.000,,,,,0,00,,,M,,,,0000*2B
$GNRMC,000000.000,A,,,,,,,000000,,*26
$GPGSA,A,1,,,,,,,,,,,,,,,*1E
$BDGSA,A,1,,,,,,,,,,,,,,,*0F
$BDGSV,1,1,02,10,00,000,38,13,00,000,37*66
$LOGTIM,0,0.000000,0.000000,0.000000,0.000000,0.000*0A
EndT:        0
---00000020--- Acq_st=3 2019-5-22 07:12:59 
[16]  B10 1f 37   -301.2 4092000.9  1.0  0.9  5  0 285182776
[17]  B13  7 37   -523.4 4092001.4  1.0  1.0  5  0      3611
$GNGGA,000000.000,,,,,0,00,,,M,,,,0000*2B
$GNRMC,000000.000,A,,,,,,,000000,,*26
$GPGSA,A,1,,,,,,,,,,,,,,,*1E
$BDGSA,A,1,,,,,,,,,,,,,,,*0F
$BDGSV,1,1,02,10,00,000,37,13,00,000,37*69
$LOGTIM,0,0.000000,0.000000,0.000000,0.000000,0.000*0A
EndT:        0
---00000021--- Acq_st=3 2019-5-22 07:13:0 
[16]  B10 1f 37   -305.1 4092000.8  1.0  1.0  5  0 285183776
[17]  B13  7 37   -527.0 4092001.4  1.0  1.0  5  0      4611
$GNGGA,000000.000,,,,,0,00,,,M,,,,0000*2B
$GNRMC,000000.000,A,,,,,,,000000,,*26
$GPGSA,A,1,,,,,,,,,,,,,,,*1E
$BDGSA,A,1,,,,,,,,,,,,,,,*0F
$BDGSV,1,1,02,10,00,000,37,13,00,000,37*69
$LOGTIM,0,0.000000,0.000000,0.000000,0.000000,0.000*0A
EndT:        0
---00000022--- Acq_st=3 2019-5-22 07:13:1 
[16]  B10 1f 38   -306.8 4092000.8  1.0  1.0  5  0 285184776
[17]  B13  7 37   -528.6 4092001.4  1.0  1.0  5  0      5611
$GNGGA,000000.000,,,,,0,00,,,M,,,,0000*2B
$GNRMC,000000.000,A,,,,,,,000000,,*26
$GPGSA,A,1,,,,,,,,,,,,,,,*1E
$BDGSA,A,1,,,,,,,,,,,,,,,*0F
$BDGSV,1,1,02,10,00,000,38,13,00,000,37*66
$LOGTIM,0,0.000000,0.000000,0.000000,0.000000,0.000*0A
EndT:        0
---00000023--- Acq_st=3 2019-5-22 07:13:2 
[16]  B10 1f 37   -307.4 4092000.8  1.0  1.0  5  0 285185776
[17]  B13  7 37   -529.1 4092001.4  1.0  1.0  5  0      6611
[18]  B27  1  7   2139.4 4091995.6  0.0  0.0  1  0         0
$GNGGA,000000.000,,,,,0,00,,,M,,,,0000*2B
$GNRMC,000000.000,A,,,,,,,000000,,*26
$GPGSA,A,1,,,,,,,,,,,,,,,*1E
$BDGSA,A,1,,,,,,,,,,,,,,,*0F
$BDGSV,1,1,02,10,00,000,37,13,00,000,37*69
$LOGTIM,0,0.000000,0.000000,0.000000,0.000000,0.000*0A
EndT:        0
---00000024--- Acq_st=3 2019-5-22 07:13:3 
[16]  B10 1f 38   -302.8 4092000.8  1.0  1.0  5  0 285186776
[17]  B13 1f 37   -526.2 4092001.4  1.0  1.0  5  0      7611
[18]  B27  1  7   1781.7 4091995.5  0.1  0.0  1  0       125
[19]  B29  1  0   7191.1 4092003.0  0.0  0.0  1  0         0
$GNGGA,000000.000,,,,,0,00,,,M,,,,0000*2B
$GNRMC,000000.000,A,,,,,,,000000,,*26
$GPGSA,A,1,,,,,,,,,,,,,,,*1E
$BDGSA,A,1,,,,,,,,,,,,,,,*0F
$BDGSV,1,1,02,10,00,000,38,13,00,000,37*66
$LOGTIM,0,0.000000,0.000000,0.000000,0.000000,0.000*0A
EndT:        0
---00000025--- Acq_st=3 2019-5-22 07:13:4 
[16]  B10 1f 37   -299.7 4092000.8  1.0  1.0  5  0 285187776
[17]  B13 1f 36   -522.1 4092001.4  1.0  1.0  5  0 285187771
[18]  B27  7 32   1785.0 4091995.3  0.4  1.0  5  0      1125
[19]  B29  1  7  -1285.0 4092003.7  0.3  0.0  1  0        54
[20]  B30  1  7    697.0 4091998.7 -0.0  0.0  1  0         0
$GNGGA,000000.000,,,,,0,00,,,M,,,,0000*2B
$GNRMC,000000.000,A,,,,,,,000000,,*26
$GPGSA,A,1,,,,,,,,,,,,,,,*1E
$BDGSA,A,1,,,,,,,,,,,,,,,*0F
$BDGSV,1,1,03,10,00,000,37,13,00,000,36,27,00,000,32*5D
$LOGTIM,0,0.000000,0.000000,0.000000,0.000000,0.000*0A
EndT:        0
---00000026--- Acq_st=7 2019-5-22 07:13:5 
[16]  B10 1f 37   -297.9 4092000.8  1.0  1.0  5  0 285188776
[17]  B13 1f 36   -520.1 4092001.3  1.0  1.0  5  0 285188771
[18]  B27  7 38   1785.9 4091995.3  1.0  1.0  5  0      2109
[19]  B29  7 33  -1283.4 4092003.3  0.9  1.0  5  0      1054
[20]  B30  7 21    695.4 4091998.1  0.3  0.0 20  0       519
$GNGGA,000000.000,,,,,0,00,,,M,,,,0000*2B
$GNRMC,000000.000,A,,,,,,,000000,,*26
$GPGSA,A,1,,,,,,,,,,,,,,,*1E
$BDGSA,A,1,,,,,,,,,,,,,,,*0F
$BDGSV,2,1,05,10,00,000,37,13,00,000,36,27,00,000,38,29,00,000,33*69
$BDGSV,2,2,05,30,00,000,21*5D
$LOGTIM,0,0.000000,0.000000,0.000000,0.000000,0.000*0A
EndT:        0
---00000027--- Acq_st=7 2019-5-22 07:13:6 
[16]  B10 1f 37   -299.7 4092000.8  1.0  1.0  5  0 285189776
[17]  B13 1f 37   -522.3 4092001.3  1.0  1.0  5  0 285189771
[18]  B27  7 38   1784.1 4091995.3  1.0  1.0  5  0      3109
[19]  B29  7 45  -1285.4 4092003.3  1.0  1.0  5  0      2040
[20]  B30  7 41    693.4 4091998.1  0.7  1.0  5  0      1501
$GNGGA,000000.000,,,,,0,00,,,M,,,,0000*2B
$GNRMC,000000.000,A,,,,,,,000000,,*26
$GPGSA,A,1,,,,,,,,,,,,,,,*1E
$BDGSA,A,1,,,,,,,,,,,,,,,*0F
$BDGSV,2,1,05,10,00,000,37,13,00,000,37,27,00,000,38,29,00,000,45*69
$BDGSV,2,2,05,30,00,000,41*5B
$LOGTIM,0,0.000000,0.000000,0.000000,0.000000,0.000*0A
EndT:        0
---00000028--- Acq_st=7 2019-5-22 07:13:7 
[16]  B10 1f 37   -302.4 4092000.8  1.0  1.0  5  0 285190776
[17]  B13 1f 37   -525.0 4092001.4  1.0  1.0  5  0 285190771
[18]  B27  7 37   1781.0 4091995.4  1.0  1.0  5  0      4109
[19]  B29  7 45  -1288.4 4092003.3  1.0  1.0  5  0      3040
[20]  B30  7 41    690.1 4091998.1  1.0  1.0  5  0      2501
$GNGGA,000000.000,,,,,0,00,,,M,,,,0000*2B
$GNRMC,000000.000,A,,,,,,,000000,,*26
$GPGSA,A,1,,,,,,,,,,,,,,,*1E
$BDGSA,A,1,,,,,,,,,,,,,,,*0F
$BDGSV,2,1,05,10,00,000,37,13,00,000,37,27,00,000,37,29,00,000,45*66
$BDGSV,2,2,05,30,00,000,41*5B
$LOGTIM,0,0.000000,0.000000,0.000000,0.000000,0.000*0A
EndT:        0
---00000029--- Acq_st=3 2019-5-22 07:13:8 
[16]  B10 1f 37   -303.1 4092000.8  1.0  1.0  5  0 285191776
[17]  B13 1f 37   -525.9 4092001.4  1.0  0.9  5  0 285191771
[18]  B27  7 37   1780.2 4091995.3  1.0  0.9  5  0      5109
[19]  B29  7 45  -1288.8 4092003.3  1.0  1.0  5  0      4040
[20]  B30  7 40    689.7 4091998.2  1.0  1.0  5  0      3501
$GNGGA,000000.000,,,,,0,00,,,M,,,,0000*2B
$GNRMC,000000.000,A,,,,,,,000000,,*26
$GPGSA,A,1,,,,,,,,,,,,,,,*1E
$BDGSA,A,1,,,,,,,,,,,,,,,*0F
$BDGSV,2,1,05,10,00,000,37,13,00,000,37,27,00,000,37,29,00,000,45*66
$BDGSV,2,2,05,30,00,000,40*5A
$LOGTIM,0,0.000000,0.000000,0.000000,0.000000,0.000*0A
EndT:        0
---00000030--- Acq_st=3 2019-5-22 07:13:9 
[16]  B10 1f 37   -303.2 4092000.8  1.0  1.0  5  0 285192776
[17]  B13 1f 36   -525.0 4092001.3  1.0  0.9  5  0 285192771
[18]  B27 1f 37   1780.1 4091995.4  1.0  1.0  5  0      6109
[19]  B29 1f 45  -1288.5 4092003.4  1.0  1.0  5  0      5040
[20]  B30 1f 41    690.3 4091998.2  1.0  1.0  5  0      4501
$GNGGA,000000.000,,,,,0,00,,,M,,,,0000*2B
$GNRMC,000000.000,A,,,,,,,000000,,*26
$GPGSA,A,1,,,,,,,,,,,,,,,*1E
$BDGSA,A,1,,,,,,,,,,,,,,,*0F
$BDGSV,2,1,05,10,00,000,37,13,00,000,36,27,00,000,37,29,00,000,45*67
$BDGSV,2,2,05,30,00,000,41*5B
$LOGTIM,0,0.000000,0.000000,0.000000,0.000000,0.000*0A
EndT:        0
---00000031--- Acq_st=3 2019-5-22 07:13:10 
[16]  B10 1f 37   -301.1 4092000.8  1.0  1.0  5  0 285193776
[17]  B13 1f 37   -523.5 4092001.3  1.0  1.0  5  0 285193771
[18]  B27 1f 37   1782.7 4091995.2  1.0  1.0  5  0 285193809
[19]  B29 1f 45  -1286.3 4092003.4  1.0  1.0  5  0 285193820
[20]  B30 1f 41    692.1 4091998.2  1.0  1.0  5  0 285193821
$GNGGA,000000.000,,,,,0,00,,,M,,,,0000*2B
$GNRMC,000000.000,A,,,,,,,000000,,*26
$GPGSA,A,1,,,,,,,,,,,,,,,*1E
$BDGSA,A,1,,,,,,,,,,,,,,,*0F
$BDGSV,2,1,05,10,00,000,37,13,00,000,37,27,00,000,37,29,00,000,45*66
$BDGSV,2,2,05,30,00,000,41*5B
$LOGTIM,0,0.000000,0.000000,0.000000,0.000000,0.000*0A
EndT:        0
---00000032--- Acq_st=3 2019-5-22 07:13:11 
[16]  B10 1f 37   -299.9 4092000.7  1.0  1.0  5  0 285194776
[17]  B13 1f 37   -522.9 4092001.3  1.0  1.0  5  0 285194771
[18]  B27 1f 37   1783.3 4091995.3  1.0  1.0  5  0 285194809
[19]  B29 1f 45  -1285.6 4092003.4  1.0  1.0  5  0 285194820
[20]  B30 1f 40    693.1 4091998.2  1.0  1.0  5  0 285194821
$GNGGA,000000.000,,,,,0,00,,,M,,,,0000*2B
$GNRMC,000000.000,A,,,,,,,000000,,*26
$GPGSA,A,1,,,,,,,,,,,,,,,*1E
$BDGSA,A,1,,,,,,,,,,,,,,,*0F
$BDGSV,2,1,05,10,00,000,37,13,00,000,37,27,00,000,37,29,00,000,45*66
$BDGSV,2,2,05,30,00,000,40*5A
$LOGTIM,0,0.000000,0.000000,0.000000,0.000000,0.000*0A
EndT:        0
---00000033--- Acq_st=5 2019-5-22 07:13:12 
[00]  G18  1  7   3018.9 2045997.1  0.0  0.0  1  0         2
[16]  B10 1f 37   -300.8 4092000.8  1.0  1.0  5  0 285195776
[17]  B13 1f 36   -523.6 4092001.4  1.0  1.0  5  0 285195771
[18]  B27 1f 37   1781.6 4091995.3  1.0  1.0  5  0 285195809
[19]  B29 1f 45  -1286.6 4092003.4  1.0  1.0  5  0 285195820
[20]  B30 1f 40    692.1 4091998.2  1.0  1.0  5  0 285195821
$GNGGA,000000.000,,,,,0,00,,,M,,,,0000*2B
$GNRMC,000000.000,A,,,,,,,000000,,*26
$GPGSA,A,1,,,,,,,,,,,,,,,*1E
$BDGSA,A,1,,,,,,,,,,,,,,,*0F
$BDGSV,2,1,05,10,00,000,37,13,00,000,36,27,00,000,37,29,00,000,45*67
$BDGSV,2,2,05,30,00,000,40*5A
$LOGTIM,0,0.000000,0.000000,0.000000,0.000000,0.000*0A
EndT:        0
---00000034--- Acq_st=3 2019-5-22 07:13:13 
[00]  G18  1 11   3073.0 2045997.1 -0.0  0.0  1  0        10
[01]  G19  1  7  -2906.2 2046002.9  0.0  0.0  1  0         8
[16]  B10 1f 37   -298.8 4092000.8  1.0  1.0  5  0 285196776
[17]  B13 1f 36   -521.1 4092001.4  1.0  1.0  5  0 285196771
[18]  B27 1f 37   1784.0 4091995.3  1.0  1.0  5  0 285196809
[19]  B29 1f 45  -1284.4 4092003.3  1.0  1.0  5  0 285196820
[20]  B30 1f 40    694.1 4091998.2  1.0  1.0  5  0 285196821
$GNGGA,000000.000,,,,,0,00,,,M,,,,0000*2B
$GNRMC,000000.000,A,,,,,,,000000,,*26
$GPGSA,A,1,,,,,,,,,,,,,,,*1E
$BDGSA,A,1,,,,,,,,,,,,,,,*0F
$BDGSV,2,1,05,10,00,000,37,13,00,000,36,27,00,000,37,29,00,000,45*67
$BDGSV,2,2,05,30,00,000,40*5A
$LOGTIM,0,0.000000,0.000000,0.000000,0.000000,0.000*0A
EndT:        0
---00000035--- Acq_st=3 2019-5-22 07:13:14 
[00]  G18  1  8   3179.4 2045996.8 -0.2  0.0  1  0        10
[01]  G19  1  7  -2753.7 2046003.1  0.2  0.0  1  0         8
[16]  B10 1f 37   -298.1 4092000.8  1.0  1.0  5  0 285197776
[17]  B13 1f 36   -521.2 4092001.3  1.0  1.0  5  0 285197771
[18]  B27 1f 37   1784.3 4091995.3  1.0  1.0  5  0 285197809
[19]  B29 1f 45  -1284.1 4092003.4  1.0  1.0  5  0 285197820
[20]  B30 1f 40    694.1 4091998.2  1.0  1.0  5  0 285197821
$GNGGA,000000.000,,,,,0,00,,,M,,,,0000*2B
$GNRMC,000000.000,A,,,,,,,000000,,*26
$GPGSA,A,1,,,,,,,,,,,,,,,*1E
$BDGSA,A,1,,,,,,,,,,,,,,,*0F
$BDGSV,2,1,05,10,00,000,37,13,00,000,36,27,00,000,37,29,00,000,45*67
$BDGSV,2,2,05,30,00,000,40*5A
$LOGTIM,0,0.000000,0.000000,0.000000,0.000000,0.000*0A
EndT:        0
---00000036--- Acq_st=3 2019-5-22 07:13:15 
[00]  G18  1  7   3103.0 2045997.0  0.0  0.0  1  0        10
[01]  G19  1 14  -2702.8 2046003.3  0.1  0.0  1  0         8
[16]  B10 1f 36   -300.4 4092000.8  1.0  1.0  5  0 285198776
[17]  B13 1f 36   -523.1 4092001.4  1.0  1.0  5  0 285198771
[18]  B27 1f 37   1780.9 4091995.3  1.0  1.0  5  0 285198809
[19]  B29 1f 44  -1286.5 4092003.4  1.0  1.0  5  0 285198820
[20]  B30 1f 40    691.8 4091998.2  1.0  1.0  5  0 285198821
$GNGGA,000000.000,,,,,0,00,,,M,,,,0000*2B
$GNRMC,000000.000,A,,,,,,,000000,,*26
$GPGSA,A,1,,,,,,,,,,,,,,,*1E
$BDGSA,A,1,,,,,,,,,,,,,,,*0F
$BDGSV,2,1,05,10,00,000,36,13,00,000,36,27,00,000,37,29,00,000,44*67
$BDGSV,2,2,05,30,00,000,40*5A
$LOGTIM,0,0.000000,0.000000,0.000000,0.000000,0.000*0A
EndT:        0
---00000037--- Acq_st=3 2019-5-22 07:13:16 
[16]  B10 1f 37   -300.9 4092000.7  1.0  1.0  5  0 285199776
[17]  B13 1f 36   -523.5 4092001.4  1.0  1.0  5  0 285199771
[18]  B27 1f 37   1782.0 4091995.3  1.0  1.0  5  0 285199809
[19]  B29 1f 44  -1286.2 4092003.4  1.0  1.0  5  0 285199820
[20]  B30 1f 40    692.4 4091998.2  1.0  1.0  5  0 285199821
$GNGGA,000000.000,,,,,0,00,,,M,,,,0000*2B
$GNRMC,000000.000,A,,,,,,,000000,,*26
$GPGSA,A,1,,,,,,,,,,,,,,,*1E
$BDGSA,A,1,,,,,,,,,,,,,,,*0F
$BDGSV,2,1,05,10,00,000,37,13,00,000,36,27,00,000,37,29,00,000,44*66
$BDGSV,2,2,05,30,00,000,40*5A
$LOGTIM,0,0.000000,0.000000,0.000000,0.000000,0.000*0A
EndT:        0
---00000038--- Acq_st=3 2019-5-22 07:13:17 
[16]  B10 1f 37   -298.8 4092000.8  1.0  1.0  5  0 285200776
[17]  B13 1f 36   -521.7 4092001.3  1.0  1.0  5  0 285200771
[18]  B27 1f 37   1782.7 4091995.3  1.0  1.0  5  0 285200809
[19]  B29 1f 44  -1284.4 4092003.4  1.0  1.0  5  0 285200820
[20]  B30 1f 40    694.1 4091998.2  1.0  1.0  5  0 285200821
$GNGGA,000000.000,,,,,0,00,,,M,,,,0000*2B
$GNRMC,000000.000,A,,,,,,,000000,,*26
$GPGSA,A,1,,,,,,,,,,,,,,,*1E
$BDGSA,A,1,,,,,,,,,,,,,,,*0F
$BDGSV,2,1,05,10,00,000,37,13,00,000,36,27,00,000,37,29,00,000,44*66
$BDGSV,2,2,05,30,00,000,40*5A
$LOGTIM,0,0.000000,0.000000,0.000000,0.000000,0.000*0A
EndT:        0
---00000039--- Acq_st=3 2019-5-22 07:13:18 
[16]  B10 1f 37   -300.7 4092000.8  1.0  1.0  5  0 285201776
[17]  B13 1f 36   -523.8 4092001.4  1.0  1.0  5  0 285201771
[18]  B27 1f 37   1780.9 4091995.3  1.0  1.0  5  0 285201809
[19]  B29 1f 44  -1286.7 4092003.4  1.0  1.0  5  0 285201820
[20]  B30 1f 40    691.5 4091998.2  1.0  1.0  5  0 285201821
$GNGGA,000000.000,,,,,0,00,,,M,,,,0000*2B
$GNRMC,000000.000,A,,,,,,,000000,,*26
$GPGSA,A,1,,,,,,,,,,,,,,,*1E
$BDGSA,A,1,,,,,,,,,,,,,,,*0F
$BDGSV,2,1,05,10,00,000,37,13,00,000,36,27,00,000,37,29,00,000,44*66
$BDGSV,2,2,05,30,00,000,40*5A
$LOGTIM,0,0.000000,0.000000,0.000000,0.000000,0.000*0A
EndT:        0
---00000040--- Acq_st=3 2019-5-22 07:13:19 
[16]  B10 1f 36   -298.3 4092000.8  1.0  1.0  5  0 285202776
[17]  B13 1f 36   -521.8 4092001.4  1.0  1.0  5  0 285202771
[18]  B27 1f 37   1782.5 4091995.2  1.0  1.0  5  0 285202809
[19]  B29 1f 44  -1284.6 4092003.4  1.0  1.0  5  0 285202820
[20]  B30 1f 40    693.4 4091998.1  1.0  1.0  5  0 285202821
$GNGGA,000000.000,,,,,0,00,,,M,,,,0000*2B
$GNRMC,000000.000,A,,,,,,,000000,,*26
$GPGSA,A,1,,,,,,,,,,,,,,,*1E
$BDGSA,A,1,,,,,,,,,,,,,,,*0F
$BDGSV,2,1,05,10,00,000,36,13,00,000,36,27,00,000,37,29,00,000,44*67
$BDGSV,2,2,05,30,00,000,40*5A
$LOGTIM,0,0.000000,0.000000,0.000000,0.000000,0.000*0A
EndT:        0
---00000041--- Acq_st=3 2019-5-22 07:13:20 
[16]  B10 1f 37   -297.1 4092000.7  1.0  1.0  5  0 285203776
[17]  B13 1f 36   -520.9 4092001.4  1.0  1.0  5  0 285203771
[18]  B27 1f 37   1784.3 4091995.3  1.0  1.0  5  0 285203809
[19]  B29 1f 44  -1283.3 4092003.4  1.0  1.0  5  0 285203820
[20]  B30 1f 40    695.1 4091998.1  1.0  1.0  5  0 285203821
$GNGGA,000000.000,,,,,0,00,,,M,,,,0000*2B
$GNRMC,000000.000,A,,,,,,,000000,,*26
$GPGSA,A,1,,,,,,,,,,,,,,,*1E
$BDGSA,A,1,,,,,,,,,,,,,,,*0F
$BDGSV,2,1,05,10,00,000,37,13,00,000,36,27,00,000,37,29,00,000,44*66
$BDGSV,2,2,05,30,00,000,40*5A
$LOGTIM,0,0.000000,0.000000,0.000000,0.000000,0.000*0A
EndT:        0
---00000042--- Acq_st=3 2019-5-22 07:13:21 
[16]  B10 1f 36   -299.1 4092000.8  1.0  1.0  5  0 285204776
[17]  B13 1f 36   -521.7 4092001.4  1.0  1.0  5  0 285204771
[18]  B27 1f 38   1782.5 4091995.3  1.0  1.0  5  0 285204809
[19]  B29 1f 44  -1284.5 4092003.4  1.0  1.0  5  0 285204820
[20]  B30 1f 40    693.6 4091998.2  1.0  1.0  5  0 285204821
$GNGGA,000000.000,,,,,0,00,,,M,,,,0000*2B
$GNRMC,000000.000,A,,,,,,,000000,,*26
$GPGSA,A,1,,,,,,,,,,,,,,,*1E
$BDGSA,A,1,,,,,,,,,,,,,,,*0F
$BDGSV,2,1,05,10,00,000,36,13,00,000,36,27,00,000,38,29,00,000,44*68
$BDGSV,2,2,05,30,00,000,40*5A
$LOGTIM,0,0.000000,0.000000,0.000000,0.000000,0.000*0A
EndT:        0
---00000043--- Acq_st=3 2019-5-22 07:13:22 
[16]  B10 1f 36   -295.4 4092000.8  1.0  1.0  5  0 285205776
[17]  B13 1f 36   -519.0 4092001.3  1.0  1.0  5  0 285205771
[18]  B27 1f 38   1786.2 4091995.3  1.0  1.0  5  0 285205809
[19]  B29 1f 43  -1281.6 4092003.4  1.0  1.0  5  0 285205820
[20]  B30 1f 40    696.2 4091998.2  1.0  1.0  5  0 285205821
$GNGGA,000000.000,,,,,0,00,,,M,,,,0000*2B
$GNRMC,000000.000,A,,,,,,,000000,,*26
$GPGSA,A,1,,,,,,,,,,,,,,,*1E
$BDGSA,A,1,,,,,,,,,,,,,,,*0F
$BDGSV,2,1,05,10,00,000,36,13,00,000,36,27,00,000,38,29,00,000,43*6F
$BDGSV,2,2,05,30,00,000,40*5A
$LOGTIM,0,0.000000,0.000000,0.000000,0.000000,0.000*0A
EndT:        0
---00000044--- Acq_st=3 2019-5-22 07:13:23 
[16]  B10 1f 37   -297.4 4092000.7  1.0  1.0  5  0 285206776
[17]  B13 1f 36   -519.6 4092001.4  1.0  1.0  5  0 285206771
[18]  B27 1f 38   1784.0 4091995.3  1.0  1.0  5  0 285206809
[19]  B29 1f 44  -1282.6 4092003.4  1.0  1.0  5  0 285206820
[20]  B30 1f 40    694.7 4091998.2  1.0  1.0  5  0 285206821
$GNGGA,000000.000,,,,,0,00,,,M,,,,0000*2B
$GNRMC,000000.000,A,,,,,,,000000,,*26
$GPGSA,A,1,,,,,,,,,,,,,,,*1E
$BDGSA,A,1,,,,,,,,,,,,,,,*0F
$BDGSV,2,1,05,10,00,000,37,13,00,000,36,27,00,000,38,29,00,000,44*69
$BDGSV,2,2,05,30,00,000,40*5A
$LOGTIM,0,0.000000,0.000000,0.000000,0.000000,0.000*0A
EndT:        0
---00000045--- Acq_st=3 2019-5-22 07:13:24 
[16]  B10 1f 37   -301.4 4092000.8  1.0  1.0  5  0 285207776
[17]  B13 1f 36   -524.6 4092001.4  1.0  1.0  5  0 285207771
[18]  B27 1f 38   1779.0 4091995.3  1.0  1.0  5  0 285207809
[19]  B29 1f 43  -1287.5 4092003.4  1.0  1.0  5  0 285207820
[20]  B30 1f 40    690.3 4091998.2  1.0  0.9  5  0 285207821
$GNGGA,000000.000,,,,,0,00,,,M,,,,0000*2B
$GNRMC,000000.000,A,,,,,,,000000,,*26
$GPGSA,A,1,,,,,,,,,,,,,,,*1E
$BDGSA,A,1,,,,,,,,,,,,,,,*0F
$BDGSV,2,1,05,10,00,000,37,13,00,000,36,27,00,000,38,29,00,000,43*6E
$BDGSV,2,2,05,30,00,000,40*5A
$LOGTIM,0,0.000000,0.000000,0.000000,0.000000,0.000*0A
EndT:        0
---00000046--- Acq_st=3 2019-5-22 07:13:25 
[16]  B10 1f 37   -306.4 4092000.8  1.0  1.0  5  0 285208776
[17]  B13 1f 36   -529.4 4092001.4  1.0  1.0  5  0 285208771
[18]  B27 1f 38   1774.1 4091995.4  1.0  1.0  5  0 285208809
[19]  B29 1f 43  -1292.1 4092003.4  1.0  1.0  5  0 285208820
[20]  B30 1f 40    685.8 4091998.2  1.0  1.0  5  0 285208821
$GNGGA,000000.000,,,,,0,00,,,M,,,,0000*2B
$GNRMC,000000.000,A,,,,,,,000000,,*26
$GPGSA,A,1,,,,,,,,,,,,,,,*1E
$BDGSA,A,1,,,,,,,,,,,,,,,*0F
$BDGSV,2,1,05,10,00,000,37,13,00,000,36,27,00,000,38,29,00,000,43*6E
$BDGSV,2,2,05,30,00,000,40*5A
$LOGTIM,0,0.000000,0.000000,0.000000,0.000000,0.000*0A
EndT:        0
---00000047--- Acq_st=3 2019-5-22 07:13:26 
[16]  B10 1f 37   -305.8 4092000.8  1.0  1.0  5  0 285209776
[17]  B13 1f 36   -529.9 4092001.4  1.0  1.0  5  0 285209771
[18]  B27 1f 38   1774.8 4091995.3  1.0  1.0  5  0 285209809
[19]  B29 1f 44  -1292.1 4092003.4  1.0  1.0  5  0 285209820
[20]  B30 1f 40    686.0 4091998.2  1.0  1.0  5  0 285209821
$GNGGA,000000.000,,,,,0,00,,,M,,,,0000*2B
$GNRMC,000000.000,A,,,,,,,000000,,*26
$GPGSA,A,1,,,,,,,,,,,,,,,*1E
$BDGSA,A,1,,,,,,,,,,,,,,,*0F
$BDGSV,2,1,05,10,00,000,37,13,00,000,36,27,00,000,38,29,00,000,44*69
$BDGSV,2,2,05,30,00,000,40*5A
$LOGTIM,0,0.000000,0.000000,0.000000,0.000000,0.000*0A
EndT:        0
---00000048--- Acq_st=3 2019-5-22 07:13:27 
[16]  B10 1f 37   -302.2 4092000.8  1.0  1.0  5  0 285210776
[17]  B13 1f 36   -527.1 4092001.3  1.0  1.0  5  0 285210771
[18]  B27 1f 37   1777.1 4091995.3  1.0  1.0  5  0 285210809
[19]  B29 1f 43  -1289.0 4092003.4  1.0  1.0  5  0 285210820
[20]  B30 1f 40    688.4 4091998.2  1.0  1.0  5  0 285210821
$GNGGA,000000.000,,,,,0,00,,,M,,,,0000*2B
$GNRMC,000000.000,A,,,,,,,000000,,*26
$GPGSA,A,1,,,,,,,,,,,,,,,*1E
$BDGSA,A,1,,,,,,,,,,,,,,,*0F
$BDGSV,2,1,05,10,00,000,37,13,00,000,36,27,00,000,37,29,00,000,43*61
$BDGSV,2,2,05,30,00,000,40*5A
$LOGTIM,0,0.000000,0.000000,0.000000,0.000000,0.000*0A
EndT:        0
---00000049--- Acq_st=3 2019-5-22 07:13:28 
[16]  B10 1f 37   -294.6 4092000.7  1.0  1.0  5  0 285211776
[17]  B13 1f 36   -517.7 4092001.3  1.0  1.0  5  0 285211771
[18]  B27 1f 37   1785.3 4091995.3  1.0  1.0  5  0 285211809
[19]  B29 1f 43  -1280.5 4092003.3  1.0  1.0  5  0 285211820
[20]  B30 1f 39    697.2 4091998.2  1.0  1.0  5  0 285211821
$GNGGA,000000.000,,,,,0,00,,,M,,,,0000*2B
$GNRMC,000000.000,A,,,,,,,000000,,*26
$GPGSA,A,1,,,,,,,,,,,,,,,*1E
$BDGSA,A,1,,,,,,,,,,,,,,,*0F
$BDGSV,2,1,05,10,00,000,37,13,00,000,36,27,00,000,37,29,00,000,43*61
$BDGSV,2,2,05,30,00,000,39*54
$LOGTIM,0,0.000000,0.000000,0.000000,0.000000,0.000*0A
EndT:        0
---00000050--- Acq_st=3 2019-5-22 07:13:29 
[16]  B10 1f 37   -298.7 4092000.8  1.0  1.0  5  0 285212776
[17]  B13 1f 36   -522.1 4092001.3  1.0  1.0  5  0 285212771
[18]  B27 1f 37   1781.8 4091995.3  1.0  1.0  5  0 285212809
[19]  B29 1f 44  -1284.6 4092003.4  1.0  1.0  5  0 285212820
[20]  B30 1f 39    693.5 4091998.2  1.0  1.0  5  0 285212821
$GNGGA,000000.000,,,,,0,00,,,M,,,,0000*2B
$GNRMC,000000.000,A,,,,,,,000000,,*26
$GPGSA,A,1,,,,,,,,,,,,,,,*1E
$BDGSA,A,1,,,,,,,,,,,,,,,*0F
$BDGSV,2,1,05,10,00,000,37,13,00,000,36,27,00,000,37,29,00,000,44*66
$BDGSV,2,2,05,30,00,000,39*54
$LOGTIM,0,0.000000,0.000000,0.000000,0.000000,0.000*0A
EndT:        0
---00000051--- Acq_st=7 2019-5-22 07:13:30 
[16]  B10 1f 37   -302.5 4092000.8  1.0  1.0  5  0 285213776
[17]  B13 1f 36   -526.0 4092001.4  1.0  1.0  5  0 285213771
[18]  B27 1f 38   1777.1 4091995.4  1.0  1.0  5  0 285213809
[19]  B29 1f 43  -1288.7 4092003.4  1.0  1.0  5  0 285213820
[20]  B30 1f 39    689.6 4091998.2  1.0  1.0  5  0 285213821
$GNGGA,000000.000,,,,,0,00,,,M,,,,0000*2B
$GNRMC,000000.000,A,,,,,,,000000,,*26
$GPGSA,A,1,,,,,,,,,,,,,,,*1E
$BDGSA,A,1,,,,,,,,,,,,,,,*0F
$BDGSV,2,1,05,10,00,000,37,13,00,000,36,27,00,000,38,29,00,000,43*6E
$BDGSV,2,2,05,30,00,000,39*54
$LOGTIM,0,0.000000,0.000000,0.000000,0.000000,0.000*0A
EndT:        0
---00000052--- Acq_st=7 2019-5-22 07:13:31 
[16]  B10 1f 37   -298.8 4092000.8  1.0  1.0  5  0 285214776
[17]  B13 1f 36   -522.8 4092001.4  1.0  1.0  5  0 285214771
[18]  B27 1f 38   1780.8 4091995.3  1.0  1.0  5  0 285214809
[19]  B29 1f 43  -1284.9 4092003.4  1.0  1.0  5  0 285214820
[20]  B30 1f 39    692.8 4091998.2  1.0  1.0  5  0 285214821
$GNGGA,000000.000,,,,,0,00,,,M,,,,0000*2B
$GNRMC,000000.000,A,,,,,,,000000,,*26
$GPGSA,A,1,,,,,,,,,,,,,,,*1E
$BDGSA,A,1,,,,,,,,,,,,,,,*0F
$BDGSV,2,1,05,10,00,000,37,13,00,000,36,27,00,000,38,29,00,000,43*6E
$BDGSV,2,2,05,30,00,000,39*54
$LOGTIM,0,0.000000,0.000000,0.000000,0.000000,0.000*0A
EndT:        0
---00000053--- Acq_st=3 2019-5-22 07:13:32 
[16]  B10 1f 37   -296.9 4092000.7  1.0  1.0  5  0 285215776
[17]  B13 1f 36   -520.4 4092001.4  1.0  0.9  5  0 285215771
[18]  B27 1f 38   1782.3 4091995.3  1.0  1.0  5  0 285215809
[19]  B29 1f 43  -1283.3 4092003.4  1.0  1.0  5  0 285215820
[20]  B30 1f 40    694.2 4091998.2  1.0  1.0  5  0 285215821
$GNGGA,000000.000,,,,,0,00,,,M,,,,0000*2B
$GNRMC,000000.000,A,,,,,,,000000,,*26
$GPGSA,A,1,,,,,,,,,,,,,,,*1E
$BDGSA,A,1,,,,,,,,,,,,,,,*0F
$BDGSV,2,1,05,10,00,000,37,13,00,000,36,27,00,000,38,29,00,000,43*6E
$BDGSV,2,2,05,30,00,000,40*5A
$LOGTIM,0,0.000000,0.000000,0.000000,0.000000,0.000*0A
EndT:        0
---00000054--- Acq_st=3 2019-5-22 07:13:33 
[16]  B10 1f 37   -300.1 4092000.8  1.0  1.0  5  0 285216776
[17]  B13 1f 36   -523.1 4092001.4  1.0  1.0  5  0 285216771
[18]  B27 1f 38   1779.7 4091995.3  1.0  1.0  5  0 285216809
[19]  B29 1f 43  -1285.5 4092003.4  1.0  1.0  5  0 285216820
[20]  B30 1f 40    692.2 4091998.2  1.0  1.0  5  0 285216821
$GNGGA,000000.000,,,,,0,00,,,M,,,,0000*2B
$GNRMC,000000.000,A,,,,,,,000000,,*26
$GPGSA,A,1,,,,,,,,,,,,,,,*1E
$BDGSA,A,1,,,,,,,,,,,,,,,*0F
$BDGSV,2,1,05,10,00,000,37,13,00,000,36,27,00,000,38,29,00,000,43*6E
$BDGSV,2,2,05,30,00,000,40*5A
$LOGTIM,0,0.000000,0.000000,0.000000,0.000000,0.000*0A
EndT:        0
---00000055--- Acq_st=3 2019-5-22 07:13:34 
[16]  B10 1f 37   -296.2 4092000.8  1.0  0.9  5  0 285217776
[17]  B13 1f 35   -520.4 4092001.4  1.0  1.0  5  0 285217771
[18]  B27 1f 38   1782.5 4091995.3  1.0  1.0  5  0 285217809
[19]  B29 1f 43  -1282.9 4092003.3  1.0  1.0  5  0 285217820
[20]  B30 1f 40    694.8 4091998.2  1.0  1.0  5  0 285217821
$GNGGA,000000.000,,,,,0,00,,,M,,,,0000*2B
$GNRMC,000000.000,A,,,,,,,000000,,*26
$GPGSA,A,1,,,,,,,,,,,,,,,*1E
$BDGSA,A,1,,,,,,,,,,,,,,,*0F
$BDGSV,2,1,05,10,00,000,37,13,00,000,35,27,00,000,38,29,00,000,43*6D
$BDGSV,2,2,05,30,00,000,40*5A
$LOGTIM,0,0.000000,0.000000,0.000000,0.000000,0.000*0A
EndT:        0
---00000056--- Acq_st=3 2019-5-22 07:13:35 
[16]  B10 1f 37   -296.1 4092000.7  1.0  1.0  5  0 285218776
[17]  B13 1f 36   -519.9 4092001.3  1.0  1.0  5  0 285218771
[18]  B27 1f 38   1782.6 4091995.3  1.0  1.0  5  0 285218809
[19]  B29 1f 43  -1282.2 4092003.3  1.0  1.0  5  0 285218820
[20]  B30 1f 41    695.6 4091998.2  1.0  1.0  5  0 285218821
$GNGGA,000000.000,,,,,0,00,,,M,,,,0000*2B
$GNRMC,000000.000,A,,,,,,,000000,,*26
$GPGSA,A,1,,,,,,,,,,,,,,,*1E
$BDGSA,A,1,,,,,,,,,,,,,,,*0F
$BDGSV,2,1,05,10,00,000,37,13,00,000,36,27,00,000,38,29,00,000,43*6E
$BDGSV,2,2,05,30,00,000,41*5B
$LOGTIM,0,0.000000,0.000000,0.000000,0.000000,0.000*0A
EndT:        0
---00000057--- Acq_st=5 2019-5-22 07:13:36 
[00]  G18  1  7   3014.2 2045997.1 -0.0  0.0  1  0        10
[16]  B10 1f 37   -299.3 4092000.8  1.0  1.0  5  0 285219776
[17]  B13 1f 35   -523.2 4092001.3  1.0  1.0  5  0 285219771
[18]  B27 1f 38   1779.2 4091995.3  1.0  1.0  5  0 285219809
[19]  B29 1f 43  -1285.7 4092003.3  1.0  1.0  5  0 285219820
[20]  B30 1f 41    691.7 4091998.2  1.0  1.0  5  0 285219821
$GNGGA,000000.000,,,,,0,00,,,M,,,,0000*2B
$GNRMC,000000.000,A,,,,,,,000000,,*26
$GPGSA,A,1,,,,,,,,,,,,,,,*1E
$BDGSA,A,1,,,,,,,,,,,,,,,*0F
$BDGSV,2,1,05,10,00,000,37,13,00,000,35,27,00,000,38,29,00,000,43*6D
$BDGSV,2,2,05,30,00,000,41*5B
$LOGTIM,0,0.000000,0.000000,0.000000,0.000000,0.000*0A
EndT:        0
---00000058--- Acq_st=3 2019-5-22 07:13:37 
[00]  G18  1  7   3190.3 2045997.1 -0.3  0.0  1  0         5
[01]  G19  1  7  -2977.7 2046002.9 -0.1  0.0  1  0         4
[16]  B10 1f 37   -301.3 4092000.8  1.0  1.0  5  0 285220776
[17]  B13 1f 36   -524.5 4092001.3  1.0  1.0  5  0 285220771
[18]  B27 1f 38   1777.2 4091995.3  1.0  1.0  5  0 285220809
[19]  B29 1f 43  -1287.1 4092003.4  1.0  1.0  5  0 285220820
[20]  B30 1f 41    690.3 4091998.1  1.0  1.0  5  0 285220821
$GNGGA,000000.000,,,,,0,00,,,M,,,,0000*2B
$GNRMC,000000.000,A,,,,,,,000000,,*26
$GPGSA,A,1,,,,,,,,,,,,,,,*1E
$BDGSA,A,1,,,,,,,,,,,,,,,*0F
$BDGSV,2,1,05,10,00,000,37,13,00,000,36,27,00,000,38,29,00,000,43*6E
$BDGSV,2,2,05,30,00,000,41*5B
$LOGTIM,0,0.000000,0.000000,0.000000,0.000000,0.000*0A
EndT:        0
---00000059--- Acq_st=3 2019-5-22 07:13:38 
[00]  G18  1 10   3255.7 2045997.1  0.2  0.0  1  0         5
[01]  G19  1  7  -2996.5 2046002.9  0.1  0.0  1  0         4
[16]  B10 1f 37   -297.3 4092000.8  1.0  1.0  5  0 285221776
[17]  B13 1f 36   -521.5 4092001.4  1.0  1.0  5  0 285221771
[18]  B27 1f 38   1779.9 4091995.3  1.0  0.9  5  0 285221809
[19]  B29 1f 42  -1284.0 4092003.4  1.0  1.0  5  0 285221820
[20]  B30 1f 41    693.1 4091998.1  1.0  1.0  5  0 285221821
$GNGGA,000000.000,,,,,0,00,,,M,,,,0000*2B
$GNRMC,000000.000,A,,,,,,,000000,,*26
$GPGSA,A,1,,,,,,,,,,,,,,,*1E
$BDGSA,A,1,,,,,,,,,,,,,,,*0F
$BDGSV,2,1,05,10,00,000,37,13,00,000,36,27,00,000,38,29,00,000,42*6F
$BDGSV,2,2,05,30,00,000,41*5B
$LOGTIM,0,0.000000,0.000000,0.000000,0.000000,0.000*0A
EndT:        0
---00000060--- Acq_st=3 2019-5-22 07:13:39 
[00]  G18  1  7   3334.6 2045997.4  0.1  0.0  1  0         5
[01]  G19  1  8  -2985.7 2046003.2 -0.1  0.0  1  0         4
[16]  B10 1f 37   -293.7 4092000.8  1.0  1.0  5  0 285222776
[17]  B13 1f 36   -517.5 4092001.3  1.0  1.0  5  0 285222771
[18]  B27 1f 38   1784.0 4091995.3  1.0  1.0  5  0 285222809
[19]  B29 1f 43  -1280.0 4092003.3  1.0  1.0  5  0 285222820
[20]  B30 1f 41    697.4 4091998.2  1.0  1.0  5  0 285222821
$GNGGA,000000.000,,,,,0,00,,,M,,,,0000*2B
$GNRMC,000000.000,A,,,,,,,000000,,*26
$GPGSA,A,1,,,,,,,,,,,,,,,*1E
$BDGSA,A,1,,,,,,,,,,,,,,,*0F
$BDGSV,2,1,05,10,00,000,37,13,00,000,36,27,00,000,38,29,00,000,43*6E
$BDGSV,2,2,05,30,00,000,41*5B
$LOGTIM,0,0.000000,0.000000,0.000000,0.000000,0.000*0A
EndT:        0
---00000061--- Acq_st=3 2019-5-22 07:13:40 
[16]  B10 1f 37   -296.0 4092000.8  1.0  1.0  5  0 285223776
[17]  B13 1f 35   -520.4 4092001.3  1.0  0.9  5  0 285223771
[18]  B27 1f 38   1781.3 4091995.3  1.0  1.0  5  0 285223809
[19]  B29 1f 42  -1282.5 4092003.3  1.0  1.0  5  0 285223820
[20]  B30 1f 41    695.1 4091998.1  1.0  1.0  5  0 285223821
$GNGGA,000000.000,,,,,0,00,,,M,,,,0000*2B
$GNRMC,000000.000,A,,,,,,,000000,,*26
$GPGSA,A,1,,,,,,,,,,,,,,,*1E
$BDGSA,A,1,,,,,,,,,,,,,,,*0F
$BDGSV,2,1,05,10,00,000,37,13,00,000,35,27,00,000,38,29,00,000,42*6C
$BDGSV,2,2,05,30,00,000,41*5B
$LOGTIM,0,0.000000,0.000000,0.000000,0.000000,0.000*0A
EndT:        0
---00000062--- Acq_st=3 2019-5-22 07:13:41 
[16]  B10 1f 37   -295.7 4092000.8  1.0  1.0  5  0 285224776
[17]  B13 1f 36   -519.8 4092001.4  1.0  0.9  5  0 285224771
[18]  B27 1f 38   1782.0 4091995.4  1.0  1.0  5  0 285224809
[19]  B29 1f 43  -1282.2 4092003.4  1.0  1.0  5  0 285224820
[20]  B30 1f 42    695.2 4091998.1  1.0  1.0  5  0 285224821
$GNGGA,000000.000,,,,,0,00,,,M,,,,0000*2B
$GNRMC,000000.000,A,,,,,,,000000,,*26
$GPGSA,A,1,,,,,,,,,,,,,,,*1E
$BDGSA,A,1,,,,,,,,,,,,,,,*0F
$BDGSV,2,1,05,10,00,000,37,13,00,000,36,27,00,000,38,29,00,000,43*6E
$BDGSV,2,2,05,30,00,000,42*58
$LOGTIM,0,0.000000,0.000000,0.000000,0.000000,0.000*0A
EndT:        0
---00000063--- Acq_st=3 2019-5-22 07:13:42 
[16]  B10 1f 37   -295.6 4092000.7  1.0  0.9  5  0 285225776
[17]  B13 1f 36   -521.4 4092001.3  1.0  1.0  5  0 285225771
[18]  B27 1f 38   1781.1 4091995.3  1.0  1.0  5  0 285225809
[19]  B29 1f 43  -1282.6 4092003.4  1.0  1.0  5  0 285225820
[20]  B30 1f 42    694.7 4091998.2  1.0  1.0  5  0 285225821
$GNGGA,000000.000,,,,,0,00,,,M,,,,0000*2B
$GNRMC,000000.000,A,,,,,,,000000,,*26
$GPGSA,A,1,,,,,,,,,,,,,,,*1E
$BDGSA,A,1,,,,,,,,,,,,,,,*0F
$BDGSV,2,1,05,10,00,000,37,13,00,000,36,27,00,000,38,29,00,000,43*6E
$BDGSV,2,2,05,30,00,000,42*58
$LOGTIM,0,0.000000,0.000000,0.000000,0.000000,0.000*0A
EndT:        0
---00000064--- Acq_st=3 2019-5-22 07:13:43 
[16]  B10 1f 37   -294.9 4092000.8  1.0  1.0  5  0 285226776
[17]  B13 1f 36   -518.3 4092001.5  1.0  1.0  5  0 285226771
[18]  B27 1f 38   1782.2 4091995.3  1.0  1.0  5  0 285226809
[19]  B29 1f 43  -1281.6 4092003.3  1.0  1.0  5  0 285226820
[20]  B30 1f 42    695.5 4091998.1  1.0  1.0  5  0 285226821
$GNGGA,000000.000,,,,,0,00,,,M,,,,0000*2B
$GNRMC,000000.000,A,,,,,,,000000,,*26
$GPGSA,A,1,,,,,,,,,,,,,,,*1E
$BDGSA,A,1,,,,,,,,,,,,,,,*0F
$BDGSV,2,1,05,10,00,000,37,13,00,000,36,27,00,000,38,29,00,000,43*6E
$BDGSV,2,2,05,30,00,000,42*58
$LOGTIM,0,0.000000,0.000000,0.000000,0.000000,0.000*0A
EndT:        0
---00000065--- Acq_st=3 2019-5-22 07:13:44 
[16]  B10 1f 37   -294.3 4092000.8  1.0  1.0  5  0 285227776
[17]  B13 1f 36   -518.4 4092001.4  1.0  0.9  5  0 285227771
[18]  B27 1f 38   1782.8 4091995.3  1.0  1.0  5  0 285227809
[19]  B29 1f 43  -1280.5 4092003.3  1.0  1.0  5  0 285227820
[20]  B30 1f 42    697.0 4091998.2  1.0  1.0  5  0 285227821
lsq: nits= 4
$GNGGA,071344.897,3112.7178,N,12136.4233,E,1,05,2.5,48.0,M,,,,0000*25
$GNRMC,071344.897,A,3112.7178,N,12136.4233,E,0.45,0.00,220519,,*1B
$GPGSA,A,3,,,,,,,,,,,,,3.5,2.5,2.4*35
$BDGSA,A,3,10,13,27,29,30,,,,,,,,3.5,2.5,2.4*2A
$BDGSV,2,1,05,10,00,000,37,13,00,000,36,27,00,000,38,29,00,000,43*6E
$BDGSV,2,2,05,30,00,000,42*58
$LOGTIM,2,0.000000,-6144723.263206,0.000000,0.000000,-61.415*3D
EndT:        0
---00000066--- Acq_st=3 2019-5-22 07:13:45 
[16]  B10 1f 37   -297.9 4092000.7  1.0  1.0  5  0 285228776
[17]  B13 1f 36   -522.1 4092001.3  1.0  1.0  5  0 285228771
[18]  B27 1f 38   1779.7 4091995.3  1.0  1.0  5  0 285228809
[19]  B29 1f 43  -1284.1 4092003.3  1.0  1.0  5  0 285228820
[20]  B30 1f 42    693.4 4091998.2  1.0  1.0  5  0 285228821
lsq: nits= 2
$GNGGA,071346.000,3112.6984,N,12136.4662,E,1,05,2.5,150.2,M,,,,0000*11
$GNRMC,071346.000,A,3112.6984,N,12136.4662,E,0.50,0.00,220519,,*11
$GPGSA,A,3,,,,,,,,,,,,,3.5,2.5,2.4*35
$BDGSA,A,3,10,13,27,29,30,,,,,,,,3.5,2.5,2.4*2A
$BDGSV,2,1,05,10,00,000,37,13,00,000,36,27,00,000,38,29,00,000,43*6E
$BDGSV,2,2,05,30,00,000,42*58
$LOGTIM,2,0.000000,-50.505418,0.000000,0.000000,-60.956*0C
EndT:        2
---00000067--- Acq_st=3 2019-5-22 07:13:46 
[16]  B10 1f 37   -293.2 4092000.7  1.0  1.0  5  0 285229879
[17]  B13 1f 36   -519.2 4092001.2  1.0  0.9  5  0 285229874
[18]  B27 1f 38   1782.6 4091995.3  1.0  1.0  5  0 285229912
[19]  B29 1f 43  -1280.5 4092003.4  1.0  1.0  5  0 285229923
[20]  B30 1f 42    696.5 4091998.2  1.0  1.0  5  0 285229924
lsq: nits= 2
$GNGGA,071347.000,3112.7412,N,12136.4016,E,1,05,2.5,66.9,M,,,,0000*29
$GNRMC,071347.000,A,3112.7412,N,12136.4016,E,0.22,0.00,220519,,*13
$GPGSA,A,3,,,,,,,,,,,,,3.5,2.5,2.4*35
$BDGSA,A,3,10,13,27,29,30,,,,,,,,3.5,2.5,2.4*2A
$BDGSV,2,1,06,10,74,273,37,13,47,250,36,27,08,070,38,29,46,301,43*63
$BDGSV,2,2,06,30,51,034,42,03,52,201,00*6F
$LOGTIM,2,0.000000,-138.358081,0.000000,0.000000,-61.348*3D
EndT:        2
---00000068--- Acq_st=3 2019-5-22 07:13:47 
[16]  B10 1f 36   -297.0 4092000.8  1.0  1.0  5  0 285230879
[17]  B13 1f 36   -521.1 4092001.3  1.0  1.0  5  0 285230874
[18]  B27 1f 37   1779.4 4091995.3  1.0  1.0  5  0 285230912
[19]  B29 1f 43  -1283.6 4092003.3  1.0  1.0  5  0 285230923
[20]  B30 1f 43    693.6 4091998.1  1.0  1.0  5  0 285230924
lsq: nits= 2
$GNGGA,071348.000,3112.7313,N,12136.3651,E,1,05,2.5,-73.0,M,,,,0000*02
$GNRMC,071348.000,A,3112.7313,N,12136.3651,E,0.25,0.00,220519,,*1F
$GPGSA,A,3,,,,,,,,,,,,,3.5,2.5,2.4*35
$BDGSA,A,3,10,13,27,29,30,,,,,,,,3.5,2.5,2.4*2A
$BDGSV,2,1,06,10,74,273,36,13,47,250,36,27,08,070,37,29,46,301,43*6D
$BDGSV,2,2,06,30,51,034,43,03,52,201,00*6E
$LOGTIM,2,0.000000,-295.412680,0.000000,0.000000,-61.811*30
EndT:        2
---00000069--- Acq_st=3 2019-5-22 07:13:48 
[16]  B10 1f 36   -295.9 4092000.8  1.0  0.9  5  0 285231879
[17]  B13 1f 36   -520.9 4092001.5  1.0  1.0  5  0 285231874
[18]  B27 1f 37   1779.6 4091995.3  1.0  1.0  5  0 285231912
[19]  B29 1f 43  -1282.9 4092003.3  1.0  1.0  5  0 285231923
[20]  B30 1f 43    694.5 4091998.2  1.0  1.0  5  0 285231924
lsq: nits= 2
$GNGGA,071349.000,3112.7718,N,12136.3758,E,1,05,2.5,-37.8,M,,,,0000*0C
$GNRMC,071349.000,A,3112.7718,N,12136.3758,E,0.13,0.00,220519,,*1C
$GPGSA,A,3,,,,,,,,,,,,,3.5,2.5,2.4*35
$BDGSA,A,3,10,13,27,29,30,,,,,,,,3.5,2.5,2.4*2A
$BDGSV,2,1,06,10,74,273,36,13,47,250,36,27,08,070,37,29,46,301,43*6D
$BDGSV,2,2,06,30,51,034,43,03,52,201,00*6E
$LOGTIM,2,0.000000,-304.998900,0.000000,0.000000,-61.865*32
EndT:        2
---00000070--- Acq_st=3 2019-5-22 07:13:49 
[16]  B10 1f 36   -302.7 4092000.8  1.0  1.0  5  0 285232879
[17]  B13 1f 36   -527.6 4092001.4  1.0  1.0  5  0 285232874
[18]  B27 1f 37   1773.2 4091995.4  1.0  1.0  5  0 285232912
[19]  B29 1f 43  -1289.5 4092003.4  1.0  1.0  5  0 285232923
[20]  B30 1f 43    687.5 4091998.2  1.0  1.0  5  0 285232924
lsq: nits= 2
$GNGGA,071350.000,3112.7117,N,12136.4573,E,1,04,2.9,146.0,M,,,,0000*1E
$GNRMC,071350.000,A,3112.7117,N,12136.4573,E,1.15,0.00,220519,,*16
$GPGSA,A,3,,,,,,,,,,,,,4.3,2.9,3.2*3F
$BDGSA,A,3,10,13,27,29,,,,,,,,,4.3,2.9,3.2*23
$BDGSV,2,1,06,10,74,273,36,13,47,250,36,27,08,070,37,29,46,301,43*6D
$BDGSV,2,2,06,30,51,034,43,03,52,201,00*6E
$LOGTIM,2,0.000000,-282.314659,0.000000,0.000000,-62.111*39
EndT:        2
---00000071--- Acq_st=3 2019-5-22 07:13:50 
[16]  B10 1f 36   -302.2 4092000.8  1.0  1.0  5  0 285233879
[17]  B13 1f 35   -526.8 4092001.5  1.0  1.0  5  0 285233874
[18]  B27 1f 37   1773.7 4091995.4  1.0  1.0  5  0 285233912
[19]  B29 1f 43  -1288.8 4092003.4  1.0  1.0  5  0 285233923
[20]  B30 1f 43    688.1 4091998.2  1.0  1.0  5  0 285233924
lsq: nits= 2
$GNGGA,071351.000,3112.7147,N,12136.4555,E,1,04,2.9,141.5,M,,,,0000*1C
$GNRMC,071351.000,A,3112.7147,N,12136.4555,E,1.21,0.00,220519,,*11
$GPGSA,A,3,,,,,,,,,,,,,4.3,2.9,3.2*3F
$BDGSA,A,3,10,13,27,29,,,,,,,,,4.3,2.9,3.2*23
$BDGSV,2,1,06,10,74,273,36,13,47,250,35,27,08,070,37,29,46,301,43*6E
$BDGSV,2,2,06,30,51,034,43,03,52,201,00*6E
$LOGTIM,2,0.000000,-344.056898,0.000000,0.000000,-62.226*33
EndT:        2
---00000072--- Acq_st=3 2019-5-22 07:13:51 
[16]  B10 1f 37   -299.1 4092000.7  1.0  1.0  5  0 285234879
[17]  B13 1f 35   -523.8 4092001.3  1.0  1.0  5  0 285234874
[18]  B27 1f 37   1777.1 4091995.4  1.0  1.0  5  0 285234912
[19]  B29 1f 43  -1285.7 4092003.4  1.0  1.0  5  0 285234923
[20]  B30 1f 43    691.3 4091998.2  1.0  1.0  5  0 285234924
lsq: nits= 2
$GNGGA,071352.000,3112.7173,N,12136.4536,E,1,04,2.9,136.6,M,,,,0000*1E
$GNRMC,071352.000,A,3112.7173,N,12136.4536,E,1.19,0.00,220519,,*1B
$GPGSA,A,3,,,,,,,,,,,,,4.3,2.9,3.2*3F
$BDGSA,A,3,10,13,27,29,,,,,,,,,4.3,2.9,3.2*23
$BDGSV,2,1,07,10,74,273,37,13,47,250,35,27,08,070,37,29,46,301,43*6E
$BDGSV,2,2,07,30,51,034,43,03,52,201,00,04,35,122,00*5C
$LOGTIM,2,0.000000,-406.340881,0.000000,0.000000,-62.081*31
EndT:        2
---00000073--- Acq_st=3 2019-5-22 07:13:52 
[16]  B10 1f 37   -300.2 4092000.8  1.0  1.0  5  0 285235879
[17]  B13 1f 36   -524.6 4092001.4  1.0  1.0  5  0 285235874
[18]  B27 1f 37   1775.3 4091995.4  1.0  1.0  5  0 285235912
[19]  B29 1f 43  -1287.5 4092003.3  1.0  1.0  5  0 285235923
[20]  B30 1f 43    689.6 4091998.2  1.0  1.0  5  0 285235924
lsq: nits= 2
$GNGGA,071353.000,3112.7169,N,12136.4603,E,1,05,2.5,157.1,M,,,,0000*1C
$GNRMC,071353.000,A,3112.7169,N,12136.4603,E,0.78,0.00,220519,,*12
$GPGSA,A,3,,,,,,,,,,,,,3.5,2.5,2.4*35
$BDGSA,A,3,10,13,27,29,30,,,,,,,,3.5,2.5,2.4*2A
$BDGSV,2,1,07,10,74,273,37,13,47,250,36,27,08,070,37,29,46,301,43*6D
$BDGSV,2,2,07,30,51,034,43,03,52,201,00,04,35,122,00*5C
$LOGTIM,2,0.000000,-462.200981,0.000000,0.000000,-62.052*39
EndT:        2
---00000074--- Acq_st=3 2019-5-22 07:13:53 
[16]  B10 1f 36   -303.5 4092000.8  1.0  1.0  5  0 285236879
[17]  B13 1f 35   -527.9 4092001.4  1.0  1.0  5  0 285236874
[18]  B27 1f 37   1772.1 4091995.3  1.0  0.9  5  0 285236912
[19]  B29 1f 43  -1289.9 4092003.4  1.0  1.0  5  0 285236923
[20]  B30 1f 42    686.6 4091998.2  1.0  1.0  5  0 285236924
lsq: nits= 2
$GNGGA,071354.000,3112.7193,N,12136.4596,E,1,04,2.9,154.6,M,,,,0000*18
$GNRMC,071354.000,A,3112.7193,N,12136.4596,E,1.05,0.00,220519,,*14
$GPGSA,A,3,,,,,,,,,,,,,4.3,2.9,3.2*3F
$BDGSA,A,3,10,13,27,29,,,,,,,,,4.3,2.9,3.2*23
$BDGSV,2,1,07,10,74,273,36,13,47,250,35,27,08,070,37,29,46,301,43*6F
$BDGSV,2,2,07,30,51,034,42,03,52,201,00,04,35,122,00*5D
$LOGTIM,2,0.000000,-523.969577,0.000000,0.000000,-62.327*3D
EndT:        2
---00000075--- Acq_st=7 2019-5-22 07:13:54 
[16]  B10 1f 37   -304.2 4092000.7  1.0  1.0  5  0 285237879
[17]  B13 1f 36   -529.3 4092001.3  1.0  1.0  5  0 285237874
[18]  B27 1f 37   1770.7 4091995.3  1.0  1.0  5  0 285237912
[19]  B29 1f 43  -1291.3 4092003.4  1.0  1.0  5  0 285237923
[20]  B30 1f 43    685.7 4091998.2  1.0  1.0  5  0 285237924
lsq: nits= 2
$GNGGA,071355.000,3112.7209,N,12136.4605,E,1,04,2.9,143.8,M,,,,0000*18
$GNRMC,071355.000,A,3112.7209,N,12136.4605,E,1.07,0.00,220519,,*1E
$GPGSA,A,3,,,,,,,,,,,,,4.3,2.9,3.2*3F
$BDGSA,A,3,10,13,27,29,,,,,,,,,4.3,2.9,3.2*23
$BDGSV,2,1,07,10,74,273,37,13,47,250,36,27,08,070,37,29,46,301,43*6D
$BDGSV,2,2,07,30,51,034,43,03,52,201,00,04,35,122,00*5C
$LOGTIM,2,0.000000,-594.325148,0.000000,0.000000,-62.925*33
EndT:        1
---00000076--- Acq_st=7 2019-5-22 07:13:55 
[16]  B10 1f 36   -301.1 4092000.8  1.0  1.0  5  0 285238879
[17]  B13 1f 36   -525.7 4092001.3  1.0  1.0  5  0 285238874
[18]  B27 1f 37   1774.1 4091995.4  1.0  1.0  5  0 285238912
[19]  B29 1f 43  -1288.2 4092003.4  1.0  1.0  5  0 285238923
[20]  B30 1f 43    688.6 4091998.2  1.0  1.0  5  0 285238924
lsq: nits= 2
$GNGGA,071356.000,3112.7222,N,12136.4589,E,1,04,2.9,142.9,M,,,,0000*15
$GNRMC,071356.000,A,3112.7222,N,12136.4589,E,0.86,0.00,220519,,*1B
$GPGSA,A,3,,,,,,,,,,,,,4.3,2.9,3.2*3F
$BDGSA,A,3,10,13,27,29,,,,,,,,,4.3,2.9,3.2*23
$BDGSV,2,1,07,10,74,273,36,13,47,250,36,27,08,070,37,29,46,301,43*6C
$BDGSV,2,2,07,30,51,034,43,03,52,201,00,04,35,122,00*5C
$LOGTIM,2,0.000000,-656.193889,0.000000,0.000000,-62.668*33
EndT:        1
---00000077--- Acq_st=3 2019-5-22 07:13:56 
[16]  B10 1f 36   -296.1 4092000.8  1.0  1.0  5  0 285239879
[17]  B13 1f 35   -521.6 4092001.3  1.0  1.0  5  0 285239874
[18]  B27 1f 37   1777.8 4091995.4  1.0  1.0  5  0 285239912
[19]  B29 1f 43  -1283.9 4092003.4  1.0  1.0  5  0 285239923
[20]  B30 1f 43    692.9 4091998.2  1.0  1.0  5  0 285239924
lsq: nits= 2
$GNGGA,071357.000,3112.7236,N,12136.4595,E,1,04,2.9,135.2,M,,,,0000*17
$GNRMC,071357.000,A,3112.7236,N,12136.4595,E,0.40,0.00,220519,,*18
$GPGSA,A,3,,,,,,,,,,,,,4.3,2.9,3.2*3F
$BDGSA,A,3,10,13,27,29,,,,,,,,,4.3,2.9,3.2*23
$BDGSV,2,1,07,10,74,273,36,13,47,250,35,27,08,070,37,29,46,301,43*6F
$BDGSV,2,2,07,30,51,034,43,03,52,201,00,04,35,122,00*5C
$LOGTIM,2,0.000000,-724.454394,0.000000,0.000000,-62.394*38
EndT:        1
---00000078--- Acq_st=3 2019-5-22 07:13:57 
[16]  B10 1f 37   -290.6 4092000.8  1.0  1.0  5  0 285240879
[17]  B13 1f 35   -515.2 4092001.4  1.0  1.0  5  0 285240874
[18]  B27 1f 37   1784.4 4091995.3  1.0  1.0  5  0 285240912
[19]  B29 1f 43  -1277.4 4092003.3  1.0  1.0  5  0 285240923
[20]  B30 1f 43    699.1 4091998.1  1.0  1.0  5  0 285240924
lsq: nits= 2
$GNGGA,071358.000,3112.7169,N,12136.4586,E,1,04,2.9,143.6,M,,,,0000*16
$GNRMC,071358.000,A,3112.7169,N,12136.4586,E,1.24,0.00,220519,,*1F
$GPGSA,A,3,,,,,,,,,,,,,4.3,2.9,3.2*3F
$BDGSA,A,3,10,13,27,29,,,,,,,,,4.3,2.9,3.2*23
$BDGSV,2,1,07,10,74,273,36,13,47,250,35,27,08,070,37,29,46,301,43*6F
$BDGSV,2,2,07,30,51,034,43,03,52,201,00,04,35,122,00*5C
$LOGTIM,2,0.000000,-785.352995,0.000000,0.000000,-61.601*33
EndT:        1
---00000079--- Acq_st=3 2019-5-22 07:13:58 
[16]  B10 1f 36   -287.5 4092000.8  1.0  0.9  5  0 285241879
[17]  B13 1f 35   -513.5 4092001.4  1.0  1.0  5  0 285241874
[18]  B27 1f 36   1786.5 4091995.3  1.0  1.0  5  0 285241912
[19]  B29 1f 43  -1274.7 4092003.3  1.0  1.0  5  0 285241923
[20]  B30 1f 43    702.1 4091998.1  1.0  1.0  5  0 285241924
lsq: nits= 2
$GNGGA,071359.000,3112.7183,N,12136.4595,E,1,04,2.9,135.9,M,,,,0000*1F
$GNRMC,071359.000,A,3112.7183,N,12136.4595,E,1.11,0.00,220519,,*1E
$GPGSA,A,3,,,,,,,,,,,,,4.3,2.9,3.2*3F
$BDGSA,A,3,10,13,27,29,,,,,,,,,4.3,2.9,3.2*23
$BDGSV,2,1,07,10,74,273,36,13,47,250,35,27,08,070,36,29,46,301,43*6E
$BDGSV,2,2,07,30,51,034,43,03,52,201,00,04,35,122,00*5C
$LOGTIM,2,0.000000,-850.862434,0.000000,0.000000,-61.387*31
EndT:        1
---00000080--- Acq_st=3 2019-5-22 07:13:59 
[16]  B10 1f 36   -292.8 4092000.7  1.0  1.0  5  0 285242879
[17]  B13 1f 35   -517.9 4092001.4  1.0  0.9  5  0 285242874
[18]  B27 1f 36   1780.8 4091995.3  1.0  0.9  5  0 285242912
[19]  B29 1f 43  -1279.8 4092003.4  1.0  1.0  5  0 285242923
[20]  B30 1f 43    696.6 4091998.1  1.0  1.0  5  0 285242924
lsq: nits= 2
$GNGGA,071400.000,3112.7216,N,12136.4616,E,1,05,2.5,142.3,M,,,,0000*14
$GNRMC,071400.000,A,3112.7216,N,12136.4616,E,0.16,0.00,220519,,*14
$GPGSA,A,3,,,,,,,,,,,,,3.5,2.5,2.4*35
$BDGSA,A,3,10,13,27,29,30,,,,,,,,3.5,2.5,2.4*2A
$BDGSV,2,1,07,10,74,273,36,13,47,250,35,27,08,070,36,29,46,301,43*6E
$BDGSV,2,2,07,30,51,034,43,03,52,201,00,04,35,122,00*5C
$LOGTIM,2,0.000000,-907.173338,0.000000,0.000000,-61.484*34
EndT:        2
---00000081--- Acq_st=5 2019-5-22 07:14:0 
[00]  G18  1  7   2996.3 2045997.0 -0.0  0.0  1  0         5
[16]  B10 1f 36   -296.6 4092000.8  1.0  1.0  5  0 285243879
[17]  B13 1f 35   -520.8 4092001.3  1.0  1.0  5  0 285243874
[18]  B27 1f 37   1778.7 4091995.3  1.0  0.9  5  0 285243912
[19]  B29 1f 43  -1283.0 4092003.3  1.0  1.0  5  0 285243923
[20]  B30 1f 43    693.8 4091998.1  1.0  1.0  5  0 285243924
lsq: nits= 2
$GNGGA,071401.000,3112.7222,N,12136.4626,E,1,04,2.9,134.4,M,,,,0000*1A
$GNRMC,071401.000,A,3112.7222,N,12136.4626,E,0.16,0.00,220519,,*11
$GPGSA,A,3,,,,,,,,,,,,,4.3,2.9,3.2*3F
$BDGSA,A,3,10,13,27,29,,,,,,,,,4.3,2.9,3.2*23
$BDGSV,2,1,07,10,74,273,36,13,47,250,35,27,08,070,37,29,46,301,43*6F
$BDGSV,2,2,07,30,51,034,43,03,52,201,00,04,35,122,00*5C
$LOGTIM,2,0.000000,-973.901042,0.000000,0.000000,-62.086*31
EndT:        1
---00000082--- Acq_st=3 2019-5-22 07:14:1 
[00]  G18  1  7   3026.3 2045997.0  0.2  0.0  1  0         4
[01]  G19  1  7  -2953.7 2046002.8 -0.1  0.0  1  0         2
[16]  B10 1f 36   -296.0 4092000.8  1.0  1.0  5  0 285244879
[17]  B13 1f 35   -519.9 4092001.4  1.0  0.9  5  0 285244874
[18]  B27 1f 37   1778.5 4091995.4  1.0  1.0  5  0 285244912
[19]  B29 1f 43  -1282.6 4092003.4  1.0  1.0  5  0 285244923
[20]  B30 1f 43    694.0 4091998.2  1.0  1.0  5  0 285244924
lsq: nits= 2
$GNGGA,071402.000,3112.7230,N,12136.4613,E,1,04,2.9,135.2,M,,,,0000*1B
$GNRMC,071402.000,A,3112.7230,N,12136.4613,E,0.49,0.00,220519,,*1D
$GPGSA,A,3,,,,,,,,,,,,,4.3,2.9,3.2*3F
$BDGSA,A,3,10,13,27,29,,,,,,,,,4.3,2.9,3.2*23
$BDGSV,2,1,07,10,74,273,36,13,47,250,35,27,08,070,37,29,46,301,43*6F
$BDGSV,2,2,07,30,51,034,43,03,52,201,00,04,35,122,00*5C
$LOGTIM,2,0.000000,-1032.979793,0.000000,0.000000,-61.974*0F
EndT:        1
---00000083--- Acq_st=3 2019-5-22 07:14:2 
[00]  G18  1 10   3079.1 2045997.3 -0.1  0.0  1  0         4
[01]  G19  1  8  -2851.8 2046003.1  0.1  0.0  1  0         2
[16]  B10 1f 36   -295.7 4092000.7  1.0  1.0  5  0 285245879
[17]  B13 1f 35   -520.4 4092001.4  1.0  1.0  5  0 285245874
[18]  B27 1f 38   1778.4 4091995.3  1.0  0.9  5  0 285245912
[19]  B29 1f 44  -1282.4 4092003.3  1.0  1.0  5  0 285245923
[20]  B30 1f 43    694.1 4091998.2  1.0  1.0  5  0 285245924
lsq: nits= 2
$GNGGA,071403.000,3112.7142,N,12136.3804,E,1,05,2.5,-142.8,M,,,,0000*39
$GNRMC,071403.000,A,3112.7142,N,12136.3804,E,0.09,0.00,220519,,*11
$GPGSA,A,3,,,,,,,,,,,,,3.5,2.5,2.4*35
$BDGSA,A,3,10,13,27,29,30,,,,,,,,3.5,2.5,2.4*2A
$BDGSV,2,1,07,10,74,273,36,13,47,250,35,27,08,070,38,29,46,301,44*67
$BDGSV,2,2,07,30,51,034,43,03,52,201,00,04,35,122,00*5C
$LOGTIM,2,0.000000,-1298.899896,0.000000,0.000000,-61.707*02
EndT:        1
---00000084--- Acq_st=3 2019-5-22 07:14:3 
[00]  G18  1  7   2887.5 2045997.0 -0.1  0.0  1  0         4
[01]  G19  1 11  -2865.2 2046003.1 -0.1  0.0  1  0         2
[16]  B10 1f 36   -293.9 4092000.8  1.0  1.0  5  0 285246879
[17]  B13 1f 35   -519.1 4092001.4  1.0  1.1  5  0 285246874
[18]  B27 1f 38   1779.4 4091995.4  1.0  1.0  5  0 285246912
[19]  B29 1f 44  -1281.6 4092003.4  1.0  1.0  5  0 285246923
[20]  B30 1f 43    695.1 4091998.2  1.0  1.0  5  0 285246924
lsq: nits= 2
$GNGGA,071404.000,3112.7650,N,12136.3790,E,1,05,2.5,-30.3,M,,,,0000*07
$GNRMC,071404.000,A,3112.7650,N,12136.3790,E,0.42,0.00,220519,,*1F
$GPGSA,A,3,,,,,,,,,,,,,3.5,2.5,2.4*35
$BDGSA,A,3,10,13,27,29,30,,,,,,,,3.5,2.5,2.4*2A
$BDGSV,2,1,07,10,74,273,36,13,47,250,35,27,08,070,38,29,46,301,44*67
$BDGSV,2,2,07,30,51,034,43,03,52,201,00,04,35,122,00*5C
$LOGTIM,2,0.000000,-1237.330801,0.000000,0.000000,-61.409*0C
EndT:        1
---00000085--- Acq_st=3 2019-5-22 07:14:4 
[16]  B10 1f 36   -290.6 4092000.8  1.0  1.0  5  0 285247879
[17]  B13 1f 34   -516.4 4092001.3  1.0  1.0  5  0 285247874
[18]  B27 1f 38   1782.8 4091995.3  1.0  1.0  5  0 285247912
[19]  B29 1f 44  -1278.0 4092003.3  1.0  1.0  5  0 285247923
[20]  B30 1f 43    698.7 4091998.2  1.0  1.0  5  0 285247924
lsq: nits= 2
$GNGGA,071405.000,3112.7199,N,12136.4621,E,1,04,2.9,124.0,M,,,,0000*1F
$GNRMC,071405.000,A,3112.7199,N,12136.4621,E,0.52,0.00,220519,,*11
$GPGSA,A,3,,,,,,,,,,,,,4.3,2.9,3.2*3F
$BDGSA,A,3,10,13,27,29,,,,,,,,,4.3,2.9,3.2*23
$BDGSV,2,1,07,10,74,273,36,13,47,250,34,27,08,070,38,29,46,301,44*66
$BDGSV,2,2,07,30,51,034,43,03,52,201,00,04,35,122,00*5C
$LOGTIM,2,0.000000,-1226.387484,0.000000,0.000000,-61.813*06
EndT:        1
---00000086--- Acq_st=3 2019-5-22 07:14:5 
[16]  B10 1f 36   -288.8 4092000.7  1.0  1.0  5  0 285248879
[17]  B13 1f 35   -513.5 4092001.3  1.0  1.0  5  0 285248874
[18]  B27 1f 38   1784.8 4091995.3  1.0  1.0  5  0 285248912
[19]  B29 1f 44  -1276.1 4092003.3  1.0  1.0  5  0 285248923
[20]  B30 1f 43    700.6 4091998.2  1.0  1.0  5  0 285248924
lsq: nits= 2
$GNGGA,071406.000,3112.7214,N,12136.4641,E,1,05,2.5,133.4,M,,,,0000*13
$GNRMC,071406.000,A,3112.7214,N,12136.4641,E,0.44,0.00,220519,,*15
$GPGSA,A,3,,,,,,,,,,,,,3.5,2.5,2.4*35
$BDGSA,A,3,10,13,27,29,30,,,,,,,,3.5,2.5,2.4*2A
$BDGSV,2,1,07,10,74,273,36,13,47,250,35,27,08,070,38,29,46,301,44*67
$BDGSV,2,2,07,30,51,034,43,03,52,201,00,04,35,122,00*5C
$LOGTIM,2,0.000000,-1280.766454,0.000000,0.000000,-61.190*0E
EndT:        2
---00000087--- Acq_st=3 2019-5-22 07:14:6 
[16]  B10 1f 36   -293.3 4092000.8  1.0  1.0  5  0 285249879
[17]  B13 1f 35   -518.2 4092001.3  1.0  0.9  5  0 285249874
[18]  B27 1f 38   1780.4 4091995.3  1.0  1.0  5  0 285249912
[19]  B29 1f 44  -1279.8 4092003.3  1.0  1.0  5  0 285249923
[20]  B30 1f 43    696.3 4091998.2  1.0  1.0  5  0 285249924
lsq: nits= 2
$GNGGA,071407.000,3112.7213,N,12136.4664,E,1,05,2.5,129.9,M,,,,0000*14
$GNRMC,071407.000,A,3112.7213,N,12136.4664,E,0.31,0.00,220519,,*16
$GPGSA,A,3,,,,,,,,,,,,,3.5,2.5,2.4*35
$BDGSA,A,3,10,13,27,29,30,,,,,,,,3.5,2.5,2.4*2A
$BDGSV,2,1,07,10,74,273,36,13,47,250,35,27,08,070,38,29,46,301,44*67
$BDGSV,2,2,07,30,51,034,43,03,52,201,00,04,35,122,00*5C
$LOGTIM,2,0.000000,-1345.261787,0.000000,0.000000,-61.651*03
EndT:        2
---00000088--- Acq_st=3 2019-5-22 07:14:7 
[16]  B10 1f 35   -296.1 4092000.7  1.0  1.0  5  0 285250879
[17]  B13 1f 35   -520.9 4092001.4  1.0  0.9  5  0 285250874
[18]  B27 1f 38   1776.9 4091995.4  1.0  1.0  5  0 285250912
[19]  B29 1f 44  -1283.0 4092003.3  1.0  1.0  5  0 285250923
[20]  B30 1f 43    693.3 4091998.2  1.0  1.0  5  0 285250924
lsq: nits= 2
$GNGGA,071408.000,3112.7175,N,12136.4663,E,1,04,2.9,139.6,M,,,,0000*1C
$GNRMC,071408.000,A,3112.7175,N,12136.4663,E,0.61,0.00,220519,,*18
$GPGSA,A,3,,,,,,,,,,,,,4.3,2.9,3.2*3F
$BDGSA,A,3,10,13,27,29,,,,,,,,,4.3,2.9,3.2*23
$BDGSV,2,1,07,10,74,273,35,13,47,250,35,27,08,070,38,29,46,301,44*64
$BDGSV,2,2,07,30,51,034,43,03,52,201,00,04,35,122,00*5C
$LOGTIM,2,0.000000,-1402.361342,0.000000,0.000000,-61.712*0D
EndT:        1
---00000089--- Acq_st=3 2019-5-22 07:14:8 
[16]  B10 1f 36   -292.3 4092000.7  1.0  1.0  5  0 285251879
[17]  B13 1f 34   -517.4 4092001.4  1.0  0.9  5  0 285251874
[18]  B27 1f 38   1779.8 4091995.4  1.0  1.0  5  0 285251912
[19]  B29 1f 44  -1279.5 4092003.3  1.0  1.0  5  0 285251923
[20]  B30 1f 43    696.6 4091998.1  1.0  1.0  5  0 285251924
lsq: nits= 2
$GNGGA,071409.000,3112.7139,N,12136.4684,E,1,04,2.9,140.8,M,,,,0000*1C
$GNRMC,071409.000,A,3112.7139,N,12136.4684,E,1.38,0.00,220519,,*15
$GPGSA,A,3,,,,,,,,,,,,,4.3,2.9,3.2*3F
$BDGSA,A,3,10,13,27,29,,,,,,,,,4.3,2.9,3.2*23
$BDGSV,2,1,07,10,74,273,36,13,47,250,34,27,08,070,38,29,46,301,44*66
$BDGSV,2,2,07,30,51,034,43,03,52,201,00,04,35,122,00*5C
$LOGTIM,2,0.000000,-1466.982276,0.000000,0.000000,-61.712*0E
EndT:        1
---00000090--- Acq_st=3 2019-5-22 07:14:9 
[16]  B10 1f 36   -292.8 4092000.8  1.0  0.9  5  0 285252879
[17]  B13 1f 34   -519.0 4092001.3  1.0  1.0  5  0 285252874
[18]  B27 1f 37   1779.0 4091995.3  1.0  1.0  5  0 285252912
[19]  B29 1f 45  -1280.8 4092003.3  1.0  1.0  5  0 285252923
[20]  B30 1f 42    695.7 4091998.2  1.0  1.0  5  0 285252924
lsq: nits= 2
$GNGGA,071410.000,3112.7138,N,12136.4673,E,1,04,2.9,142.1,M,,,,0000*16
$GNRMC,071410.000,A,3112.7138,N,12136.4673,E,0.90,0.00,220519,,*17
$GPGSA,A,3,,,,,,,,,,,,,4.3,2.9,3.2*3F
$BDGSA,A,3,10,13,27,29,,,,,,,,,4.3,2.9,3.2*23
$BDGSV,2,1,07,10,74,273,36,13,47,250,34,27,08,070,37,29,46,301,45*68
$BDGSV,2,2,07,30,51,034,42,03,52,201,00,04,35,122,00*5D
$LOGTIM,2,0.000000,-1525.862297,0.000000,0.000000,-61.628*00
EndT:        1
---00000091--- Acq_st=3 2019-5-22 07:14:10 
[16]  B10 1f 36   -292.8 4092000.8  1.0  0.9  5  0 285253879
[17]  B13 1f 34   -517.3 4092001.3  1.0  1.0  5  0 285253874
[18]  B27 1f 37   1779.8 4091995.3  1.0  1.0  5  0 285253912
[19]  B29 1f 45  -1279.6 4092003.3  1.0  1.0  5  0 285253923
