FlashID=0x1 0x20 0x18
BBram_blkflag1:  51b: fae4
FW Ver: 1.30  
GPS00 Init Dop:   5000, 40
GPS01 Init Dop:   5000, 40
GPS02 Init Dop:   5000, 40
GPS03 Init Dop:   5000, 40
GPS04 Init Dop:   5000, 40
GPS05 Init Dop:   5000, 40
GPS06 Init Dop:   5000, 40
GPS07 Init Dop:   5000, 40
GPS08 Init Dop:   5000, 40
GPS09 Init Dop:   5000, 40
GPS10 Init Dop:   5000, 40
GPS11 Init Dop:   5000, 40
GPS12 Init Dop:   5000, 40
GPS13 Init Dop:   5000, 40
GPS14 Init Dop:   5000, 40
GPS15 Init Dop:   5000, 40
GPS16 Init Dop:   5000, 40
GPS17 Init Dop:   5000, 40
GPS18 Init Dop:   5000, 40
GPS19 Init Dop:   5000, 40
GPS20 Init Dop:   5000, 40
GPS21 Init Dop:   5000, 40
GPS22 Init Dop:   5000, 40
GPS23 Init Dop:   5000, 40
GPS24 Init Dop:   5000, 40
GPS25 Init Dop:   5000, 40
GPS26 Init Dop:   5000, 40
GPS27 Init Dop:   5000, 40
GPS28 Init Dop:   5000, 40
GPS29 Init Dop:   5000, 40
GPS30 Init Dop:   5000, 40
GPS31 Init Dop:   5000, 40
BDS00 Init Dop:   5000, 40
BDS01 Init Dop:   5000, 40
BDS02 Init Dop:   5000, 40
BDS03 Init Dop:   5000, 40
BDS04 Init Dop:   5000, 40
BDS05 Init Dop:   5000, 40
BDS06 Init Dop:   5000, 40
BDS07 Init Dop:   5000, 40
BDS08 Init Dop:   5000, 40
BDS09 Init Dop:   5000, 40
BDS10 Init Dop:   5000, 40
BDS11 Init Dop:   5000, 40
BDS12 Init Dop:   5000, 40
BDS13 Init Dop:   5000, 40
BDS14 Init Dop:   5000, 40
BDS15 Init Dop:   5000, 40
BDS16 Init Dop:   5000, 40
BDS17 Init Dop:   5000, 40
BDS18 Init Dop:   5000, 40
BDS19 Init Dop:   5000, 40
BDS20 Init Dop:   5000, 40
BDS21 Init Dop:   5000, 40
BDS22 Init Dop:   5000, 40
BDS23 Init Dop:   5000, 40
BDS24 Init Dop:   5000, 40
BDS25 Init Dop:   5000, 40
BDS26 Init Dop:   5000, 40
BDS27 Init Dop:   5000, 40
BDS28 Init Dop:   5000, 40
BDS29 Init Dop:   5000, 40
BDS30 Init Dop:   5000, 40
BDS31 Init Dop:   5000, 40
good luck!
---00000001--- Acq_st=3 2019-5-22 09:45:51 
[00]  G02  1 21  -1989.5 2046004.4 -0.1  0.0  1  0         0
[01]  G03  1 18   2989.5 2045997.7  0.0  0.0  1  0         0
$GNGGA,000000.000,,,,,0,00,,,M,,,,0000*2B
$GNRMC,000000.000,A,,,,,,,000000,,*26
$GPGSA,A,1,,,,,,,,,,,,,,,*1E
$BDGSA,A,1,,,,,,,,,,,,,,,*0F
$LOGTIM,0,0.000000,0.000000,0.000000,0.000000,0.000*0A
EndT:        0
---00000002--- Acq_st=3 2019-5-22 09:45:52 
[00]  G02  7 18  -1997.6 2046002.5  0.3  0.0 20  0         5
[01]  G03  1 37   2976.1 2045995.8  0.1  0.0  1  0        12
[02]  G06  1 20   -985.0 2046003.4 -0.0  0.0  1  0         0
$GNGGA,000000.000,,,,,0,00,,,M,,,,0000*2B
$GNRMC,000000.000,A,,,,,,,000000,,*26
$GPGSA,A,1,,,,,,,,,,,,,,,*1E
$BDGSA,A,1,,,,,,,,,,,,,,,*0F
$GPGSV,1,1,01,02,00,000,18*43
$LOGTIM,0,0.000000,0.000000,0.000000,0.000000,0.000*0A
EndT:        0
---00000003--- Acq_st=3 2019-5-22 09:45:53 
[00]  G02  7 46  -1998.2 2046002.5  0.9  1.0  5  0        12
[01]  G03  7 35   2975.2 2045996.1  0.9  1.0  5  0        12
[02]  G06  7  7   -973.6 2046001.2  0.2  0.0 10  0        12
$GNGGA,000000.000,,,,,0,00,,,M,,,,0000*2B
$GNRMC,000000.000,A,,,,,,,000000,,*26
$GPGSA,A,1,,,,,,,,,,,,,,,*1E
$BDGSA,A,1,,,,,,,,,,,,,,,*0F
$GPGSV,1,1,02,02,00,000,46,03,00,000,35*7E
$LOGTIM,0,0.000000,0.000000,0.000000,0.000000,0.000*0A
EndT:        0
---00000004--- Acq_st=3 2019-5-22 09:45:54 
[00]  G02  7 47  -2000.9 2046002.6  1.0  1.0  5  0        12
[01]  G03  7 42   2972.7 2045996.1  1.0  1.0  5  0        13
[03]  G12  1 25  -3318.6 2046005.7  0.1  0.0  1  0         0
$GNGGA,000000.000,,,,,0,00,,,M,,,,0000*2B
$GNRMC,000000.000,A,,,,,,,000000,,*26
$GPGSA,A,1,,,,,,,,,,,,,,,*1E
$BDGSA,A,1,,,,,,,,,,,,,,,*0F
$GPGSV,1,1,02,02,00,000,47,03,00,000,42*7F
$LOGTIM,0,0.000000,0.000000,0.000000,0.000000,0.000*0A
EndT:        0
---00000005--- Acq_st=3 2019-5-22 09:45:55 
[00]  G02  f 46  -2001.3 2046002.6  1.0  1.0  5  0        12
[01]  G03  f 41   2971.9 2045996.1  1.0  1.0  5  0        13
[02]  G17  1  7   -568.3 2046002.0 -0.0  0.0  1  0         1
[03]  G12  7 27  -3315.0 2046004.2  0.5  0.0 10  0        13
$GNGGA,000000.000,,,,,0,00,,,M,,,,0000*2B
$GNRMC,000000.000,A,,,,,,,000000,,*26
$GPGSA,A,1,,,,,,,,,,,,,,,*1E
$BDGSA,A,1,,,,,,,,,,,,,,,*0F
$GPGSV,1,1,03,02,00,000,46,03,00,000,41,12,00,000,27*4A
$LOGTIM,0,0.000000,0.000000,0.000000,0.000000,0.000*0A
EndT:        0
---00000006--- Acq_st=3 2019-5-22 09:45:56 
[00]  G02  f 46  -1999.5 2046002.6  1.0  1.0  5  0 294373912
[01]  G03  f 42   2974.0 2045996.1  1.0  1.0  5  0 294373913
[02]  G17  7  7   -597.6 2046000.7  0.4  0.0 10  0         7
[03]  G12  7 43  -3313.2 2046004.2  1.0  1.0  5  0        10
[04]  G19  1 26  -1416.8 2046002.3 -0.1  0.0  1  0         0
$GNGGA,000000.000,,,,,0,00,,,M,,,,0000*2B
$GNRMC,000000.000,A,,,,,,,000000,,*26
$GPGSA,A,1,,,,,,,,,,,,,,,*1E
$BDGSA,A,1,,,,,,,,,,,,,,,*0F
$GPGSV,1,1,03,02,00,000,46,03,00,000,42,12,00,000,43*4B
$LOGTIM,0,0.000000,0.000000,0.000000,0.000000,0.000*0A
EndT:        1
---00000007--- Acq_st=3 2019-5-22 09:45:57 
[00]  G02  f 46  -1996.4 2046002.6  1.0  1.0  5  0 294374912
[01]  G03  f 41   2977.0 2045996.1  1.0  1.0  5  0 294374913
[02]  G17  7 44   -595.1 2046000.7  0.9  1.0  5  0         3
[03]  G12  7 43  -3309.8 2046004.3  1.0  1.0  5  0        10
[04]  G19  7 28  -1410.6 2046001.8  0.3  1.0 10  0         0
$GNGGA,000000.000,,,,,0,00,,,M,,,,0000*2B
$GNRMC,000000.000,A,,,,,,,000000,,*26
$GPGSA,A,1,,,,,,,,,,,,,,,*1E
$BDGSA,A,1,,,,,,,,,,,,,,,*0F
$GPGSV,2,1,05,02,00,000,46,03,00,000,41,17,00,000,44,12,00,000,43*7B
$GPGSV,2,2,05,19,00,000,28*4E
$LOGTIM,0,0.000000,0.000000,0.000000,0.000000,0.000*0A
EndT:        0
---00000008--- Acq_st=3 2019-5-22 09:45:58 
[00]  G02  f 46  -1995.5 2046002.6  1.0  1.0  5  0 294375912
[01]  G03  f 42   2978.0 2045996.2  1.0  1.0  5  0 294375913
[02]  G17  7 44   -593.6 2046000.8  1.0  1.0  5  0         3
[03]  G12  7 44  -3308.5 2046004.3  1.0  1.0  5  0        10
[04]  G19  7 42  -1410.0 2046001.8  0.9  1.0  5  0         3
$GNGGA,000000.000,,,,,0,00,,,M,,,,0000*2B
$GNRMC,000000.000,A,,,,,,,000000,,*26
$GPGSA,A,1,,,,,,,,,,,,,,,*1E
$BDGSA,A,1,,,,,,,,,,,,,,,*0F
$GPGSV,2,1,05,02,00,000,46,03,00,000,42,17,00,000,44,12,00,000,44*7F
$GPGSV,2,2,05,19,00,000,42*42
$LOGTIM,0,0.000000,0.000000,0.000000,0.000000,0.000*0A
EndT:        0
---00000009--- Acq_st=3 2019-5-22 09:45:59 
[00]  G02  f 46  -1998.0 2046002.6  1.0  1.0  5  0 294376912
[01]  G03  f 42   2976.1 2045996.1  1.0  1.0  5  0 294376913
[02]  G17  7 44   -595.6 2046000.7  1.0  1.0  5  0         3
[03]  G12  7 44  -3310.6 2046004.3  1.0  1.0  5  0        10
[04]  G19  7 41  -1412.5 2046001.9  1.0  1.0  5  0         3
$GNGGA,000000.000,,,,,0,00,,,M,,,,0000*2B
$GNRMC,000000.000,A,,,,,,,000000,,*26
$GPGSA,A,1,,,,,,,,,,,,,,,*1E
$BDGSA,A,1,,,,,,,,,,,,,,,*0F
$GPGSV,2,1,05,02,00,000,46,03,00,000,42,17,00,000,44,12,00,000,44*7F
$GPGSV,2,2,05,19,00,000,41*41
$LOGTIM,0,0.000000,0.000000,0.000000,0.000000,0.000*0A
EndT:        0
---00000010--- Acq_st=3 2019-5-22 09:46:0 
[00]  G02  f 46  -1994.5 2046002.6  1.0  1.0  5  0 294377912
[01]  G03  f 42   2979.5 2045996.1  1.0  1.0  5  0 294377913
[02]  G17  7 43   -592.3 2046000.8  1.0  1.0  5  0         3
[03]  G12  7 44  -3307.2 2046004.3  1.0  1.0  5  0        10
[04]  G19  7 41  -1408.9 2046001.8  1.0  1.0  5  0         3
$GNGGA,000000.000,,,,,0,00,,,M,,,,0000*2B
$GNRMC,000000.000,A,,,,,,,000000,,*26
$GPGSA,A,1,,,,,,,,,,,,,,,*1E
$BDGSA,A,1,,,,,,,,,,,,,,,*0F
$GPGSV,2,1,05,02,00,000,46,03,00,000,42,17,00,000,43,12,00,000,44*78
$GPGSV,2,2,05,19,00,000,41*41
$LOGTIM,0,0.000000,0.000000,0.000000,0.000000,0.000*0A
EndT:        0
---00000011--- Acq_st=3 2019-5-22 09:46:1 
[00]  G02  f 46  -1994.9 2046002.6  1.0  1.0  5  0 294378912
[01]  G03  f 42   2979.7 2045996.1  1.0  1.0  5  0 294378913
[02]  G17  f 43   -591.9 2046000.7  1.0  1.0  5  0         3
[03]  G12  f 45  -3306.6 2046004.3  1.0  1.0  5  0        10
[04]  G19  f 41  -1408.2 2046001.8  1.0  1.0  5  0         3
$GNGGA,000000.000,,,,,0,00,,,M,,,,0000*2B
$GNRMC,000000.000,A,,,,,,,000000,,*26
$GPGSA,A,1,,,,,,,,,,,,,,,*1E
$BDGSA,A,1,,,,,,,,,,,,,,,*0F
$GPGSV,2,1,05,02,00,000,46,03,00,000,42,17,00,000,43,12,00,000,45*79
$GPGSV,2,2,05,19,00,000,41*41
$LOGTIM,0,0.000000,0.000000,0.000000,0.000000,0.000*0A
EndT:        0
---00000012--- Acq_st=3 2019-5-22 09:46:2 
[00]  G02  f 45  -1998.1 2046002.6  1.0  1.0  5  0 294379912
[01]  G03  f 43   2976.0 2045996.1  1.0  1.0  5  0 294379913
[02]  G17  f 43   -595.7 2046000.8  1.0  1.0  5  0 294379923
[03]  G12  f 45  -3309.9 2046004.3  1.0  1.0  5  0 294379910
[04]  G19  f 42  -1412.1 2046001.9  1.0  1.0  5  0 294379923
[16]  B05  1 10   -285.7 4092000.1 -0.0  0.0  1  0         0
$GNGGA,000000.000,,,,,0,00,,,M,,,,0000*2B
$GNRMC,000000.000,A,,,,,,,000000,,*26
$GPGSA,A,1,,,,,,,,,,,,,,,*1E
$BDGSA,A,1,,,,,,,,,,,,,,,*0F
$GPGSV,2,1,05,02,00,000,45,03,00,000,43,17,00,000,43,12,00,000,45*7B
$GPGSV,2,2,05,19,00,000,42*42
$LOGTIM,0,0.000000,0.000000,0.000000,0.000000,0.000*0A
EndT:        0
---00000013--- Acq_st=3 2019-5-22 09:46:3 
[00]  G02  f 45  -2002.1 2046002.6  1.0  1.0  5  0 294380912
[01]  G03  f 43   2972.7 2045996.2  1.0  1.0  5  0 294380913
[02]  G17  f 43   -598.8 2046000.8  1.0  1.0  5  0 294380923
[03]  G12  f 45  -3313.5 2046004.3  1.0  1.0  5  0 294380910
[04]  G19  f 41  -1414.8 2046001.9  1.0  1.0  5  0 294380923
[16]  B05  1 29   -344.6 4092000.7 -0.5  0.0  1  0       245
$GNGGA,000000.000,,,,,0,00,,,M,,,,0000*2B
$GNRMC,000000.000,A,,,,,,,000000,,*26
$GPGSA,A,1,,,,,,,,,,,,,,,*1E
$BDGSA,A,1,,,,,,,,,,,,,,,*0F
$GPGSV,2,1,05,02,00,000,45,03,00,000,43,17,00,000,43,12,00,000,45*7B
$GPGSV,2,2,05,19,00,000,41*41
$LOGTIM,0,0.000000,0.000000,0.000000,0.000000,0.000*0A
EndT:        0
---00000014--- Acq_st=3 2019-5-22 09:46:4 
[00]  G02  f 46  -1997.9 2046002.6  1.0  1.0  5  0 294381912
[01]  G03  f 42   2976.4 2045996.2  1.0  1.0  5  0 294381913
[02]  G17  f 43   -594.4 2046000.8  1.0  1.0  5  0 294381923
[03]  G12  f 45  -3309.1 2046004.3  1.0  1.0  5  0 294381910
[04]  G19  f 41  -1410.7 2046001.8  1.0  1.0  5  0 294381923
[16]  B05  7 34   -350.9 4092000.9  0.9  0.0  2  0      1245
[17]  B08  1  7   -188.3 4092001.7 -0.0  0.0  1  0         0
$GNGGA,000000.000,,,,,0,00,,,M,,,,0000*2B
$GNRMC,000000.000,A,,,,,,,000000,,*26
$GPGSA,A,1,,,,,,,,,,,,,,,*1E
$BDGSA,A,1,,,,,,,,,,,,,,,*0F
$GPGSV,2,1,05,02,00,000,46,03,00,000,42,17,00,000,43,12,00,000,45*79
$GPGSV,2,2,05,19,00,000,41*41
$BDGSV,1,1,01,05,00,000,34*5B
$LOGTIM,0,0.000000,0.000000,0.000000,0.000000,0.000*0A
EndT:        0
---00000015--- Acq_st=3 2019-5-22 09:46:5 
[00]  G02  f 46  -1995.8 2046002.6  1.0  1.0  5  0 294382912
[01]  G03  f 42   2978.7 2045996.1  1.0  1.0  5  0 294382913
[02]  G17  f 43   -591.9 2046000.8  1.0  1.0  5  0 294382923
[03]  G12  f 45  -3306.5 2046004.3  1.0  1.0  5  0 294382910
[04]  G19  f 41  -1408.5 2046001.8  1.0  1.0  5  0 294382923
[16]  B05 1f 34   -348.6 4092001.0  0.9  0.0  2  0       458
[17]  B08  7 16   -249.0 4092000.6  0.2  0.0 20  0       443
$GNGGA,000000.000,,,,,0,00,,,M,,,,0000*2B
$GNRMC,000000.000,A,,,,,,,000000,,*26
$GPGSA,A,1,,,,,,,,,,,,,,,*1E
$BDGSA,A,1,,,,,,,,,,,,,,,*0F
$GPGSV,2,1,05,02,00,000,46,03,00,000,42,17,00,000,43,12,00,000,45*79
$GPGSV,2,2,05,19,00,000,41*41
$BDGSV,1,1,02,05,00,000,34,08,00,000,16*67
$LOGTIM,0,0.000000,0.000000,0.000000,0.000000,0.000*0A
EndT:        0
---00000016--- Acq_st=3 2019-5-22 09:46:6 
[00]  G02  f 45  -1998.3 2046002.6  1.0  1.0  5  0 294383912
[01]  G03  f 42   2976.3 2045996.1  1.0  1.0  5  0 294383913
[02]  G17  f 43   -594.3 2046000.7  1.0  1.0  5  0 294383923
[03]  G12  f 45  -3308.9 2046004.3  1.0  1.0  5  0 294383910
[04]  G19  f 41  -1410.6 2046001.8  1.0  1.0  5  0 294383923
[16]  B05 1f 33   -350.9 4092000.9  0.9  0.0  2  0 294369858
[17]  B08  7 40   -252.1 4092000.6  0.6  1.0  5  0      1429
$GNGGA,000000.000,,,,,0,00,,,M,,,,0000*2B
$GNRMC,000000.000,A,,,,,,,000000,,*26
$GPGSA,A,1,,,,,,,,,,,,,,,*1E
$BDGSA,A,1,,,,,,,,,,,,,,,*0F
$GPGSV,2,1,05,02,00,000,45,03,00,000,42,17,00,000,43,12,00,000,45*7A
$GPGSV,2,2,05,19,00,000,41*41
$BDGSV,1,1,02,05,00,000,33,08,00,000,40*63
$LOGTIM,0,0.000000,0.000000,0.000000,0.000000,0.000*0A
EndT:        0
---00000017--- Acq_st=3 2019-5-22 09:46:7 
[00]  G02  f 45  -1997.3 2046002.6  1.0  1.0  5  0 294384912
[01]  G03  f 42   2977.7 2045996.1  1.0  1.0  5  0 294384913
[02]  G17  f 42   -592.8 2046000.8  1.0  1.0  5  0 294384923
[03]  G12  f 44  -3307.5 2046004.3  1.0  1.0  5  0 294384910
[04]  G19  f 41  -1409.2 2046001.8  1.0  1.0  5  0 294384923
[16]  B05 1f 34   -350.1 4092000.9  0.9  0.0  2  0 294370858
[17]  B08  7 40   -251.3 4092000.7  1.0  1.0  5  0      2429
[18]  B13  1  7   -331.9 4092001.0  0.1  0.0  1  0         0
$GNGGA,000000.000,,,,,0,00,,,M,,,,0000*2B
$GNRMC,000000.000,A,,,,,,,000000,,*26
$GPGSA,A,1,,,,,,,,,,,,,,,*1E
$BDGSA,A,1,,,,,,,,,,,,,,,*0F
$GPGSV,2,1,05,02,00,000,45,03,00,000,42,17,00,000,42,12,00,000,44*7A
$GPGSV,2,2,05,19,00,000,41*41
$BDGSV,1,1,02,05,00,000,34,08,00,000,40*64
$LOGTIM,0,0.000000,0.000000,0.000000,0.000000,0.000*0A
EndT:        0
---00000018--- Acq_st=3 2019-5-22 09:46:8 
[00]  G02  f 45  -1996.5 2046002.6  1.0  1.0  5  0 294385912
[01]  G03  f 42   2978.5 2045996.2  1.0  1.0  5  0 294385913
[02]  G17  f 42   -591.9 2046000.8  1.0  1.0  5  0 294385923
[03]  G12  f 44  -3306.9 2046004.3  1.0  1.0  5  0 294385910
[04]  G19  f 41  -1408.4 2046001.8  1.0  1.0  5  0 294385923
[16]  B05 1f 34   -350.1 4092000.8  0.9  0.0  2  0 294371858
[17]  B08  7 40   -250.6 4092000.6  1.0  1.0  5  0      3429
[18]  B13  7 14   -336.6 4092000.9  0.3  0.0 20  0       442
$GNGGA,000000.000,,,,,0,00,,,M,,,,0000*2B
$GNRMC,000000.000,A,,,,,,,000000,,*26
$GPGSA,A,1,,,,,,,,,,,,,,,*1E
$BDGSA,A,1,,,,,,,,,,,,,,,*0F
$GPGSV,2,1,05,02,00,000,45,03,00,000,42,17,00,000,42,12,00,000,44*7A
$GPGSV,2,2,05,19,00,000,41*41
$BDGSV,1,1,03,05,00,000,34,08,00,000,40,13,00,000,14*52
$LOGTIM,0,0.000000,0.000000,0.000000,0.000000,0.000*0A
EndT:        0
---00000019--- Acq_st=3 2019-5-22 09:46:9 
[00]  G02  f 45  -1996.7 2046002.6  1.0  1.0  5  0 294386912
[01]  G03  f 42   2978.0 2045996.1  1.0  1.0  5  0 294386913
[02]  G17  f 42   -592.2 2046000.8  1.0  1.0  5  0 294386923
[03]  G12  f 44  -3306.5 2046004.3  1.0  1.0  5  0 294386910
[04]  G19  f 41  -1408.3 2046001.8  1.0  1.0  5  0 294386923
[16]  B05 1f 33   -349.7 4092000.9  0.9  0.0  2  0 294372858
[17]  B08 1f 40   -250.8 4092000.7  1.0  1.0  5  0      4429
[18]  B13  7 42   -337.5 4092000.9  0.9  1.0  5  0      1426
$GNGGA,000000.000,,,,,0,00,,,M,,,,0000*2B
$GNRMC,000000.000,A,,,,,,,000000,,*26
$GPGSA,A,1,,,,,,,,,,,,,,,*1E
$BDGSA,A,1,,,,,,,,,,,,,,,*0F
$GPGSV,2,1,05,02,00,000,45,03,00,000,42,17,00,000,42,12,00,000,44*7A
$GPGSV,2,2,05,19,00,000,41*41
$BDGSV,1,1,03,05,00,000,33,08,00,000,40,13,00,000,42*56
$LOGTIM,0,0.000000,0.000000,0.000000,0.000000,0.000*0A
EndT:        0
---00000020--- Acq_st=3 2019-5-22 09:46:10 
[00]  G02  f 45  -1997.2 2046002.6  1.0  1.0  5  0 294387912
[01]  G03  f 42   2977.5 2045996.1  1.0  1.0  5  0 294387913
[02]  G17  f 41   -592.4 2046000.8  1.0  1.0  5  0 294387923
[03]  G12  f 45  -3306.9 2046004.3  1.0  1.0  5  0 294387910
[04]  G19  f 41  -1409.0 2046001.8  1.0  1.0  5  0 294387923
[16]  B05 1f 34   -350.7 4092001.0  0.9  0.0  2  0 294373858
[17]  B08 1f 40   -252.1 4092000.7  1.0  1.0  5  0 294373869
[18]  B13  7 42   -338.5 4092000.9  1.0  1.0  5  0      2426
$GNGGA,000000.000,,,,,0,00,,,M,,,,0000*2B
$GNRMC,000000.000,A,,,,,,,000000,,*26
$GPGSA,A,1,,,,,,,,,,,,,,,*1E
$BDGSA,A,1,,,,,,,,,,,,,,,*0F
$GPGSV,2,1,05,02,00,000,45,03,00,000,42,17,00,000,41,12,00,000,45*78
$GPGSV,2,2,05,19,00,000,41*41
$BDGSV,1,1,03,05,00,000,34,08,00,000,40,13,00,000,42*51
$LOGTIM,0,0.000000,0.000000,0.000000,0.000000,0.000*0A
EndT:        0
---00000021--- Acq_st=3 2019-5-22 09:46:11 
[00]  G02  f 45  -1999.8 2046002.6  1.0  1.0  5  0 294388912
[01]  G03  f 42   2975.5 2045996.1  1.0  1.0  5  0 294388913
[02]  G17  f 41   -594.1 2046000.8  1.0  1.0  5  0 294388923
[03]  G12  f 45  -3308.7 2046004.3  1.0  1.0  5  0 294388910
[04]  G19  f 42  -1410.4 2046001.8  1.0  1.0  5  0 294388923
[16]  B05 1f 33   -352.6 4092000.9  0.9  0.0  2  0 294374858
[17]  B08 1f 40   -253.7 4092000.6  1.0  1.0  5  0 294374869
[18]  B13  7 41   -340.3 4092000.9  1.0  1.0  5  0      3426
[19]  B20  1  7    764.1 4091998.6 -0.0  0.0  1  0         0
$GNGGA,000000.000,,,,,0,00,,,M,,,,0000*2B
$GNRMC,000000.000,A,,,,,,,000000,,*26
$GPGSA,A,1,,,,,,,,,,,,,,,*1E
$BDGSA,A,1,,,,,,,,,,,,,,,*0F
$GPGSV,2,1,05,02,00,000,45,03,00,000,42,17,00,000,41,12,00,000,45*78
$GPGSV,2,2,05,19,00,000,42*42
$BDGSV,1,1,03,05,00,000,33,08,00,000,40,13,00,000,41*55
$LOGTIM,0,0.000000,0.000000,0.000000,0.000000,0.000*0A
EndT:        0
---00000022--- Acq_st=3 2019-5-22 09:46:12 
[00]  G02  f 45  -1999.0 2046002.6  1.0  1.0  5  0 294389912
[01]  G03  f 42   2976.4 2045996.1  1.0  1.0  5  0 294389913
[02]  G17  f 41   -593.2 2046000.8  1.0  1.0  5  0 294389923
[03]  G12  f 45  -3307.7 2046004.3  1.0  1.0  5  0 294389910
[04]  G19  f 42  -1409.8 2046001.8  1.0  1.0  5  0 294389923
[16]  B05 1f 34   -352.6 4092000.8  0.9  0.0  2  0 294375858
[17]  B08 1f 40   -253.1 4092000.7  1.0  1.0  5  0 294375869
[18]  B13  7 42   -339.7 4092000.9  1.0  1.0  5  0      4426
[19]  B20  1  7    777.5 4091997.3  0.2  0.0  1  0       239
$GNGGA,000000.000,,,,,0,00,,,M,,,,0000*2B
$GNRMC,000000.000,A,,,,,,,000000,,*26
$GPGSA,A,1,,,,,,,,,,,,,,,*1E
$BDGSA,A,1,,,,,,,,,,,,,,,*0F
$GPGSV,2,1,05,02,00,000,45,03,00,000,42,17,00,000,41,12,00,000,45*78
$GPGSV,2,2,05,19,00,000,42*42
$BDGSV,1,1,03,05,00,000,34,08,00,000,40,13,00,000,42*51
$LOGTIM,0,0.000000,0.000000,0.000000,0.000000,0.000*0A
EndT:        0
---00000023--- Acq_st=3 2019-5-22 09:46:13 
[00]  G02  f 44  -1994.2 2046002.6  1.0  1.0  5  0 294390912
[01]  G03  f 42   2981.0 2045996.1  1.0  1.0  5  0 294390913
[02]  G17  f 41   -588.6 2046000.8  1.0  1.0  5  0 294390923
[03]  G12  f 45  -3303.0 2046004.3  1.0  1.0  5  0 294390910
[04]  G19  f 42  -1404.7 2046001.8  1.0  1.0  5  0 294390923
[16]  B05 1f 33   -347.5 4092000.8  0.9  0.0  2  0 294376858
[17]  B08 1f 40   -249.5 4092000.6  1.0  1.0  5  0 294376869
[18]  B13  7 41   -335.4 4092000.9  1.0  1.0  5  0      5426
[19]  B20  7 36    783.2 4091997.9  0.9  1.0  5  0      1239
$GNGGA,000000.000,,,,,0,00,,,M,,,,0000*2B
$GNRMC,000000.000,A,,,,,,,000000,,*26
$GPGSA,A,1,,,,,,,,,,,,,,,*1E
$BDGSA,A,1,,,,,,,,,,,,,,,*0F
$GPGSV,2,1,05,02,00,000,44,03,00,000,42,17,00,000,41,12,00,000,45*79
$GPGSV,2,2,05,19,00,000,42*42
$BDGSV,1,1,04,05,00,000,33,08,00,000,40,13,00,000,41,20,00,000,36*65
$LOGTIM,0,0.000000,0.000000,0.000000,0.000000,0.000*0A
EndT:        0
---00000024--- Acq_st=3 2019-5-22 09:46:14 
[00]  G02  f 44  -1991.8 2046002.6  1.0  1.0  5  0 294391912
[01]  G03  f 42   2983.7 2045996.1  1.0  1.0  5  0 294391913
[02]  G17  f 40   -585.9 2046000.8  1.0  1.0  5  0 294391923
[03]  G12  f 45  -3300.3 2046004.3  1.0  1.0  5  0 294391910
[04]  G19  f 42  -1402.3 2046001.8  1.0  1.0  5  0 294391923
[16]  B05 1f 34   -345.3 4092001.0  0.9  0.0  2  0 294377858
[17]  B08 1f 40   -246.0 4092000.6  1.0  0.9  5  0 294377869
[18]  B13  7 42   -333.3 4092000.9  1.0  1.0  5  0      6426
[19]  B20  7 40    785.9 4091997.9  1.0  1.0  5  0      2236
$GNGGA,000000.000,,,,,0,00,,,M,,,,0000*2B
$GNRMC,000000.000,A,,,,,,,000000,,*26
$GPGSA,A,1,,,,,,,,,,,,,,,*1E
$BDGSA,A,1,,,,,,,,,,,,,,,*0F
$GPGSV,2,1,05,02,00,000,44,03,00,000,42,17,00,000,40,12,00,000,45*78
$GPGSV,2,2,05,19,00,000,42*42
$BDGSV,1,1,04,05,00,000,34,08,00,000,40,13,00,000,42,20,00,000,40*60
$LOGTIM,0,0.000000,0.000000,0.000000,0.000000,0.000*0A
EndT:        0
---00000025--- Acq_st=3 2019-5-22 09:46:15 
[00]  G02  f 44  -1995.8 2046002.6  1.0  1.0  5  0 294392912
[01]  G03  f 42   2979.9 2045996.1  1.0  1.0  5  0 294392913
[02]  G17  f 39   -589.5 2046000.8  1.0  1.0  5  0 294392923
[03]  G12  f 45  -3304.0 2046004.3  1.0  1.0  5  0 294392910
[04]  G19  f 41  -1405.9 2046001.9  1.0  1.0  5  0 294392923
[16]  B05 1f 34   -349.7 4092000.9  0.9  0.0  2  0 294378858
[17]  B08 1f 39   -251.4 4092000.7  1.0  1.0  5  0 294378869
[18]  B13 1f 42   -337.5 4092000.9  1.0  1.0  5  0      7426
[19]  B20 1f 40    781.6 4091997.9  1.0  1.0  5  0      3236
[20]  B26  1  7    799.7 4091996.8  0.1  0.0  1  0         0
$GNGGA,000000.000,,,,,0,00,,,M,,,,0000*2B
$GNRMC,000000.000,A,,,,,,,000000,,*26
$GPGSA,A,1,,,,,,,,,,,,,,,*1E
$BDGSA,A,1,,,,,,,,,,,,,,,*0F
$GPGSV,2,1,05,02,00,000,44,03,00,000,42,17,00,000,39,12,00,000,45*76
$GPGSV,2,2,05,19,00,000,41*41
$BDGSV,1,1,04,05,00,000,34,08,00,000,39,13,00,000,42,20,00,000,40*6E
$LOGTIM,0,0.000000,0.000000,0.000000,0.000000,0.000*0A
EndT:        0
---00000026--- Acq_st=3 2019-5-22 09:46:16 
[00]  G02  f 44  -2002.9 2046002.6  1.0  1.0  5  0 294393912
[01]  G03  f 42   2972.6 2045996.1  1.0  1.0  5  0 294393913
[02]  G17  f 40   -595.8 2046000.8  1.0  1.0  5  0 294393923
[03]  G12  f 45  -3310.7 2046004.3  1.0  1.0  5  0 294393910
[04]  G19  f 41  -1412.3 2046001.8  1.0  1.0  5  0 294393923
[16]  B05 1f 33   -356.8 4092001.0  0.9  0.0  2  0 294379858
[17]  B08 1f 40   -258.3 4092000.7  1.0  1.0  5  0 294379869
[18]  B13 1f 41   -344.1 4092000.9  1.0  1.0  5  0 294379866
[19]  B20 1f 40    775.5 4091997.9  1.0  1.0  5  0 294379916
[20]  B26  7 24    803.1 4091997.9  0.4  0.0 20  0       636
$GNGGA,000000.000,,,,,0,00,,,M,,,,0000*2B
$GNRMC,000000.000,A,,,,,,,000000,,*26
$GPGSA,A,1,,,,,,,,,,,,,,,*1E
$BDGSA,A,1,,,,,,,,,,,,,,,*0F
$GPGSV,2,1,05,02,00,000,44,03,00,000,42,17,00,000,40,12,00,000,45*78
$GPGSV,2,2,05,19,00,000,41*41
$BDGSV,2,1,05,05,00,000,33,08,00,000,40,13,00,000,41,20,00,000,40*66
$BDGSV,2,2,05,26,00,000,24*5F
$LOGTIM,0,0.000000,0.000000,0.000000,0.000000,0.000*0A
EndT:        0
---00000027--- Acq_st=3 2019-5-22 09:46:17 
[00]  G02  f 44  -2006.3 2046002.6  1.0  1.0  5  0 294394912
[01]  G03  f 42   2969.5 2045996.2  1.0  1.0  5  0 294394913
[02]  G17  f 39   -599.5 2046000.8  1.0  1.0  5  0 294394923
[03]  G12  f 45  -3313.9 2046004.3  1.0  1.0  5  0 294394910
[04]  G19  f 41  -1415.5 2046001.8  1.0  1.0  5  0 294394923
[16]  B05 1f 33   -360.4 4092000.8  0.9  0.0  2  0 294380858
[17]  B08 1f 40   -261.6 4092000.7  1.0  1.0  5  0 294380869
[18]  B13 1f 41   -347.5 4092000.8  1.0  1.0  5  0 294380866
[19]  B20 1f 40    772.5 4091998.0  1.0  1.0  5  0 294380916
[20]  B26  7 42    799.6 4091997.9  0.8  1.0  5  0      1625
[21]  B29  1  7   -128.0 4092000.3 -0.0  0.0  1  0         0
$GNGGA,000000.000,,,,,0,00,,,M,,,,0000*2B
$GNRMC,000000.000,A,,,,,,,000000,,*26
$GPGSA,A,1,,,,,,,,,,,,,,,*1E
$BDGSA,A,1,,,,,,,,,,,,,,,*0F
$GPGSV,2,1,05,02,00,000,44,03,00,000,42,17,00,000,39,12,00,000,45*76
$GPGSV,2,2,05,19,00,000,41*41
$BDGSV,2,1,05,05,00,000,33,08,00,000,40,13,00,000,41,20,00,000,40*66
$BDGSV,2,2,05,26,00,000,42*5F
$LOGTIM,0,0.000000,0.000000,0.000000,0.000000,0.000*0A
EndT:        0
---00000028--- Acq_st=3 2019-5-22 09:46:18 
[00]  G02  f 44  -2004.2 2046002.6  1.0  1.0  5  0 294395912
[01]  G03  f 42   2971.2 2045996.2  1.0  1.0  5  0 294395913
[02]  G17  f 39   -597.6 2046000.8  1.0  1.0  5  0 294395923
[03]  G12  f 45  -3311.8 2046004.3  1.0  1.0  5  0 294395910
[04]  G19  f 42  -1413.7 2046001.9  1.0  1.0  5  0 294395923
[16]  B05 1f 33   -358.4 4092000.9  0.9  0.0  2  0 294381858
[17]  B08 1f 40   -260.0 4092000.7  1.0  1.0  5  0 294381869
[18]  B13 1f 42   -346.2 4092000.9  1.0  1.0  5  0 294381866
[19]  B20 1f 40    774.3 4091998.0  1.0  1.0  5  0 294381916
[20]  B26  7 42    801.6 4091997.9  1.0  1.0  5  0      2625
[21]  B29  7 27   -125.5 4092000.4  0.1  1.0 10  0       835
$GNGGA,000000.000,,,,,0,00,,,M,,,,0000*2B
$GNRMC,000000.000,A,,,,,,,000000,,*26
$GPGSA,A,1,,,,,,,,,,,,,,,*1E
$BDGSA,A,1,,,,,,,,,,,,,,,*0F
$GPGSV,2,1,05,02,00,000,44,03,00,000,42,17,00,000,39,12,00,000,45*76
$GPGSV,2,2,05,19,00,000,42*42
$BDGSV,2,1,06,05,00,000,33,08,00,000,40,13,00,000,42,20,00,000,40*66
$BDGSV,2,2,06,26,00,000,42,29,00,000,27*62
$LOGTIM,0,0.000000,0.000000,0.000000,0.000000,0.000*0A
EndT:        0
---00000029--- Acq_st=7 2019-5-22 09:46:19 
[00]  G02  f 44  -1998.8 2046002.6  1.0  1.0  5  0 294396912
[01]  G03  f 42   2976.6 2045996.1  1.0  1.0  5  0 294396913
[02]  G17  f 39   -591.7 2046000.8  1.0  1.0  5  0 294396923
[03]  G12  f 45  -3306.1 2046004.3  1.0  1.0  5  0 294396910
[04]  G19  f 42  -1407.8 2046001.8  1.0  1.0  5  0 294396923
[16]  B05 1f 33   -352.8 4092001.0  0.9  0.0  2  0 294382858
[17]  B08 1f 40   -254.9 4092000.7  1.0  1.0  5  0 294382869
[18]  B13 1f 42   -340.9 4092000.9  1.0  1.0  5  0 294382866
[19]  B20 1f 40    780.7 4091997.9  1.0  1.0  5  0 294382916
[20]  B26  7 42    807.1 4091997.9  1.0  1.0  5  0      3625
[21]  B29  7 38   -119.6 4092000.3  1.0  1.0  5  0      1818
[22]  B32  1  7   2659.5 4091992.9  0.1  0.0  1  0        34
$GNGGA,000000.000,,,,,0,00,,,M,,,,0000*2B
$GNRMC,000000.000,A,,,,,,,000000,,*26
$GPGSA,A,1,,,,,,,,,,,,,,,*1E
$BDGSA,A,1,,,,,,,,,,,,,,,*0F
$GPGSV,2,1,05,02,00,000,44,03,00,000,42,17,00,000,39,12,00,000,45*76
$GPGSV,2,2,05,19,00,000,42*42
$BDGSV,2,1,06,05,00,000,33,08,00,000,40,13,00,000,42,20,00,000,40*66
$BDGSV,2,2,06,26,00,000,42,29,00,000,38*6C
$LOGTIM,0,0.000000,0.000000,0.000000,0.000000,0.000*0A
EndT:        0
---00000030--- Acq_st=7 2019-5-22 09:46:20 
[00]  G02  f 45  -1996.9 2046002.6  1.0  1.0  5  0 294397912
[01]  G03  f 41   2978.9 2045996.1  1.0  1.0  5  0 294397913
[02]  G17  f 39   -588.8 2046000.8  1.0  1.0  5  0 294397923
[03]  G12  f 45  -3303.4 2046004.3  1.0  1.0  5  0 294397910
[04]  G19  f 41  -1405.4 2046001.8  1.0  1.0  5  0 294397923
[16]  B05 1f 33   -351.0 4092000.8  0.9  0.0  2  0 294383858
[17]  B08 1f 40   -252.7 4092000.7  1.0  1.0  5  0 294383869
[18]  B13 1f 42   -339.1 4092000.9  1.0  1.0  5  0 294383866
[19]  B20 1f 40    783.1 4091997.9  1.0  1.0  5  0 294383916
[20]  B26  7 42    809.6 4091997.9  1.0  1.0  5  0      4625
[21]  B29  7 38   -117.3 4092000.3  1.0  1.0  5  0      2818
[22]  B32  7 30   2662.1 4091993.0  0.7  1.0  5  0      1034
$GNGGA,000000.000,,,,,0,00,,,M,,,,0000*2B
$GNRMC,000000.000,A,,,,,,,000000,,*26
$GPGSA,A,1,,,,,,,,,,,,,,,*1E
$BDGSA,A,1,,,,,,,,,,,,,,,*0F
$GPGSV,2,1,05,02,00,000,45,03,00,000,41,17,00,000,39,12,00,000,45*74
$GPGSV,2,2,05,19,00,000,41*41
$BDGSV,2,1,07,05,00,000,33,08,00,000,40,13,00,000,42,20,00,000,40*67
$BDGSV,2,2,07,26,00,000,42,29,00,000,38,32,00,000,30*5F
$LOGTIM,0,0.000000,0.000000,0.000000,0.000000,0.000*0A
EndT:        0
---00000031--- Acq_st=7 2019-5-22 09:46:21 
[00]  G02  f 45  -1995.0 2046002.6  1.0  1.0  5  0 294398912
[01]  G03  f 41   2981.2 2045996.1  1.0  1.0  5  0 294398913
[02]  G17  f 39   -586.6 2046000.8  1.0  1.0  5  0 294398923
[03]  G12  f 45  -3301.5 2046004.3  1.0  1.0  5  0 294398910
[04]  G19  f 41  -1403.2 2046001.9  1.0  1.0  5  0 294398923
[16]  B05 1f 32   -348.9 4092001.0  0.9  0.0  2  0 294384858
[17]  B08 1f 40   -251.2 4092000.7  1.0  1.0  5  0 294384869
[18]  B13 1f 42   -337.1 4092000.9  1.0  1.0  5  0 294384866
[19]  B20 1f 40    785.6 4091998.0  1.0  1.0  5  0 294384916
[20]  B26 1f 41    811.5 4091997.9  1.0  1.0  5  0      5625
[21]  B29 1f 38   -115.4 4092000.3  1.0  1.0  5  0      3818
[22]  B32  7 36   2663.8 4091993.0  1.0  1.0  5  0      2022
$GNGGA,000000.000,,,,,0,00,,,M,,,,0000*2B
$GNRMC,000000.000,A,,,,,,,000000,,*26
$GPGSA,A,1,,,,,,,,,,,,,,,*1E
$BDGSA,A,1,,,,,,,,,,,,,,,*0F
$GPGSV,2,1,05,02,00,000,45,03,00,000,41,17,00,000,39,12,00,000,45*74
$GPGSV,2,2,05,19,00,000,41*41
$BDGSV,2,1,07,05,00,000,32,08,00,000,40,13,00,000,42,20,00,000,40*66
$BDGSV,2,2,07,26,00,000,41,29,00,000,38,32,00,000,36*5A
$LOGTIM,0,0.000000,0.000000,0.000000,0.000000,0.000*0A
EndT:        0
---00000032--- Acq_st=3 2019-5-22 09:46:22 
[00]  G02  f 45  -1996.5 2046002.6  1.0  1.0  5  0 294399912
[01]  G03  f 42   2979.6 2045996.1  1.0  1.0  5  0 294399913
[02]  G17  f 39   -588.2 2046000.8  1.0  1.0  5  0 294399923
[03]  G12  f 45  -3302.9 2046004.3  1.0  1.0  5  0 294399910
[04]  G19  f 41  -1404.9 2046001.8  1.0  1.0  5  0 294399923
[16]  B05 1f 33   -350.3 4092000.7  0.9  0.0  2  0 294385858
[17]  B08 1f 40   -252.7 4092000.7  1.0  1.0  5  0 294385869
[18]  B13 1f 42   -339.0 4092000.9  1.0  1.0  5  0 294385866
[19]  B20 1f 41    784.2 4091997.9  1.0  1.0  5  0 294385916
[20]  B26 1f 41    810.5 4091997.9  1.0  1.0  5  0 294385905
[21]  B29 1f 39   -117.5 4092000.3  1.0  1.0  5  0 294385918
[22]  B32  7 36   2662.0 4091993.0  1.0  1.0  5  0      3022
$GNGGA,000000.000,,,,,0,00,,,M,,,,0000*2B
$GNRMC,000000.000,A,,,,,,,000000,,*26
$GPGSA,A,1,,,,,,,,,,,,,,,*1E
$BDGSA,A,1,,,,,,,,,,,,,,,*0F
$GPGSV,2,1,05,02,00,000,45,03,00,000,42,17,00,000,39,12,00,000,45*77
$GPGSV,2,2,05,19,00,000,41*41
$BDGSV,2,1,07,05,00,000,33,08,00,000,40,13,00,000,42,20,00,000,41*66
$BDGSV,2,2,07,26,00,000,41,29,00,000,39,32,00,000,36*5B
$LOGTIM,0,0.000000,0.000000,0.000000,0.000000,0.000*0A
EndT:        0
---00000033--- Acq_st=3 2019-5-22 09:46:23 
[00]  G02  f 44  -2000.3 2046002.6  1.0  1.0  5  0 294400912
[01]  G03  f 42   2976.2 2045996.1  1.0  1.0  5  0 294400913
[02]  G17  f 39   -592.1 2046000.8  1.0  1.0  5  0 294400923
[03]  G12  f 45  -3306.1 2046004.3  1.0  1.0  5  0 294400910
[04]  G19  f 40  -1408.3 2046001.8  1.0  1.0  5  0 294400923
[05]  G06  1 27   -979.0 2046002.0 -0.1  0.0  1  0         0
[16]  B05 1f 34   -354.8 4092000.9  0.9  0.0  2  0 294386858
[17]  B08 1f 40   -256.5 4092000.6  1.0  1.0  5  0 294386869
[18]  B13 1f 42   -342.3 4092000.9  1.0  1.0  5  0 294386866
[19]  B20 1f 41    780.9 4091997.9  1.0  1.0  5  0 294386916
[20]  B26 1f 41    806.7 4091997.9  1.0  1.0  5  0 294386905
[21]  B29 1f 39   -120.0 4092000.3  1.0  1.0  5  0 294386918
[22]  B32  7 36   2658.8 4091993.0  1.0  1.0  5  0      4022
$GNGGA,000000.000,,,,,0,00,,,M,,,,0000*2B
$GNRMC,000000.000,A,,,,,,,000000,,*26
$GPGSA,A,1,,,,,,,,,,,,,,,*1E
$BDGSA,A,1,,,,,,,,,,,,,,,*0F
$GPGSV,2,1,05,02,00,000,44,03,00,000,42,17,00,000,39,12,00,000,45*76
$GPGSV,2,2,05,19,00,000,40*40
$BDGSV,2,1,07,05,00,000,34,08,00,000,40,13,00,000,42,20,00,000,41*61
$BDGSV,2,2,07,26,00,000,41,29,00,000,39,32,00,000,36*5B
$LOGTIM,0,0.000000,0.000000,0.000000,0.000000,0.000*0A
EndT:        0
---00000034--- Acq_st=3 2019-5-22 09:46:24 
[00]  G02  f 45  -2001.0 2046002.6  1.0  1.0  5  0 294401912
[01]  G03  f 42   2975.5 2045996.2  1.0  1.0  5  0 294401913
[02]  G17  f 39   -592.0 2046000.7  1.0  1.0  5  0 294401923
[03]  G12  f 45  -3306.7 2046004.3  1.0  1.0  5  0 294401910
[04]  G19  f 40  -1408.6 2046001.8  1.0  1.0  5  0 294401923
[05]  G06  7 30   -972.6 2046001.2  0.5  1.0  5  0        10
[16]  B05 1f 35   -354.9 4092001.0  0.9  0.0  2  0 294387858
[17]  B08 1f 40   -257.4 4092000.7  1.0  1.0  5  0 294387869
[18]  B13 1f 42   -343.5 4092000.9  1.0  1.0  5  0 294387866
[19]  B20 1f 41    780.8 4091997.9  1.0  1.0  5  0 294387916
[20]  B26 1f 41    806.4 4091997.9  1.0  1.0  5  0 294387905
[21]  B29 1f 39   -120.7 4092000.3  1.0  1.0  5  0 294387918
[22]  B32  7 36   2658.6 4091993.0  1.0  1.0  5  0      5022
$GNGGA,000000.000,,,,,0,00,,,M,,,,0000*2B
$GNRMC,000000.000,A,,,,,,,000000,,*26
$GPGSA,A,1,,,,,,,,,,,,,,,*1E
$BDGSA,A,1,,,,,,,,,,,,,,,*0F
$GPGSV,2,1,06,02,00,000,45,03,00,000,42,17,00,000,39,12,00,000,45*74
$GPGSV,2,2,06,19,00,000,40,06,00,000,30*76
$BDGSV,2,1,07,05,00,000,35,08,00,000,40,13,00,000,42,20,00,000,41*60
$BDGSV,2,2,07,26,00,000,41,29,00,000,39,32,00,000,36*5B
$LOGTIM,0,0.000000,0.000000,0.000000,0.000000,0.000*0A
EndT:        0
---00000035--- Acq_st=3 2019-5-22 09:46:25 
[00]  G02  f 44  -1999.4 2046002.6  1.0  1.0  5  0 294402912
[01]  G03  f 42   2977.1 2045996.2  1.0  1.0  5  0 294402913
[02]  G17  f 40   -590.7 2046000.7  1.0  1.0  5  0 294402923
[03]  G12  f 45  -3304.8 2046004.3  1.0  1.0  5  0 294402910
[04]  G19  f 41  -1406.6 2046001.8  1.0  1.0  5  0 294402923
[05]  G06  7 45   -971.1 2046001.2  1.0  1.0  5  0         1
[16]  B05 1f 33   -353.4 4092000.9  0.9  0.0  2  0 294388858
[17]  B08 1f 39   -255.6 4092000.6  1.0  1.0  5  0 294388869
[18]  B13 1f 42   -341.9 4092000.9  1.0  1.0  5  0 294388866
[19]  B20 1f 41    783.0 4091998.0  1.0  1.0  5  0 294388916
[20]  B26 1f 41    808.3 4091997.8  1.0  1.0  5  0 294388905
[21]  B29 1f 38   -119.1 4092000.3  1.0  1.0  5  0 294388918
[22]  B32  7 36   2660.0 4091993.0  1.0  1.0  5  0      6022
$GNGGA,000000.000,,,,,0,00,,,M,,,,0000*2B
$GNRMC,000000.000,A,,,,,,,000000,,*26
$GPGSA,A,1,,,,,,,,,,,,,,,*1E
$BDGSA,A,1,,,,,,,,,,,,,,,*0F
$GPGSV,2,1,06,02,00,000,44,03,00,000,42,17,00,000,40,12,00,000,45*7B
$GPGSV,2,2,06,19,00,000,41,06,00,000,45*75
$BDGSV,2,1,07,05,00,000,33,08,00,000,39,13,00,000,42,20,00,000,41*68
$BDGSV,2,2,07,26,00,000,41,29,00,000,38,32,00,000,36*5A
$LOGTIM,0,0.000000,0.000000,0.000000,0.000000,0.000*0A
EndT:        0
---00000036--- Acq_st=3 2019-5-22 09:46:26 
[00]  G02  f 44  -1998.5 2046002.6  1.0  1.0  5  0 294403912
[01]  G03  f 42   2978.2 2045996.1  1.0  1.0  5  0 294403913
[02]  G17  f 40   -588.9 2046000.7  1.0  1.0  5  0 294403923
[03]  G12  f 45  -3303.7 2046004.3  1.0  1.0  5  0 294403910
[04]  G19  f 42  -1405.2 2046001.8  1.0  1.0  5  0 294403923
[05]  G06  7 45   -970.1 2046001.2  1.0  1.0  5  0         1
[06]  G22  1 13   3027.1 2045998.1  0.0  0.0  1  0         0
[16]  B05 1f 32   -353.1 4092000.9  0.9  0.0  2  0 294389858
[17]  B08 1f 40   -255.5 4092000.7  1.0  1.0  5  0 294389869
[18]  B13 1f 41   -341.5 4092000.9  1.0  1.0  5  0 294389866
[19]  B20 1f 40    783.9 4091997.9  1.0  1.0  5  0 294389916
[20]  B26 1f 41    809.0 4091997.8  1.0  1.0  5  0 294389905
[21]  B29 1f 38   -118.1 4092000.3  1.0  0.9  5  0 294389918
[22]  B32  7 36   2660.8 4091993.0  1.0  1.0  5  0      7022
$GNGGA,000000.000,,,,,0,00,,,M,,,,0000*2B
$GNRMC,000000.000,A,,,,,,,000000,,*26
$GPGSA,A,1,,,,,,,,,,,,,,,*1E
$BDGSA,A,1,,,,,,,,,,,,,,,*0F
$GPGSV,2,1,06,02,00,000,44,03,00,000,42,17,00,000,40,12,00,000,45*7B
$GPGSV,2,2,06,19,00,000,42,06,00,000,45*76
$BDGSV,2,1,07,05,00,000,32,08,00,000,40,13,00,000,41,20,00,000,40*65
$BDGSV,2,2,07,26,00,000,41,29,00,000,38,32,00,000,36*5A
$LOGTIM,0,0.000000,0.000000,0.000000,0.000000,0.000*0A
EndT:        0
---00000037--- Acq_st=3 2019-5-22 09:46:27 
[00]  G02  f 45  -2000.0 2046002.6  1.0  1.0  5  0 294404912
[01]  G03  f 42   2976.5 2045996.1  1.0  1.0  5  0 294404913
[02]  G17  f 40   -590.4 2046000.8  1.0  1.0  5  0 294404923
[03]  G12  f 45  -3304.9 2046004.3  1.0  1.0  5  0 294404910
[04]  G19  f 41  -1406.8 2046001.8  1.0  1.0  5  0 294404923
[05]  G06  7 45   -971.5 2046001.2  1.0  1.0  5  0         1
[06]  G22  7  7   3043.3 2045995.8 -0.0  0.0 10  0        19
[16]  B05 1f 32   -354.6 4092000.8  0.9  0.0  2  0 294390858
[17]  B08 1f 39   -257.1 4092000.6  1.0  1.0  5  0 294390869
[18]  B13 1f 42   -343.2 4092000.9  1.0  1.0  5  0 294390866
[19]  B20 1f 40    782.9 4091998.0  1.0  1.0  5  0 294390916
[20]  B26 1f 41    808.0 4091997.9  1.0  1.0  5  0 294390905
[21]  B29 1f 38   -119.9 4092000.3  1.0  1.0  5  0 294390918
[22]  B32 1f 36   2659.6 4091993.0  1.0  1.0  5  0      8022
$GNGGA,000000.000,,,,,0,00,,,M,,,,0000*2B
$GNRMC,000000.000,A,,,,,,,000000,,*26
$GPGSA,A,1,,,,,,,,,,,,,,,*1E
$BDGSA,A,1,,,,,,,,,,,,,,,*0F
$GPGSV,2,1,06,02,00,000,45,03,00,000,42,17,00,000,40,12,00,000,45*7A
$GPGSV,2,2,06,19,00,000,41,06,00,000,45*75
$BDGSV,2,1,07,05,00,000,32,08,00,000,39,13,00,000,42,20,00,000,40*68
$BDGSV,2,2,07,26,00,000,41,29,00,000,38,32,00,000,36*5A
$LOGTIM,0,0.000000,0.000000,0.000000,0.000000,0.000*0A
EndT:        0
---00000038--- Acq_st=3 2019-5-22 09:46:28 
[00]  G02  f 45  -1994.0 2046002.6  1.0  1.0  5  0 294405912
[01]  G03  f 42   2982.9 2045996.1  1.0  1.0  5  0 294405913
[02]  G17  f 41   -583.9 2046000.8  1.0  1.0  5  0 294405923
[03]  G12  f 45  -3298.5 2046004.3  1.0  1.0  5  0 294405910
[04]  G19  f 41  -1400.5 2046001.8  1.0  1.0  5  0 294405923
[05]  G06  7 46   -965.4 2046001.2  1.0  1.0  5  0         1
[06]  G22  7 28   3065.6 2045995.8  0.0  0.1 10  0         5
[16]  B05 1f 35   -349.0 4092000.8  0.9  0.0  2  0 294391858
[17]  B08 1f 40   -251.8 4092000.6  1.0  1.0  5  0 294391869
[18]  B13 1f 42   -337.1 4092000.8  1.0  1.0  5  0 294391866
[19]  B20 1f 40    789.2 4091997.9  1.0  1.0  5  0 294391916
[20]  B26 1f 41    814.0 4091997.8  1.0  1.0  5  0 294391905
[21]  B29 1f 38   -113.8 4092000.3  1.0  1.0  5  0 294391918
[22]  B32 1f 35   2666.1 4091993.0  1.0  0.9  5  0 294391902
$GNGGA,000000.000,,,,,0,00,,,M,,,,0000*2B
$GNRMC,000000.000,A,,,,,,,000000,,*26
$GPGSA,A,1,,,,,,,,,,,,,,,*1E
$BDGSA,A,1,,,,,,,,,,,,,,,*0F
$GPGSV,2,1,07,02,00,000,45,03,00,000,42,17,00,000,41,12,00,000,45*7A
$GPGSV,2,2,07,19,00,000,41,06,00,000,46,22,00,000,28*4D
$BDGSV,2,1,07,05,00,000,35,08,00,000,40,13,00,000,42,20,00,000,40*61
$BDGSV,2,2,07,26,00,000,41,29,00,000,38,32,00,000,35*59
$LOGTIM,0,0.000000,0.000000,0.000000,0.000000,0.000*0A
EndT:        0
---00000039--- Acq_st=3 2019-5-22 09:46:29 
[00]  G02  f 45  -1992.4 2046002.6  1.0  1.0  5  0 294406912
[01]  G03  f 42   2984.7 2045996.1  1.0  1.0  5  0 294406913
[02]  G17  f 40   -582.5 2046000.7  1.0  1.0  5  0 294406923
[03]  G12  f 45  -3296.7 2046004.3  1.0  1.0  5  0 294406910
[04]  G19  f 41  -1398.4 2046001.8  1.0  1.0  5  0 294406923
[05]  G06  7 45   -963.5 2046001.2  1.0  1.0  5  0         1
[06]  G22  7 26   3068.0 2045995.9 -0.7  0.0 10  0         5
[16]  B05 1f 33   -347.5 4092000.8  0.9  0.0  2  0 294392858
[17]  B08 1f 40   -249.8 4092000.7  1.0  1.0  5  0 294392869
[18]  B13 1f 41   -335.2 4092000.9  1.0  1.0  5  0 294392866
[19]  B20 1f 41    791.5 4091997.9  1.0  1.0  5  0 294392916
[20]  B26 1f 41    816.2 4091997.8  1.0  1.0  5  0 294392905
[21]  B29 1f 38   -111.8 4092000.2  1.0  1.0  5  0 294392918
[22]  B32 1f 36   2667.6 4091993.0  1.0  1.0  5  0 294392902
$GNGGA,000000.000,,,,,0,00,,,M,,,,0000*2B
$GNRMC,000000.000,A,,,,,,,000000,,*26
$GPGSA,A,1,,,,,,,,,,,,,,,*1E
$BDGSA,A,1,,,,,,,,,,,,,,,*0F
$GPGSV,2,1,07,02,00,000,45,03,00,000,42,17,00,000,40,12,00,000,45*7B
$GPGSV,2,2,07,19,00,000,41,06,00,000,45,22,00,000,26*40
$BDGSV,2,1,07,05,00,000,33,08,00,000,40,13,00,000,41,20,00,000,41*65
$BDGSV,2,2,07,26,00,000,41,29,00,000,38,32,00,000,36*5A
$LOGTIM,0,0.000000,0.000000,0.000000,0.000000,0.000*0A
EndT:        0
---00000040--- Acq_st=3 2019-5-22 09:46:30 
[00]  G02  f 45  -1995.6 2046002.6  1.0  1.0  5  0 294407912
[01]  G03  f 42   2981.6 2045996.1  1.0  1.0  5  0 294407913
[02]  G17  f 40   -584.8 2046000.8  1.0  1.0  5  0 294407923
[03]  G12  f 45  -3299.6 2046004.3  1.0  1.0  5  0 294407910
[04]  G19  f 40  -1401.2 2046001.8  1.0  1.0  5  0 294407923
[05]  G06  7 45   -966.5 2046001.3  1.0  1.0  5  0         1
[06]  G22  7 26   3065.3 2045996.0 -0.9 -0.0 10  0         5
[16]  B05 1f 34   -349.8 4092001.1  0.9  0.0  2  0 294393858
[17]  B08 1f 40   -252.6 4092000.6  1.0  1.0  5  0 294393869
[18]  B13 1f 42   -339.0 4092000.9  1.0  1.0  5  0 294393866
[19]  B20 1f 41    788.9 4091997.9  1.0  1.0  5  0 294393916
[20]  B26 1f 41    813.7 4091997.9  1.0  1.0  5  0 294393905
[21]  B29 1f 38   -114.6 4092000.3  1.0  1.0  5  0 294393918
[22]  B32 1f 36   2664.8 4091993.0  1.0  1.0  5  0 294393902
lsq: nits= 4
$GNGGA,094630.992,3112.7103,N,12136.4406,E,1,05,2.9,60.5,M,,,,0000*23
$GNRMC,094630.992,A,3112.7103,N,12136.4406,E,0.17,0.00,220519,,*19
$GPGSA,A,3,02,03,12,17,19,,,,,,,,3.7,2.9,2.3*30
$BDGSA,A,3,,,,,,,,,,,,,3.7,2.9,2.3*2D
$GPGSV,2,1,07,02,00,000,45,03,00,000,42,17,00,000,40,12,00,000,45*7B
$GPGSV,2,2,07,19,00,000,40,06,00,000,45,22,00,000,26*41
$BDGSV,2,1,07,05,00,000,34,08,00,000,40,13,00,000,42,20,00,000,41*61
$BDGSV,2,2,07,26,00,000,41,29,00,000,38,32,00,000,36*5A
$LOGTIM,1,6323574.484765,0.000000,0.000000,0.000000,-64.023*1B
EndT:        1
---00000041--- Acq_st=3 2019-5-22 09:46:31 
[00]  G02  f 45  -1999.9 2046002.6  1.0  1.0  5  0 294408912
[01]  G03  f 43   2977.3 2045996.2  1.0  1.0  5  0 294408913
[02]  G17  f 40   -588.5 2046000.8  1.0  1.0  5  0 294408923
[03]  G12  f 45  -3303.6 2046004.3  1.0  1.0  5  0 294408910
[04]  G19  f 41  -1405.6 2046001.9  1.0  1.0  5  0 294408923
[05]  G06  f 44   -970.4 2046001.3  1.0  1.0  5  0         1
[06]  G22  7 26   3060.0 2045996.0 -0.7  0.0 10  0         5
[16]  B05 1f 36   -354.6 4092000.8  0.9  0.0  2  0 294394858
[17]  B08 1f 39   -257.6 4092000.7  1.0  1.0  5  0 294394869
[18]  B13 1f 41   -343.8 4092000.9  1.0  1.0  5  0 294394866
[19]  B20 1f 41    784.8 4091998.0  1.0  1.0  5  0 294394916
[20]  B26 1f 41    809.2 4091997.9  1.0  1.0  5  0 294394905
[21]  B29 1f 38   -119.3 4092000.4  1.0  1.0  5  0 294394918
[22]  B32 1f 36   2660.0 4091993.1  1.0  1.0  5  0 294394902
lsq: nits= 2
$GNGGA,094632.000,3112.7143,N,12136.4384,E,1,05,2.9,62.6,M,,,,0000*2B
$GNRMC,094632.000,A,3112.7143,N,12136.4384,E,0.09,0.00,220519,,*1F
$GPGSA,A,3,02,03,12,17,19,,,,,,,,3.7,2.9,2.3*30
$BDGSA,A,3,,,,,,,,,,,,,3.7,2.9,2.3*2D
$GPGSV,2,1,07,02,00,000,45,03,00,000,43,17,00,000,40,12,00,000,45*7A
$GPGSV,2,2,07,19,00,000,41,06,00,000,44,22,00,000,26*41
$BDGSV,2,1,07,05,00,000,36,08,00,000,39,13,00,000,41,20,00,000,41*6E
$BDGSV,2,2,07,26,00,000,41,29,00,000,38,32,00,000,36*5A
$LOGTIM,1,-59.362364,0.000000,0.000000,0.000000,-64.771*02
EndT:        2
---00000042--- Acq_st=3 2019-5-22 09:46:32 
[00]  G02  f 45  -2000.7 2046002.6  1.0  1.0  5  0 294409920
[01]  G03  f 43   2976.6 2045996.2  1.0  1.0  5  0 294409921
[02]  G17  f 40   -589.7 2046000.8  1.0  1.0  5  0 294409931
[03]  G12  f 45  -3304.1 2046004.3  1.0  1.0  5  0 294409918
[04]  G19  f 40  -1406.0 2046001.8  1.0  1.0  5  0 294409931
[05]  G06  f 44   -971.8 2046001.3  1.0  1.0  5  0 294409929
[06]  G22  7 26   3059.1 2045996.0 -0.9 -0.0 10  0        12
[16]  B05 1f 33   -355.7 4092000.9  0.9  0.0  2  0 294395866
[17]  B08 1f 40   -258.6 4092000.7  1.0  1.0  5  0 294395877
[18]  B13 1f 42   -344.3 4092000.9  1.0  1.0  5  0 294395874
[19]  B20 1f 41    784.2 4091998.0  1.0  1.0  5  0 294395924
[20]  B26 1f 41    808.6 4091997.8  1.0  1.0  5  0 294395913
[21]  B29 1f 38   -120.1 4092000.3  1.0  1.0  5  0 294395926
[22]  B32 1f 36   2658.9 4091993.0  1.0  1.0  5  0 294395910
lsq: nits= 2
$GNGGA,094633.000,3112.7148,N,12136.4378,E,1,05,2.9,64.1,M,,,,0000*23
$GNRMC,094633.000,A,3112.7148,N,12136.4378,E,0.26,0.00,220519,,*1B
$GPGSA,A,3,02,03,12,17,19,,,,,,,,3.7,2.9,2.3*30
$BDGSA,A,3,,,,,,,,,,,,,3.7,2.9,2.3*2D
$GPGSV,2,1,07,02,23,277,45,03,19,041,43,17,70,055,40,12,10,322,45*71
$GPGSV,2,2,07,19,65,355,40,06,00,000,44,22,00,000,26*40
$BDGSV,2,1,07,05,00,000,32,08,00,000,40,13,00,000,42,20,00,000,41*67
$BDGSV,2,2,07,26,00,000,41,29,00,000,38,32,00,000,36*5A
$LOGTIM,1,-123.507893,0.000000,0.000000,0.000000,-64.828*3B
EndT:        2
---00000043--- Acq_st=3 2019-5-22 09:46:33 
[00]  G02  f 45  -1999.9 2046002.6  1.0  1.0  5  0 294410920
[01]  G03  f 42   2977.2 2045996.1  1.0  1.0  5  0 294410921
[02]  G17  f 40   -588.9 2046000.8  1.0  1.0  5  0 294410931
[03]  G12  f 45  -3303.1 2046004.3  1.0  1.0  5  0 294410918
[04]  G19  f 40  -1405.0 2046001.8  1.0  1.0  5  0 294410931
[05]  G06  f 44   -971.3 2046001.3  1.0  1.0  5  0 294410929
[06]  G22  7 26   3059.9 2045996.1 -1.0 -0.0 10  0        12
[16]  B05 1f 33   -355.0 4092000.8  0.9  0.0  2  0 294396866
[17]  B08 1f 40   -258.1 4092000.7  1.0  1.0  5  0 294396877
[18]  B13 1f 41   -343.9 4092000.9  1.0  1.0  5  0 294396874
[19]  B20 1f 41    785.3 4091997.9  1.0  1.0  5  0 294396924
[20]  B26 1f 41    810.0 4091997.8  1.0  1.0  5  0 294396913
[21]  B29 1f 38   -118.7 4092000.3  1.0  1.0  5  0 294396926
[22]  B32 1f 35   2660.0 4091993.0  1.0  1.0  5  0 294396910
lsq: nits= 2
$GNGGA,094634.000,3112.7148,N,12136.4374,E,1,05,2.9,64.9,M,,,,0000*20
$GNRMC,094634.000,A,3112.7148,N,12136.4374,E,0.11,0.00,220519,,*14
$GPGSA,A,3,02,03,12,17,19,,,,,,,,3.7,2.9,2.3*30
$BDGSA,A,3,,,,,,,,,,,,,3.7,2.9,2.3*2D
$GPGSV,2,1,07,02,23,277,45,03,19,041,42,17,70,055,40,12,10,322,45*70
$GPGSV,2,2,07,19,65,355,40,06,00,000,44,22,00,000,26*40
$BDGSV,2,1,07,05,00,000,33,08,00,000,40,13,00,000,41,20,00,000,41*65
$BDGSV,2,2,07,26,00,000,41,29,00,000,38,32,00,000,35*59
$LOGTIM,1,-188.568774,0.000000,0.000000,0.000000,-64.873*3B
EndT:        2
---00000044--- Acq_st=3 2019-5-22 09:46:34 
[00]  G02  f 45  -2001.8 2046002.6  1.0  1.0  5  0 294411920
[01]  G03  f 43   2975.1 2045996.1  1.0  1.0  5  0 294411921
[02]  G17  f 40   -590.3 2046000.8  1.0  1.0  5  0 294411931
[03]  G12  f 45  -3304.9 2046004.3  1.0  1.0  5  0 294411918
[04]  G19  f 41  -1407.0 2046001.8  1.0  1.0  5  0 294411931
[05]  G06  f 44   -972.9 2046001.3  1.0  1.0  5  0 294411929
[06]  G22  7 26   3056.1 2045996.0 -0.9 -0.1 10  0        12
[16]  B05 1f 33   -357.7 4092000.9  0.9  0.0  2  0 294397866
[17]  B08 1f 39   -260.2 4092000.7  1.0  1.0  5  0 294397877
[18]  B13 1f 42   -346.1 4092000.9  1.0  1.0  5  0 294397874
[19]  B20 1f 41    783.8 4091998.0  1.0  1.0  5  0 294397924
[20]  B26 1f 41    807.9 4091997.9  1.0  1.0  5  0 294397913
[21]  B29 1f 38   -120.3 4092000.3  1.0  1.0  5  0 294397926
[22]  B32 1f 36   2657.7 4091993.0  1.0  0.9  5  0 294397910
lsq: nits= 2
$GNGGA,094635.000,3112.7148,N,12136.4370,E,1,05,2.9,65.5,M,,,,0000*28
$GNRMC,094635.000,A,3112.7148,N,12136.4370,E,0.24,0.00,220519,,*17
$GPGSA,A,3,02,03,12,17,19,,,,,,,,3.7,2.9,2.3*30
$BDGSA,A,3,,,,,,,,,,,,,3.7,2.9,2.3*2D
$GPGSV,2,1,07,02,23,277,45,03,19,041,43,17,70,055,40,12,10,322,45*71
$GPGSV,2,2,07,19,65,355,41,06,00,000,44,22,00,000,26*41
$BDGSV,2,1,07,05,00,000,33,08,00,000,39,13,00,000,42,20,00,000,41*68
$BDGSV,2,2,07,26,00,000,41,29,00,000,38,32,00,000,36*5A
$LOGTIM,1,-253.703802,0.000000,0.000000,0.000000,-65.086*3C
EndT:        2
---00000045--- Acq_st=3 2019-5-22 09:46:35 
[00]  G02  f 45  -2002.9 2046002.6  1.0  1.0  5  0 294412920
[01]  G03  f 43   2974.6 2045996.2  1.0  1.0  5  0 294412921
[02]  G17  f 41   -590.6 2046000.7  1.0  1.0  5  0 294412931
[03]  G12  f 46  -3305.7 2046004.3  1.0  1.0  5  0 294412918
[04]  G19  f 40  -1407.8 2046001.8  1.0  1.0  5  0 294412931
[05]  G06  f 45   -973.5 2046001.3  1.0  1.0  5  0 294412929
[06]  G22  7 26   3055.1 2045996.0 -0.9 -0.1 10  0        12
[16]  B05 1f 34   -358.2 4092001.0  0.9  0.0  2  0 294398866
[17]  B08 1f 39   -261.0 4092000.7  1.0  1.0  5  0 294398877
[18]  B13 1f 42   -347.2 4092000.9  1.0  1.0  5  0 294398874
[19]  B20 1f 41    783.6 4091997.9  1.0  1.0  5  0 294398924
[20]  B26 1f 40    806.8 4091997.9  1.0  1.0  5  0 294398913
[21]  B29 1f 37   -121.6 4092000.3  1.0  1.0  5  0 294398926
[22]  B32 1f 36   2656.8 4091993.0  1.0  1.0  5  0 294398910
lsq: nits= 2
$GNGGA,094636.000,3112.7147,N,12136.4371,E,1,05,2.9,65.9,M,,,,0000*29
$GNRMC,094636.000,A,3112.7147,N,12136.4371,E,0.09,0.00,220519,,*15
$GPGSA,A,3,02,03,12,17,19,,,,,,,,3.7,2.9,2.3*30
$BDGSA,A,3,,,,,,,,,,,,,3.7,2.9,2.3*2D
$GPGSV,2,1,07,02,23,277,45,03,19,041,43,17,70,055,41,12,10,322,46*73
$GPGSV,2,2,07,19,65,355,40,06,00,000,45,22,00,000,26*41
$BDGSV,2,1,07,05,00,000,34,08,00,000,39,13,00,000,42,20,00,000,41*6F
$BDGSV,2,2,07,26,00,000,40,29,00,000,37,32,00,000,36*54
$LOGTIM,1,-319.612588,0.000000,0.000000,0.000000,-65.335*36
EndT:        2
---00000046--- Acq_st=3 2019-5-22 09:46:36 
[00]  G02  f 45  -1999.0 2046002.6  1.0  1.0  5  0 294413920
[01]  G03  f 43   2979.2 2045996.1  1.0  1.0  5  0 294413921
[02]  G17  f 40   -586.4 2046000.8  1.0  1.0  5  0 294413931
[03]  G12  f 46  -3301.3 2046004.3  1.0  1.0  5  0 294413918
[04]  G19  f 41  -1403.0 2046001.8  1.0  1.0  5  0 294413931
[05]  G06  f 45   -969.6 2046001.3  1.0  1.0  5  0 294413929
[06]  G22  7 26   3059.7 2045996.1 -0.9  0.1 10  0        12
[16]  B05 1f 34   -354.7 4092000.9  0.9  0.0  2  0 294399866
[17]  B08 1f 40   -257.6 4092000.7  1.0  1.0  5  0 294399877
[18]  B13 1f 41   -343.4 4092000.9  1.0  1.0  5  0 294399874
[19]  B20 1f 41    787.8 4091997.9  1.0  1.0  5  0 294399924
[20]  B26 1f 41    811.7 4091997.9  1.0  1.0  5  0 294399913
[21]  B29 1f 38   -117.5 4092000.3  1.0  1.0  5  0 294399926
[22]  B32 1f 35   2661.4 4091993.1  1.0  1.0  5  0 294399910
lsq: nits= 2
$GNGGA,094637.000,3112.7142,N,12136.4374,E,1,05,2.9,64.2,M,,,,0000*22
$GNRMC,094637.000,A,3112.7142,N,12136.4374,E,0.67,0.00,220519,,*1C
$GPGSA,A,3,02,03,12,17,19,,,,,,,,3.7,2.9,2.3*30
$BDGSA,A,3,,,,,,,,,,,,,3.7,2.9,2.3*2D
$GPGSV,2,1,07,02,23,277,45,03,19,041,43,17,70,055,40,12,10,322,46*72
$GPGSV,2,2,07,19,65,355,41,06,00,000,45,22,00,000,26*40
$BDGSV,2,1,07,05,00,000,34,08,00,000,40,13,00,000,41,20,00,000,41*62
$BDGSV,2,2,07,26,00,000,41,29,00,000,38,32,00,000,35*59
$LOGTIM,1,-386.023847,0.000000,0.000000,0.000000,-65.059*33
EndT:        2
---00000047--- Acq_st=3 2019-5-22 09:46:37 
[00]  G02  f 45  -1998.0 2046002.6  1.0  1.0  5  0 294414920
[01]  G03  f 43   2979.4 2045996.1  1.0  1.0  5  0 294414921
[02]  G17  f 40   -585.5 2046000.8  1.0  1.0  5  0 294414931
[03]  G12  f 45  -3300.3 2046004.3  1.0  1.0  5  0 294414918
[04]  G19  f 41  -1402.2 2046001.7  1.0  1.0  5  0 294414931
[05]  G06  f 45   -968.9 2046001.2  1.0  1.0  5  0 294414929
[06]  G22  7 26   3060.0 2045996.0 -0.9 -0.1 10  0        12
[16]  B05 1f 34   -354.3 4092000.7  0.9  0.0  2  0 294400866
[17]  B08 1f 40   -256.7 4092000.7  1.0  1.0  5  0 294400877
[18]  B13 1f 42   -342.7 4092000.9  1.0  1.0  5  0 294400874
[19]  B20 1f 41    789.1 4091997.9  1.0  1.0  5  0 294400924
[20]  B26 1f 41    812.4 4091997.9  1.0  1.0  5  0 294400913
[21]  B29 1f 38   -116.6 4092000.3  1.0  1.0  5  0 294400926
[22]  B32 1f 35   2661.9 4091993.0  1.0  0.9  5  0 294400910
lsq: nits= 2
$GNGGA,094638.000,3112.7134,N,12136.4376,E,1,05,2.9,60.7,M,,,,0000*2F
$GNRMC,094638.000,A,3112.7134,N,12136.4376,E,0.88,0.00,220519,,*11
$GPGSA,A,3,02,03,12,17,19,,,,,,,,3.7,2.9,2.3*30
$BDGSA,A,3,,,,,,,,,,,,,3.7,2.9,2.3*2D
$GPGSV,2,1,07,02,23,277,45,03,19,041,43,17,70,055,40,12,10,322,45*71
$GPGSV,2,2,07,19,65,355,41,06,00,000,45,22,00,000,26*40
$BDGSV,2,1,07,05,00,000,34,08,00,000,40,13,00,000,42,20,00,000,41*61
$BDGSV,2,2,07,26,00,000,41,29,00,000,38,32,00,000,35*59
$LOGTIM,1,-452.544238,0.000000,0.000000,0.000000,-65.075*35
EndT:        2
---00000048--- Acq_st=3 2019-5-22 09:46:38 
[00]  G02  f 45  -1996.6 2046002.6  1.0  1.0  5  0 294415920
[01]  G03  f 43   2981.7 2045996.1  1.0  1.0  5  0 294415921
[02]  G17  f 40   -584.0 2046000.8  1.0  1.0  5  0 294415931
[03]  G12  f 45  -3298.2 2046004.3  1.0  1.0  5  0 294415918
[04]  G19  f 42  -1400.5 2046001.8  1.0  1.0  5  0 294415931
[05]  G06  f 45   -966.8 2046001.2  1.0  1.0  5  0 294415929
[06]  G22  7 26   3061.7 2045996.0 -1.0 -0.0 10  0        12
[16]  B05 1f 33   -352.3 4092001.0  0.9  0.0  2  0 294401866
[17]  B08 1f 40   -255.0 4092000.7  1.0  1.0  5  0 294401877
[18]  B13 1f 41   -340.9 4092000.9  1.0  1.0  5  0 294401874
[19]  B20 1f 41    791.1 4091997.9  1.0  1.0  5  0 294401924
[20]  B26 1f 40    814.6 4091997.8  1.0  1.0  5  0 294401913
[21]  B29 1f 38   -115.0 4092000.3  1.0  1.0  5  0 294401926
[22]  B32 1f 35   2664.2 4091992.9  1.0  1.0  5  0 294401910
lsq: nits= 2
$GNGGA,094639.000,3112.7119,N,12136.4375,E,1,05,2.9,55.0,M,,,,0000*23
$GNRMC,094639.000,A,3112.7119,N,12136.4375,E,1.44,0.00,220519,,*1D
$GPGSA,A,3,02,03,12,17,19,,,,,,,,3.7,2.9,2.3*30
$BDGSA,A,3,,,,,,,,,,,,,3.7,2.9,2.3*2D
$GPGSV,2,1,07,02,23,277,45,03,19,041,43,17,70,055,40,12,10,322,45*71
$GPGSV,2,2,07,19,65,355,42,06,00,000,45,22,00,000,26*43
$BDGSV,2,1,07,05,00,000,33,08,00,000,40,13,00,000,41,20,00,000,41*65
$BDGSV,2,2,07,26,00,000,40,29,00,000,38,32,00,000,35*58
$LOGTIM,1,-520.039571,0.000000,0.000000,0.000000,-65.082*3C
EndT:        2
---00000049--- Acq_st=3 2019-5-22 09:46:39 
[00]  G02  f 44  -1998.5 2046002.6  1.0  1.0  5  0 294416920
[01]  G03  f 42   2979.6 2045996.2  1.0  1.0  5  0 294416921
[02]  G17  f 40   -585.5 2046000.8  1.0  1.0  5  0 294416931
[03]  G12  f 46  -3299.8 2046004.3  1.0  1.0  5  0 294416918
[04]  G19  f 41  -1401.8 2046001.8  1.0  1.0  5  0 294416931
[05]  G06  f 45   -968.6 2046001.3  1.0  1.0  5  0 294416929
[06]  G22  7 26   3059.7 2045996.0 -0.9  0.0 10  0        12
[16]  B05 1f 31   -353.7 4092000.9  0.9  0.0  2  0 294402866
[17]  B08 1f 39   -257.2 4092000.7  1.0  1.0  5  0 294402877
[18]  B13 1f 41   -343.0 4092000.9  1.0  1.0  5  0 294402874
[19]  B20 1f 42    789.8 4091997.9  1.0  1.0  5  0 294402924
[20]  B26 1f 41    812.8 4091997.8  1.0  1.0  5  0 294402913
[21]  B29 1f 38   -116.2 4092000.3  1.0  1.0  5  0 294402926
[22]  B32 1f 35   2662.4 4091993.0  1.0  1.0  5  0 294402910
lsq: nits= 2
$GNGGA,094640.000,3112.7105,N,12136.4378,E,1,05,2.9,50.6,M,,,,0000*2E
$GNRMC,094640.000,A,3112.7105,N,12136.4378,E,1.54,0.00,220519,,*12
$GPGSA,A,3,02,03,12,17,19,,,,,,,,3.7,2.9,2.3*30
$BDGSA,A,3,,,,,,,,,,,,,3.7,2.9,2.3*2D
$GPGSV,2,1,07,02,23,277,44,03,19,041,42,17,70,055,40,12,10,322,46*72
$GPGSV,2,2,07,19,65,355,41,06,00,000,45,22,00,000,26*40
$BDGSV,2,1,07,05,00,000,31,08,00,000,39,13,00,000,41,20,00,000,42*6A
$BDGSV,2,2,07,26,00,000,41,29,00,000,38,32,00,000,35*59
$LOGTIM,1,-587.320657,0.000000,0.000000,0.000000,-65.422*33
EndT:        2
---00000050--- Acq_st=3 2019-5-22 09:46:40 
[00]  G02  f 44  -1999.1 2046002.6  1.0  1.0  5  0 294417920
[01]  G03  f 43   2978.9 2045996.1  1.0  1.0  5  0 294417921
[02]  G17  f 40   -586.2 2046000.8  1.0  1.0  5  0 294417931
[03]  G12  f 46  -3300.6 2046004.3  1.0  1.0  5  0 294417918
[04]  G19  f 41  -1402.1 2046001.8  1.0  1.0  5  0 294417931
[05]  G06  f 45   -969.7 2046001.3  1.0  1.0  5  0 294417929
[06]  G22  7 26   3058.6 2045996.1 -0.9 -0.0 10  0        12
[16]  B05 1f 33   -354.9 4092001.0  0.9  0.0  2  0 294403866
[17]  B08 1f 40   -258.8 4092000.7  1.0  1.0  5  0 294403877
[18]  B13 1f 41   -344.4 4092000.9  1.0  1.0  5  0 294403874
[19]  B20 1f 42    789.4 4091997.9  1.0  1.0  5  0 294403924
[20]  B26 1f 41    812.5 4091997.9  1.0  1.0  5  0 294403913
[21]  B29 1f 38   -116.9 4092000.3  1.0  1.0  5  0 294403926
[22]  B32 1f 35   2660.4 4091993.0  1.0  1.0  5  0 294403910
lsq: nits= 2
$GNGGA,094641.000,3112.7090,N,12136.4380,E,1,05,2.9,46.2,M,,,,0000*26
$GNRMC,094641.000,A,3112.7090,N,12136.4380,E,1.77,0.00,220519,,*18
$GPGSA,A,3,02,03,12,17,19,,,,,,,,3.7,2.9,2.3*30
$BDGSA,A,3,,,,,,,,,,,,,3.7,2.9,2.3*2D
$GPGSV,2,1,07,02,23,277,44,03,19,041,43,17,70,055,40,12,10,322,46*73
$GPGSV,2,2,07,19,65,355,41,06,00,000,45,22,00,000,26*40
$BDGSV,2,1,07,05,00,000,33,08,00,000,40,13,00,000,41,20,00,000,42*66
$BDGSV,2,2,07,26,00,000,41,29,00,000,38,32,00,000,35*59
$LOGTIM,1,-655.101460,0.000000,0.000000,0.000000,-65.790*32
EndT:        2
---00000051--- Acq_st=3 2019-5-22 09:46:41 
[00]  G02  f 44  -2000.9 2046002.6  1.0  1.0  5  0 294418920
[01]  G03  f 42   2977.2 2045996.1  1.0  1.1  5  0 294418921
[02]  G17  f 40   -587.0 2046000.8  1.0  1.0  5  0 294418931
[03]  G12  f 46  -3301.8 2046004.3  1.0  1.0  5  0 294418918
[04]  G19  f 41  -1404.0 2046001.8  1.0  1.0  5  0 294418931
[05]  G06  f 46   -971.1 2046001.2  1.0  1.0  5  0 294418929
[06]  G22  7 26   3057.8 2045996.0 -0.9  0.0 10  0        12
[16]  B05 1f 33   -357.4 4092000.9  0.9  0.0  2  0 294404866
[17]  B08 1f 39   -260.4 4092000.7  1.0  1.0  5  0 294404877
[18]  B13 1f 41   -345.9 4092000.9  1.0  1.0  5  0 294404874
[19]  B20 1f 42    788.0 4091997.9  1.0  1.0  5  0 294404924
[20]  B26 1f 41    810.7 4091997.8  1.0  1.0  5  0 294404913
[21]  B29 1f 38   -118.4 4092000.3  1.0  1.0  5  0 294404926
[22]  B32 1f 35   2659.0 4091993.0  1.0  0.9  5  0 294404910
lsq: nits= 2
$GNGGA,094642.000,3112.7080,N,12136.4380,E,1,05,2.9,43.2,M,,,,0000*21
$GNRMC,094642.000,A,3112.7080,N,12136.4380,E,1.73,0.00,220519,,*1E
$GPGSA,A,3,02,03,12,17,19,,,,,,,,3.7,2.9,2.3*30
$BDGSA,A,3,,,,,,,,,,,,,3.7,2.9,2.3*2D
$GPGSV,2,1,07,02,23,277,44,03,19,041,42,17,70,055,40,12,10,322,46*72
$GPGSV,2,2,07,19,65,355,41,06,00,000,46,22,00,000,26*43
$BDGSV,2,1,07,05,00,000,33,08,00,000,39,13,00,000,41,20,00,000,42*68
$BDGSV,2,2,07,26,00,000,41,29,00,000,38,32,00,000,35*59
$LOGTIM,1,-722.600875,0.000000,0.000000,0.000000,-66.159*3D
EndT:        2
---00000052--- Acq_st=3 2019-5-22 09:46:42 
[00]  G02  f 45  -1997.4 2046002.6  1.0  1.0  5  0 294419920
[01]  G03  f 43   2980.3 2045996.1  1.0  1.0  5  0 294419921
[02]  G17  f 41   -583.7 2046000.7  1.0  1.0  5  0 294419931
[03]  G12  f 46  -3298.4 2046004.3  1.0  1.0  5  0 294419918
[04]  G19  f 40  -1400.3 2046001.9  1.0  1.0  5  0 294419931
[05]  G06  f 46   -967.9 2046001.3  1.0  1.0  5  0 294419929
[16]  B05 1f 33   -353.2 4092000.7  0.9  0.0  2  0 294405866
[17]  B08 1f 40   -257.9 4092000.7  1.0  1.0  5  0 294405877
[18]  B13 1f 41   -342.7 4092000.9  1.0  1.0  5  0 294405874
[19]  B20 1f 42    791.5 4091997.9  1.0  1.0  5  0 294405924
[20]  B26 1f 40    814.2 4091997.9  1.0  1.0  5  0 294405913
[21]  B29 1f 38   -115.1 4092000.3  1.0  1.0  5  0 294405926
[22]  B32 1f 35   2662.9 4091993.0  1.0  0.9  5  0 294405910
lsq: nits= 2
$GNGGA,094643.000,3112.7075,N,12136.4387,E,1,05,2.9,50.1,M,,,,0000*2C
$GNRMC,094643.000,A,3112.7075,N,12136.4387,E,2.15,289.48,220519,,*1E
$GPGSA,A,3,02,03,12,17,19,,,,,,,,3.7,2.9,2.3*30
$BDGSA,A,3,,,,,,,,,,,,,3.7,2.9,2.3*2D
$GPGSV,2,1,06,02,23,277,45,03,19,041,43,17,70,055,41,12,10,322,46*72
$GPGSV,2,2,06,19,65,355,40,06,00,000,46*77
$BDGSV,2,1,07,05,00,000,33,08,00,000,40,13,00,000,41,20,00,000,42*66
$BDGSV,2,2,07,26,00,000,40,29,00,000,38,32,00,000,35*58
$LOGTIM,1,-787.827463,0.000000,0.000000,0.000000,-65.755*3B
EndT:        2
---00000053--- Acq_st=3 2019-5-22 09:46:43 
[00]  G02  f 45  -1997.5 2046002.6  1.0  1.0  5  0 294420920
[01]  G03  f 43   2980.2 2045996.1  1.0  1.0  5  0 294420921
[02]  G17  f 41   -583.6 2046000.7  1.0  1.0  5  0 294420931
[03]  G12  f 47  -3298.5 2046004.3  1.0  1.0  5  0 294420918
[04]  G19  f 40  -1399.9 2046001.8  1.0  1.0  5  0 294420931
[05]  G06  f 46   -967.5 2046001.3  1.0  1.0  5  0 294420929
[16]  B05 1f 34   -354.1 4092001.0  0.9  0.0  2  0 294406866
[17]  B08 1f 39   -257.5 4092000.7  1.0  1.0  5  0 294406877
[18]  B13 1f 41   -342.9 4092000.9  1.0  1.0  5  0 294406874
[19]  B20 1f 41    792.0 4091997.9  1.0  1.0  5  0 294406924
[20]  B26 1f 41    813.9 4091997.9  1.0  1.0  5  0 294406913
[21]  B29 1f 38   -115.0 4092000.2  1.0  1.0  5  0 294406926
[22]  B32 1f 35   2662.8 4091993.0  1.0  1.0  5  0 294406910
lsq: nits= 2
$GNGGA,094644.000,3112.7077,N,12136.4390,E,1,05,2.9,54.7,M,,,,0000*2D
$GNRMC,094644.000,A,3112.7077,N,12136.4390,E,1.67,289.48,220519,,*1B
$GPGSA,A,3,02,03,12,17,19,,,,,,,,3.7,2.9,2.3*30
$BDGSA,A,3,,,,,,,,,,,,,3.7,2.9,2.3*2D
$GPGSV,2,1,06,02,23,277,45,03,19,041,43,17,70,055,41,12,10,322,47*73
$GPGSV,2,2,06,19,65,355,40,06,00,000,46*77
$BDGSV,2,1,07,05,00,000,34,08,00,000,39,13,00,000,41,20,00,000,41*6C
$BDGSV,2,2,07,26,00,000,41,29,00,000,38,32,00,000,35*59
$LOGTIM,1,-851.700269,0.000000,0.000000,0.000000,-65.451*3E
EndT:        2
---00000054--- Acq_st=7 2019-5-22 09:46:44 
[00]  G02  f 46  -1998.0 2046002.6  1.0  1.0  5  0 294421920
[01]  G03  f 43   2980.3 2045996.1  1.0  1.0  5  0 294421921
[02]  G17  f 42   -583.6 2046000.7  1.0  1.0  5  0 294421931
[03]  G12  f 46  -3298.1 2046004.3  1.0  1.0  5  0 294421918
[04]  G19  f 40  -1400.2 2046001.8  1.0  1.0  5  0 294421931
