FlashID=0x1 0x20 0x18
BBram_blkflag1:  977: f688
FW Ver: 1.30  
GPS00 Init Dop:   5000, 40
GPS01 Init Dop:   5000, 40
GPS02 Init Dop:   5000, 40
GPS03 Init Dop:   5000, 40
GPS04 Init Dop:   5000, 40
GPS05 Init Dop:   5000, 40
GPS06 Init Dop:   5000, 40
GPS07 Init Dop:   5000, 40
GPS08 Init Dop:   5000, 40
GPS09 Init Dop:   5000, 40
GPS10 Init Dop:   5000, 40
GPS11 Init Dop:   5000, 40
GPS12 Init Dop:   5000, 40
GPS13 Init Dop:   5000, 40
GPS14 Init Dop:   5000, 40
GPS15 Init Dop:   5000, 40
GPS16 Init Dop:   5000, 40
GPS17 Init Dop:   5000, 40
GPS18 Init Dop:   5000, 40
GPS19 Init Dop:   5000, 40
GPS20 Init Dop:   5000, 40
GPS21 Init Dop:   5000, 40
GPS22 Init Dop:   5000, 40
GPS23 Init Dop:   5000, 40
GPS24 Init Dop:   5000, 40
GPS25 Init Dop:   5000, 40
GPS26 Init Dop:   5000, 40
GPS27 Init Dop:   5000, 40
GPS28 Init Dop:   5000, 40
GPS29 Init Dop:   5000, 40
GPS30 Init Dop:   5000, 40
GPS31 Init Dop:   5000, 40
BDS00 Init Dop:   5000, 40
BDS01 Init Dop:   5000, 40
BDS02 Init Dop:   5000, 40
BDS03 Init Dop:   5000, 40
BDS04 Init Dop:   5000, 40
BDS05 Init Dop:   5000, 40
BDS06 Init Dop:   5000, 40
BDS07 Init Dop:   5000, 40
BDS08 Init Dop:   5000, 40
BDS09 Init Dop:   5000, 40
BDS10 Init Dop:   5000, 40
BDS11 Init Dop:   5000, 40
BDS12 Init Dop:   5000, 40
BDS13 Init Dop:   5000, 40
BDS14 Init Dop:   5000, 40
BDS15 Init Dop:   5000, 40
BDS16 Init Dop:   5000, 40
BDS17 Init Dop:   5000, 40
BDS18 Init Dop:   5000, 40
BDS19 Init Dop:   5000, 40
BDS20 Init Dop:   5000, 40
BDS21 Init Dop:   5000, 40
BDS22 Init Dop:   5000, 40
BDS23 Init Dop:   5000, 40
BDS24 Init Dop:   5000, 40
BDS25 Init Dop:   5000, 40
BDS26 Init Dop:   5000, 40
BDS27 Init Dop:   5000, 40
BDS28 Init Dop:   5000, 40
BDS29 Init Dop:   5000, 40
BDS30 Init Dop:   5000, 40
BDS31 Init Dop:   5000, 40
good luck!
---00000001--- Acq_st=3 2019-5-22 10:50:40 
[00]  G02  1  7  -1726.7 2046004.1 -0.1  0.0  1  0         0
$GNGGA,000000.000,,,,,0,00,,,M,,,,0000*2B
$GNRMC,000000.000,A,,,,,,,000000,,*26
$GPGSA,A,1,,,,,,,,,,,,,,,*1E
$BDGSA,A,1,,,,,,,,,,,,,,,*0F
$LOGTIM,0,0.000000,0.000000,0.000000,0.000000,0.000*0A
EndT:        0
---00000002--- Acq_st=3 2019-5-22 10:50:41 
[00]  G02  7 16  -1796.4 2046002.2  0.2  0.0 20  0        10
[01]  G06  1  7   -310.0 2046002.7  0.0  0.0  1  0         0
$GNGGA,000000.000,,,,,0,00,,,M,,,,0000*2B
$GNRMC,000000.000,A,,,,,,,000000,,*26
$GPGSA,A,1,,,,,,,,,,,,,,,*1E
$BDGSA,A,1,,,,,,,,,,,,,,,*0F
$GPGSV,1,1,01,02,00,000,16*4D
$LOGTIM,0,0.000000,0.000000,0.000000,0.000000,0.000*0A
EndT:        0
---00000003--- Acq_st=3 2019-5-22 10:50:42 
[00]  G02  7 40  -1796.1 2046002.3  1.0  1.0  5  0        16
[01]  G06  7 31   -339.0 2046000.6  0.1  0.0  5  0         8
$GNGGA,000000.000,,,,,0,00,,,M,,,,0000*2B
$GNRMC,000000.000,A,,,,,,,000000,,*26
$GPGSA,A,1,,,,,,,,,,,,,,,*1E
$BDGSA,A,1,,,,,,,,,,,,,,,*0F
$GPGSV,1,1,02,02,00,000,40,06,00,000,31*79
$LOGTIM,0,0.000000,0.000000,0.000000,0.000000,0.000*0A
EndT:        0
---00000004--- Acq_st=3 2019-5-22 10:50:43 
[00]  G02  f 41  -1798.2 2046002.3  1.0  1.0  5  0        16
[01]  G06  7 45   -341.2 2046000.4  0.9  1.0  5  0         2
[02]  G12  1 26  -1277.2 2046003.7  0.1  0.0  1  0         0
$GNGGA,000000.000,,,,,0,00,,,M,,,,0000*2B
$GNRMC,000000.000,A,,,,,,,000000,,*26
$GPGSA,A,1,,,,,,,,,,,,,,,*1E
$BDGSA,A,1,,,,,,,,,,,,,,,*0F
$GPGSV,1,1,02,02,00,000,41,06,00,000,45*7B
$LOGTIM,0,0.000000,0.000000,0.000000,0.000000,0.000*0A
EndT:        0
---00000005--- Acq_st=3 2019-5-22 10:50:44 
[00]  G02  f 41  -1799.6 2046002.3  1.0  1.0  5  0 298261856
[01]  G06  7 49   -342.6 2046000.4  1.0  1.0  5  0         2
[02]  G12  7 25  -1279.1 2046001.6  0.3  0.0 20  0         3
$GNGGA,000000.000,,,,,0,00,,,M,,,,0000*2B
$GNRMC,000000.000,A,,,,,,,000000,,*26
$GPGSA,A,1,,,,,,,,,,,,,,,*1E
$BDGSA,A,1,,,,,,,,,,,,,,,*0F
$GPGSV,1,1,03,02,00,000,41,06,00,000,49,12,00,000,25*42
$LOGTIM,0,0.000000,0.000000,0.000000,0.000000,0.000*0A
EndT:        0
---00000006--- Acq_st=3 2019-5-22 10:50:45 
[00]  G02  f 41  -1799.9 2046002.4  1.0  1.0  5  0 298262856
[01]  G06  7 49   -342.6 2046000.4  1.0  1.0  5  0         2
[02]  G12  7 47  -1278.5 2046001.6  1.0  1.0  5  0        15
$GNGGA,000000.000,,,,,0,00,,,M,,,,0000*2B
$GNRMC,000000.000,A,,,,,,,000000,,*26
$GPGSA,A,1,,,,,,,,,,,,,,,*1E
$BDGSA,A,1,,,,,,,,,,,,,,,*0F
$GPGSV,1,1,03,02,00,000,41,06,00,000,49,12,00,000,47*46
$LOGTIM,0,0.000000,0.000000,0.000000,0.000000,0.000*0A
EndT:        0
---00000007--- Acq_st=3 2019-5-22 10:50:46 
[00]  G02  f 42  -1797.0 2046002.3  1.0  1.0  5  0 298263856
[01]  G06  7 49   -339.5 2046000.4  1.0  1.0  5  0         2
[02]  G12  7 47  -1275.1 2046001.6  1.0  1.0  5  0        15
[03]  G23  1  7    919.1 2045999.2  0.1  0.0  1  0         0
$GNGGA,000000.000,,,,,0,00,,,M,,,,0000*2B
$GNRMC,000000.000,A,,,,,,,000000,,*26
$GPGSA,A,1,,,,,,,,,,,,,,,*1E
$BDGSA,A,1,,,,,,,,,,,,,,,*0F
$GPGSV,1,1,03,02,00,000,42,06,00,000,49,12,00,000,47*45
$LOGTIM,0,0.000000,0.000000,0.000000,0.000000,0.000*0A
EndT:        0
---00000008--- Acq_st=3 2019-5-22 10:50:47 
[00]  G02  f 42  -1795.3 2046002.3  1.0  1.0  5  0 298264856
[01]  G06  7 48   -337.9 2046000.4  1.0  1.0  5  0         2
[02]  G12  7 46  -1273.0 2046001.6  1.0  1.0  5  0        15
[03]  G23  7 22    952.5 2045998.7  0.2  0.0 20  0        15
[04]  G25  1 23  -2659.4 2046005.7  0.1  0.0  1  0         0
$GNGGA,000000.000,,,,,0,00,,,M,,,,0000*2B
$GNRMC,000000.000,A,,,,,,,000000,,*26
$GPGSA,A,1,,,,,,,,,,,,,,,*1E
$BDGSA,A,1,,,,,,,,,,,,,,,*0F
$GPGSV,1,1,04,02,00,000,42,06,00,000,48,12,00,000,46,23,00,000,22*73
$LOGTIM,0,0.000000,0.000000,0.000000,0.000000,0.000*0A
EndT:        0
---00000009--- Acq_st=3 2019-5-22 10:50:48 
[00]  G02  f 42  -1796.1 2046002.3  1.0  1.0  5  0 298265856
[01]  G06  7 48   -338.4 2046000.4  1.0  1.0  5  0         2
[02]  G12  7 46  -1273.0 2046001.7  1.0  1.0  5  0        15
[03]  G23  7 39    952.2 2045998.7  0.5  1.0  5  0        12
[04]  G25  7 31  -2650.9 2046003.4  0.7  1.0  5  0        14
$GNGGA,000000.000,,,,,0,00,,,M,,,,0000*2B
$GNRMC,000000.000,A,,,,,,,000000,,*26
$GPGSA,A,1,,,,,,,,,,,,,,,*1E
$BDGSA,A,1,,,,,,,,,,,,,,,*0F
$GPGSV,2,1,05,02,00,000,42,06,00,000,48,12,00,000,46,23,00,000,39*7B
$GPGSV,2,2,05,25,00,000,31*49
$LOGTIM,0,0.000000,0.000000,0.000000,0.000000,0.000*0A
EndT:        0
---00000010--- Acq_st=3 2019-5-22 10:50:49 
[00]  G02  f 41  -1796.4 2046002.3  1.0  1.0  5  0 298266856
[01]  G06  f 48   -338.6 2046000.4  1.0  1.0  5  0         2
[02]  G12  f 45  -1273.0 2046001.7  1.0  1.0  5  0        15
[03]  G23  f 39    952.6 2045998.7  1.0  1.0  5  0        12
[04]  G25  7 41  -2650.6 2046003.4  1.0  1.0  5  0         6
$GNGGA,000000.000,,,,,0,00,,,M,,,,0000*2B
$GNRMC,000000.000,A,,,,,,,000000,,*26
$GPGSA,A,1,,,,,,,,,,,,,,,*1E
$BDGSA,A,1,,,,,,,,,,,,,,,*0F
$GPGSV,2,1,05,02,00,000,41,06,00,000,48,12,00,000,45,23,00,000,39*7B
$GPGSV,2,2,05,25,00,000,41*4E
$LOGTIM,0,0.000000,0.000000,0.000000,0.000000,0.000*0A
EndT:        0
---00000011--- Acq_st=3 2019-5-22 10:50:50 
[00]  G02  f 42  -1796.5 2046002.3  1.0  1.0  5  0 298267856
[01]  G06  f 48   -338.8 2046000.4  1.0  1.0  5  0 298267862
[02]  G12  f 46  -1272.4 2046001.6  1.0  1.0  5  0 298267855
[03]  G23  f 39    952.5 2045998.7  1.0  1.0  5  0 298267852
[04]  G25  7 42  -2650.4 2046003.4  1.0  1.0  5  0         6
$GNGGA,000000.000,,,,,0,00,,,M,,,,0000*2B
$GNRMC,000000.000,A,,,,,,,000000,,*26
$GPGSA,A,1,,,,,,,,,,,,,,,*1E
$BDGSA,A,1,,,,,,,,,,,,,,,*0F
$GPGSV,2,1,05,02,00,000,42,06,00,000,48,12,00,000,46,23,00,000,39*7B
$GPGSV,2,2,05,25,00,000,42*4D
$LOGTIM,0,0.000000,0.000000,0.000000,0.000000,0.000*0A
EndT:        0
---00000012--- Acq_st=3 2019-5-22 10:50:51 
[00]  G02  f 42  -1794.0 2046002.3  1.0  1.0  5  0 298268856
[01]  G06  f 49   -336.1 2046000.5  1.0  1.0  5  0 298268862
[02]  G12  f 46  -1269.4 2046001.6  1.0  1.0  5  0 298268855
[03]  G23  f 38    956.2 2045998.7  1.0  1.0  5  0 298268852
[04]  G25  7 42  -2647.4 2046003.4  1.0  1.0  5  0         6
$GNGGA,000000.000,,,,,0,00,,,M,,,,0000*2B
$GNRMC,000000.000,A,,,,,,,000000,,*26
$GPGSA,A,1,,,,,,,,,,,,,,,*1E
$BDGSA,A,1,,,,,,,,,,,,,,,*0F
$GPGSV,2,1,05,02,00,000,42,06,00,000,49,12,00,000,46,23,00,000,38*7B
$GPGSV,2,2,05,25,00,000,42*4D
$LOGTIM,0,0.000000,0.000000,0.000000,0.000000,0.000*0A
EndT:        0
---00000013--- Acq_st=3 2019-5-22 10:50:52 
[00]  G02  f 42  -1796.1 2046002.3  1.0  1.0  5  0 298269856
[01]  G06  f 48   -338.0 2046000.4  1.0  1.0  5  0 298269862
[02]  G12  f 45  -1270.5 2046001.6  1.0  1.0  5  0 298269855
[03]  G23  f 37    954.4 2045998.8  1.0  1.0  5  0 298269852
[04]  G25  7 42  -2649.1 2046003.5  1.0  1.0  5  0         6
[16]  B05  1 22   -354.2 4092000.3  0.2  0.0  1  0         0
$GNGGA,000000.000,,,,,0,00,,,M,,,,0000*2B
$GNRMC,000000.000,A,,,,,,,000000,,*26
$GPGSA,A,1,,,,,,,,,,,,,,,*1E
$BDGSA,A,1,,,,,,,,,,,,,,,*0F
$GPGSV,2,1,05,02,00,000,42,06,00,000,48,12,00,000,45,23,00,000,37*76
$GPGSV,2,2,05,25,00,000,42*4D
$LOGTIM,0,0.000000,0.000000,0.000000,0.000000,0.000*0A
EndT:        0
---00000014--- Acq_st=3 2019-5-22 10:50:53 
[00]  G02  f 43  -1796.5 2046002.3  1.0  1.0  5  0 298270856
[01]  G06  f 48   -338.5 2046000.4  1.0  1.0  5  0 298270862
[02]  G12  f 45  -1270.9 2046001.6  1.0  1.0  5  0 298270855
[03]  G23  f 37    953.8 2045998.8  1.0  1.0  5  0 298270852
[04]  G25  7 42  -2649.2 2046003.4  1.0  1.0  5  0         6
[16]  B05  7 35   -348.3 4092000.8  0.9  0.0  2  0       981
[17]  B08  1  7   -504.2 4092003.0  0.1  0.0  1  0         0
$GNGGA,000000.000,,,,,0,00,,,M,,,,0000*2B
$GNRMC,000000.000,A,,,,,,,000000,,*26
$GPGSA,A,1,,,,,,,,,,,,,,,*1E
$BDGSA,A,1,,,,,,,,,,,,,,,*0F
$GPGSV,2,1,05,02,00,000,43,06,00,000,48,12,00,000,45,23,00,000,37*77
$GPGSV,2,2,05,25,00,000,42*4D
$BDGSV,1,1,01,05,00,000,35*5A
$LOGTIM,0,0.000000,0.000000,0.000000,0.000000,0.000*0A
EndT:        0
---00000015--- Acq_st=3 2019-5-22 10:50:54 
[00]  G02  f 42  -1796.2 2046002.4  1.0  1.0  5  0 298271856
[01]  G06  f 49   -338.4 2046000.4  1.0  1.0  5  0 298271862
[02]  G12  f 45  -1270.4 2046001.6  1.0  1.0  5  0 298271855
[03]  G23  f 37    955.3 2045998.7  1.0  1.0  5  0 298271852
[04]  G25  7 42  -2648.7 2046003.4  1.0  1.0  5  0         6
[16]  B05  f 35   -347.2 4092000.8  0.9  0.0  2  0       198
[17]  B08  1  7   -558.6 4092001.9  0.3  0.0  1  0       164
$GNGGA,000000.000,,,,,0,00,,,M,,,,0000*2B
$GNRMC,000000.000,A,,,,,,,000000,,*26
$GPGSA,A,1,,,,,,,,,,,,,,,*1E
$BDGSA,A,1,,,,,,,,,,,,,,,*0F
$GPGSV,2,1,05,02,00,000,42,06,00,000,49,12,00,000,45,23,00,000,37*77
$GPGSV,2,2,05,25,00,000,42*4D
$BDGSV,1,1,01,05,00,000,35*5A
$LOGTIM,0,0.000000,0.000000,0.000000,0.000000,0.000*0A
EndT:        0
---00000016--- Acq_st=3 2019-5-22 10:50:55 
[00]  G02  f 43  -1796.0 2046002.4  1.0  1.0  5  0 298272856
[01]  G06  f 49   -337.4 2046000.4  1.0  1.0  5  0 298272862
[02]  G12  f 46  -1268.6 2046001.6  1.0  1.0  5  0 298272855
[03]  G23  f 38    956.1 2045998.7  1.0  1.0  5  0 298272852
[04]  G25  f 43  -2647.5 2046003.5  1.0  1.0  5  0         6
[16]  B05  f 33   -346.6 4092000.8  0.8  0.0  2  0 298259398
[17]  B08  7 35   -557.6 4092001.4  0.8  1.0  5  0      1164
$GNGGA,000000.000,,,,,0,00,,,M,,,,0000*2B
$GNRMC,000000.000,A,,,,,,,000000,,*26
$GPGSA,A,1,,,,,,,,,,,,,,,*1E
$BDGSA,A,1,,,,,,,,,,,,,,,*0F
$GPGSV,2,1,05,02,00,000,43,06,00,000,49,12,00,000,46,23,00,000,38*7A
$GPGSV,2,2,05,25,00,000,43*4C
$BDGSV,1,1,02,05,00,000,33,08,00,000,35*61
$LOGTIM,0,0.000000,0.000000,0.000000,0.000000,0.000*0A
EndT:        0
---00000017--- Acq_st=3 2019-5-22 10:50:56 
[00]  G02  f 43  -1794.9 2046002.3  1.0  1.0  5  0 298273856
[01]  G06  f 49   -336.3 2046000.4  1.0  1.0  5  0 298273862
[02]  G12  f 46  -1267.2 2046001.7  1.0  1.0  5  0 298273855
[03]  G23  f 38    956.9 2045998.8  1.0  1.0  5  0 298273852
[04]  G25  f 42  -2646.1 2046003.4  1.0  1.0  5  0 298273846
[16]  B05 1f 36   -345.9 4092000.8  0.9  0.0  2  0 298260398
[17]  B08  7 41   -556.6 4092001.4  1.0  1.0  5  0      2149
[18]  B12  1  7  -3073.3 4092007.2 -0.1  0.0  1  0         0
[19]  B13  1  7   -448.6 4092002.6 -0.0  0.0  1  0         0
$GNGGA,000000.000,,,,,0,00,,,M,,,,0000*2B
$GNRMC,000000.000,A,,,,,,,000000,,*26
$GPGSA,A,1,,,,,,,,,,,,,,,*1E
$BDGSA,A,1,,,,,,,,,,,,,,,*0F
$GPGSV,2,1,05,02,00,000,43,06,00,000,49,12,00,000,46,23,00,000,38*7A
$GPGSV,2,2,05,25,00,000,42*4D
$BDGSV,1,1,02,05,00,000,36,08,00,000,41*67
$LOGTIM,0,0.000000,0.000000,0.000000,0.000000,0.000*0A
EndT:        0
---00000018--- Acq_st=3 2019-5-22 10:50:57 
[00]  G02  f 43  -1794.0 2046002.3  1.0  1.0  5  0 298274856
[01]  G06  f 49   -335.6 2046000.4  1.0  1.0  5  0 298274862
[02]  G12  f 46  -1265.6 2046001.6  1.0  1.0  5  0 298274855
[03]  G23  f 37    958.5 2045998.8  1.0  1.0  5  0 298274852
[04]  G25  f 43  -2645.1 2046003.4  1.0  1.0  5  0 298274846
[16]  B05 1f 34   -345.1 4092000.8  0.8  0.0  2  0 298260798
[17]  B08 1f 42   -556.7 4092001.4  1.0  1.0  5  0      3149
[18]  B12  7 26  -3071.8 4092008.2  0.4  0.0 20  0       743
[19]  B13  1  7   -582.6 4092002.2  0.1  0.0  1  0       137
$GNGGA,000000.000,,,,,0,00,,,M,,,,0000*2B
$GNRMC,000000.000,A,,,,,,,000000,,*26
$GPGSA,A,1,,,,,,,,,,,,,,,*1E
$BDGSA,A,1,,,,,,,,,,,,,,,*0F
$GPGSV,2,1,05,02,00,000,43,06,00,000,49,12,00,000,46,23,00,000,37*75
$GPGSV,2,2,05,25,00,000,43*4C
$BDGSV,1,1,03,05,00,000,34,08,00,000,42,12,00,000,26*50
$LOGTIM,0,0.000000,0.000000,0.000000,0.000000,0.000*0A
EndT:        0
---00000019--- Acq_st=3 2019-5-22 10:50:58 
[00]  G02  f 42  -1793.5 2046002.3  1.0  1.0  5  0 298275856
[01]  G06  f 48   -334.6 2046000.5  1.0  1.0  5  0 298275862
[02]  G12  f 46  -1264.5 2046001.6  1.0  1.0  5  0 298275855
[03]  G23  f 37    959.8 2045998.7  1.0  1.0  5  0 298275852
[04]  G25  f 43  -2643.9 2046003.4  1.0  1.0  5  0 298275846
[16]  B05 1f 33   -344.7 4092001.0  0.9  0.0  2  0 298261798
[17]  B08 1f 42   -555.9 4092001.5  1.0  1.0  5  0 298261809
[18]  B12  7 37  -3071.7 4092008.1  1.0  1.0  5  0      1727
[19]  B13  7 33   -582.4 4092001.5  0.7  1.0  5  0      1137
$GNGGA,000000.000,,,,,0,00,,,M,,,,0000*2B
$GNRMC,000000.000,A,,,,,,,000000,,*26
$GPGSA,A,1,,,,,,,,,,,,,,,*1E
$BDGSA,A,1,,,,,,,,,,,,,,,*0F
$GPGSV,2,1,05,02,00,000,42,06,00,000,48,12,00,000,46,23,00,000,37*75
$GPGSV,2,2,05,25,00,000,43*4C
$BDGSV,1,1,04,05,00,000,33,08,00,000,42,12,00,000,37,13,00,000,33*62
$LOGTIM,0,0.000000,0.000000,0.000000,0.000000,0.000*0A
EndT:        0
---00000020--- Acq_st=3 2019-5-22 10:50:59 
[00]  G02  f 43  -1789.6 2046002.3  1.0  1.0  5  0 298276856
[01]  G06  f 48   -331.3 2046000.4  1.0  1.0  5  0 298276862
[02]  G12  f 46  -1260.2 2046001.6  1.0  1.0  5  0 298276855
[03]  G23  f 37    963.8 2045998.7  1.0  1.0  5  0 298276852
[04]  G25  f 41  -2639.9 2046003.4  1.0  1.0  5  0 298276846
[16]  B05 1f 35   -341.0 4092001.0  0.9  0.0  2  0 298262798
[17]  B08 1f 42   -552.3 4092001.4  1.0  1.0  5  0 298262809
[18]  B12  7 36  -3067.6 4092008.0  1.0  1.0  5  0      2727
[19]  B13  7 39   -578.8 4092001.5  1.0  1.0  5  0      2126
$GNGGA,000000.000,,,,,0,00,,,M,,,,0000*2B
$GNRMC,000000.000,A,,,,,,,000000,,*26
$GPGSA,A,1,,,,,,,,,,,,,,,*1E
$BDGSA,A,1,,,,,,,,,,,,,,,*0F
$GPGSV,2,1,05,02,00,000,43,06,00,000,48,12,00,000,46,23,00,000,37*74
$GPGSV,2,2,05,25,00,000,41*4E
$BDGSV,1,1,04,05,00,000,35,08,00,000,42,12,00,000,36,13,00,000,39*6F
$LOGTIM,0,0.000000,0.000000,0.000000,0.000000,0.000*0A
EndT:        0
---00000021--- Acq_st=3 2019-5-22 10:51:0 
[00]  G02  f 43  -1787.1 2046002.3  1.0  1.0  5  0 298277856
[01]  G06  f 48   -327.8 2046000.4  1.0  1.0  5  0 298277862
[02]  G12  f 46  -1256.8 2046001.6  1.0  1.0  5  0 298277855
[03]  G23  f 36    967.3 2045998.8  1.0  1.0  5  0 298277852
[04]  G25  f 42  -2636.6 2046003.4  1.0  1.0  5  0 298277846
[16]  B05 1f 34   -337.9 4092001.0  0.9  0.0  2  0 298263798
[17]  B08 1f 42   -549.2 4092001.4  1.0  1.0  5  0 298263809
[18]  B12  7 36  -3065.2 4092008.1  1.0  1.0  5  0      3727
[19]  B13  7 39   -576.0 4092001.5  1.0  0.9  5  0      3126
[20]  B19  1  7   -310.4 4092001.8  0.0  0.0  1  0         0
$GNGGA,000000.000,,,,,0,00,,,M,,,,0000*2B
$GNRMC,000000.000,A,,,,,,,000000,,*26
$GPGSA,A,1,,,,,,,,,,,,,,,*1E
$BDGSA,A,1,,,,,,,,,,,,,,,*0F
$GPGSV,2,1,05,02,00,000,43,06,00,000,48,12,00,000,46,23,00,000,35*76
$GPGSV,2,2,05,25,00,000,42*4D
$BDGSV,1,1,04,05,00,000,34,08,00,000,42,12,00,000,36,13,00,000,39*6E
$LOGTIM,0,0.000000,0.000000,0.000000,0.000000,0.000*0A
EndT:        0
---00000022--- Acq_st=3 2019-5-22 10:51:1 
[00]  G02  f 43  -1788.0 2046002.3  1.0  1.0  5  0 298278856
[01]  G06  f 48   -328.8 2046000.4  1.0  1.0  5  0 298278862
[02]  G12  f 46  -1257.2 2046001.6  1.0  1.0  5  0 298278855
[03]  G23  f 37    966.3 2045998.8  1.0  1.0  5  0 298278852
[04]  G25  f 42  -2637.0 2046003.5  1.0  1.0  5  0 298278846
[16]  B05 1f 33   -339.6 4092000.9  0.9  0.0  2  0 298264798
[17]  B08 1f 42   -550.3 4092001.4  1.0  1.0  5  0 298264809
[18]  B12  7 36  -3065.3 4092008.0  1.0  1.0  5  0      4727
[19]  B13  7 39   -577.2 4092001.5  1.0  1.0  5  0      4126
[20]  B19  7 19   -290.3 4092000.8  0.1  0.0 20  0       505
[21]  B20  1  7   2289.9 4091993.9  0.0  0.0  1  0         0
$GNGGA,000000.000,,,,,0,00,,,M,,,,0000*2B
$GNRMC,000000.000,A,,,,,,,000000,,*26
$GPGSA,A,1,,,,,,,,,,,,,,,*1E
$BDGSA,A,1,,,,,,,,,,,,,,,*0F
$GPGSV,2,1,05,02,00,000,43,06,00,000,48,12,00,000,46,23,00,000,37*74
$GPGSV,2,2,05,25,00,000,42*4D
$BDGSV,2,1,05,05,00,000,33,08,00,000,42,12,00,000,36,13,00,000,39*6B
$BDGSV,2,2,05,19,00,000,19*5D
$LOGTIM,0,0.000000,0.000000,0.000000,0.000000,0.000*0A
EndT:        0
---00000023--- Acq_st=3 2019-5-22 10:51:2 
[00]  G02  f 43  -1789.4 2046002.3  1.0  1.0  5  0 298279856
[01]  G06  f 48   -330.0 2046000.4  1.0  1.0  5  0 298279862
[02]  G12  f 46  -1257.8 2046001.7  1.0  1.0  5  0 298279855
[03]  G23  f 38    965.7 2045998.8  1.0  1.0  5  0 298279852
[04]  G25  f 42  -2638.1 2046003.5  1.0  1.0  5  0 298279846
[16]  B05 1f 33   -340.5 4092001.0  0.9  0.0  2  0 298265798
[17]  B08 1f 42   -552.0 4092001.4  1.0  1.0  5  0 298265809
[18]  B12  7 35  -3066.9 4092008.1  1.0  1.0  5  0      5727
[19]  B13  7 39   -578.4 4092001.5  1.0  1.0  5  0      5126
[20]  B19  7 35   -295.9 4092000.8  0.6  1.0  5  0      1500
[21]  B20  7 30   2288.7 4091994.0  0.6  1.0  5  0       899
$GNGGA,000000.000,,,,,0,00,,,M,,,,0000*2B
$GNRMC,000000.000,A,,,,,,,000000,,*26
$GPGSA,A,1,,,,,,,,,,,,,,,*1E
$BDGSA,A,1,,,,,,,,,,,,,,,*0F
$GPGSV,2,1,05,02,00,000,43,06,00,000,48,12,00,000,46,23,00,000,38*7B
$GPGSV,2,2,05,25,00,000,42*4D
$BDGSV,2,1,06,05,00,000,33,08,00,000,42,12,00,000,35,13,00,000,39*6B
$BDGSV,2,2,06,19,00,000,35,20,00,000,30*61
$LOGTIM,0,0.000000,0.000000,0.000000,0.000000,0.000*0A
EndT:        0
---00000024--- Acq_st=3 2019-5-22 10:51:3 
[00]  G02  f 43  -1790.9 2046002.3  1.0  1.0  5  0 298280856
[01]  G06  f 48   -331.4 2046000.4  1.0  1.0  5  0 298280862
[02]  G12  f 46  -1258.9 2046001.6  1.0  1.0  5  0 298280855
[03]  G23  f 38    965.0 2045998.8  1.0  1.0  5  0 298280852
[04]  G25  f 41  -2639.0 2046003.5  1.0  1.0  5  0 298280846
[16]  B05 1f 34   -341.7 4092001.0  0.9  0.0  2  0 298266798
[17]  B08 1f 42   -553.7 4092001.5  1.0  1.0  5  0 298266809
[18]  B12 1f 35  -3069.1 4092008.0  1.0  0.9  5  0      6727
[19]  B13 1f 39   -579.9 4092001.5  1.0  1.0  5  0      6126
[20]  B19 1f 34   -297.1 4092000.8  1.0  0.9  5  0      2500
[21]  B20  7 43   2287.3 4091994.0  1.0  1.0  5  0      1891
$GNGGA,000000.000,,,,,0,00,,,M,,,,0000*2B
$GNRMC,000000.000,A,,,,,,,000000,,*26
$GPGSA,A,1,,,,,,,,,,,,,,,*1E
$BDGSA,A,1,,,,,,,,,,,,,,,*0F
$GPGSV,2,1,05,02,00,000,43,06,00,000,48,12,00,000,46,23,00,000,38*7B
$GPGSV,2,2,05,25,00,000,41*4E
$BDGSV,2,1,06,05,00,000,34,08,00,000,42,12,00,000,35,13,00,000,39*6C
$BDGSV,2,2,06,19,00,000,34,20,00,000,43*64
$LOGTIM,0,0.000000,0.000000,0.000000,0.000000,0.000*0A
EndT:        0
---00000025--- Acq_st=3 2019-5-22 10:51:4 
[00]  G02  f 42  -1789.6 2046002.3  1.0  1.0  5  0 298281856
[01]  G06  f 48   -330.3 2046000.4  1.0  1.0  5  0 298281862
[02]  G12  f 46  -1257.1 2046001.6  1.0  1.0  5  0 298281855
[03]  G23  f 37    965.9 2045998.7  1.0  1.0  5  0 298281852
[04]  G25  f 41  -2637.9 2046003.4  1.0  1.0  5  0 298281846
[16]  B05 1f 33   -341.0 4092000.8  0.9  0.0  2  0 298267798
[17]  B08 1f 42   -552.8 4092001.4  1.0  1.0  5  0 298267809
[18]  B12 1f 35  -3067.7 4092008.0  1.0  1.0  5  0 298267847
[19]  B13 1f 39   -579.2 4092001.5  1.0  1.0  5  0 298267806
[20]  B19 1f 34   -294.9 4092000.8  1.0  1.0  5  0 298267860
[21]  B20  7 43   2288.3 4091994.0  1.0  1.0  5  0      2891
$GNGGA,000000.000,,,,,0,00,,,M,,,,0000*2B
$GNRMC,000000.000,A,,,,,,,000000,,*26
$GPGSA,A,1,,,,,,,,,,,,,,,*1E
$BDGSA,A,1,,,,,,,,,,,,,,,*0F
$GPGSV,2,1,05,02,00,000,42,06,00,000,48,12,00,000,46,23,00,000,37*75
$GPGSV,2,2,05,25,00,000,41*4E
$BDGSV,2,1,06,05,00,000,33,08,00,000,42,12,00,000,35,13,00,000,39*6B
$BDGSV,2,2,06,19,00,000,34,20,00,000,43*64
$LOGTIM,0,0.000000,0.000000,0.000000,0.000000,0.000*0A
EndT:        0
---00000026--- Acq_st=3 2019-5-22 10:51:5 
[00]  G02  f 42  -1791.3 2046002.4  1.0  1.0  5  0 298282856
[01]  G06  f 48   -331.6 2046000.4  1.0  1.0  5  0 298282862
[02]  G12  f 45  -1257.8 2046001.6  1.0  1.0  5  0 298282855
[03]  G23  f 37    965.3 2045998.7  1.0  1.0  5  0 298282852
[04]  G25  f 42  -2638.8 2046003.4  1.0  1.0  5  0 298282846
[16]  B05 1f 33   -342.5 4092000.7  0.9  0.0  2  0 298268798
[17]  B08 1f 42   -553.9 4092001.4  1.0  1.0  5  0 298268809
[18]  B12 1f 35  -3069.1 4092008.0  1.0  1.0  5  0 298268847
[19]  B13 1f 39   -580.9 4092001.5  1.0  1.0  5  0 298268806
[20]  B19 1f 35   -296.1 4092000.7  1.0  1.0  5  0 298268860
[21]  B20  7 44   2287.3 4091994.0  1.0  1.0  5  0      3891
$GNGGA,000000.000,,,,,0,00,,,M,,,,0000*2B
$GNRMC,000000.000,A,,,,,,,000000,,*26
$GPGSA,A,1,,,,,,,,,,,,,,,*1E
$BDGSA,A,1,,,,,,,,,,,,,,,*0F
$GPGSV,2,1,05,02,00,000,42,06,00,000,48,12,00,000,45,23,00,000,37*76
$GPGSV,2,2,05,25,00,000,42*4D
$BDGSV,2,1,06,05,00,000,33,08,00,000,42,12,00,000,35,13,00,000,39*6B
$BDGSV,2,2,06,19,00,000,35,20,00,000,44*62
$LOGTIM,0,0.000000,0.000000,0.000000,0.000000,0.000*0A
EndT:        0
---00000027--- Acq_st=3 2019-5-22 10:51:6 
[00]  G02  f 42  -1792.6 2046002.3  1.0  1.0  5  0 298283856
[01]  G06  f 48   -332.8 2046000.4  1.0  1.0  5  0 298283862
[02]  G12  f 46  -1258.6 2046001.6  1.0  1.0  5  0 298283855
[03]  G23  f 38    964.2 2045998.7  1.0  1.0  5  0 298283852
[04]  G25  f 42  -2639.8 2046003.4  1.0  1.0  5  0 298283846
[16]  B05 1f 34   -344.6 4092001.0  0.9  0.0  2  0 298269798
[17]  B08 1f 42   -555.8 4092001.4  1.0  1.0  5  0 298269809
[18]  B12 1f 35  -3070.9 4092008.0  1.0  1.0  5  0 298269847
[19]  B13 1f 39   -582.0 4092001.5  1.0  1.0  5  0 298269806
[20]  B19 1f 34   -296.7 4092000.9  1.0  1.0  5  0 298269860
[21]  B20  7 43   2286.1 4091994.0  1.0  1.0  5  0      4891
$GNGGA,000000.000,,,,,0,00,,,M,,,,0000*2B
$GNRMC,000000.000,A,,,,,,,000000,,*26
$GPGSA,A,1,,,,,,,,,,,,,,,*1E
$BDGSA,A,1,,,,,,,,,,,,,,,*0F
$GPGSV,2,1,05,02,00,000,42,06,00,000,48,12,00,000,46,23,00,000,38*7A
$GPGSV,2,2,05,25,00,000,42*4D
$BDGSV,2,1,06,05,00,000,34,08,00,000,42,12,00,000,35,13,00,000,39*6C
$BDGSV,2,2,06,19,00,000,34,20,00,000,43*64
$LOGTIM,0,0.000000,0.000000,0.000000,0.000000,0.000*0A
EndT:        0
---00000028--- Acq_st=3 2019-5-22 10:51:7 
[00]  G02  f 42  -1792.4 2046002.3  1.0  1.0  5  0 298284856
[01]  G06  f 49   -332.8 2046000.4  1.0  1.0  5  0 298284862
[02]  G12  f 46  -1258.2 2046001.6  1.0  1.0  5  0 298284855
[03]  G23  f 39    964.5 2045998.7  1.0  1.0  5  0 298284852
[04]  G25  f 41  -2639.2 2046003.4  1.0  1.0  5  0 298284846
[16]  B05 1f 34   -344.5 4092000.9  0.8  0.0  2  0 298270798
[17]  B08 1f 42   -555.6 4092001.4  1.0  1.0  5  0 298270809
[18]  B12 1f 35  -3071.0 4092008.1  1.0  1.0  5  0 298270847
[19]  B13 1f 39   -582.8 4092001.5  1.0  1.0  5  0 298270806
[20]  B19 1f 34   -297.3 4092000.8  1.0  0.9  5  0 298270860
[21]  B20  7 44   2285.9 4091994.0  1.0  1.0  5  0      5891
$GNGGA,000000.000,,,,,0,00,,,M,,,,0000*2B
$GNRMC,000000.000,A,,,,,,,000000,,*26
$GPGSA,A,1,,,,,,,,,,,,,,,*1E
$BDGSA,A,1,,,,,,,,,,,,,,,*0F
$GPGSV,2,1,05,02,00,000,42,06,00,000,49,12,00,000,46,23,00,000,39*7A
$GPGSV,2,2,05,25,00,000,41*4E
$BDGSV,2,1,06,05,00,000,34,08,00,000,42,12,00,000,35,13,00,000,39*6C
$BDGSV,2,2,06,19,00,000,34,20,00,000,44*63
$LOGTIM,0,0.000000,0.000000,0.000000,0.000000,0.000*0A
EndT:        0
---00000029--- Acq_st=7 2019-5-22 10:51:8 
[00]  G02  f 42  -1791.0 2046002.3  1.0  1.0  5  0 298285856
[01]  G06  f 49   -331.2 2046000.4  1.0  1.0  5  0 298285862
[02]  G12  f 46  -1256.0 2046001.6  1.0  1.0  5  0 298285855
[03]  G23  f 39    966.9 2045998.7  1.0  1.0  5  0 298285852
[04]  G25  f 41  -2637.0 2046003.4  1.0  1.0  5  0 298285846
[16]  B05 1f 32   -342.4 4092000.7  0.9  0.0  2  0 298271798
[17]  B08 1f 42   -554.2 4092001.4  1.0  1.0  5  0 298271809
[18]  B12 1f 36  -3069.5 4092008.1  1.0  1.0  5  0 298271847
[19]  B13 1f 39   -580.9 4092001.5  1.0  1.0  5  0 298271806
[20]  B19 1f 35   -295.0 4092000.8  1.0  1.0  5  0 298271860
[21]  B20  7 44   2288.1 4091994.0  1.0  1.0  5  0      6891
$GNGGA,000000.000,,,,,0,00,,,M,,,,0000*2B
$GNRMC,000000.000,A,,,,,,,000000,,*26
$GPGSA,A,1,,,,,,,,,,,,,,,*1E
$BDGSA,A,1,,,,,,,,,,,,,,,*0F
$GPGSV,2,1,05,02,00,000,42,06,00,000,49,12,00,000,46,23,00,000,39*7A
$GPGSV,2,2,05,25,00,000,41*4E
$BDGSV,2,1,06,05,00,000,32,08,00,000,42,12,00,000,36,13,00,000,39*69
$BDGSV,2,2,06,19,00,000,35,20,00,000,44*62
$LOGTIM,0,0.000000,0.000000,0.000000,0.000000,0.000*0A
EndT:        0
---00000030--- Acq_st=7 2019-5-22 10:51:9 
[00]  G02  f 42  -1787.4 2046002.3  1.0  1.0  5  0 298286856
[01]  G06  f 49   -327.3 2046000.4  1.0  1.0  5  0 298286862
[02]  G12  f 46  -1251.9 2046001.6  1.0  1.0  5  0 298286855
[03]  G23  f 40    971.0 2045998.7  1.0  1.0  5  0 298286852
[04]  G25  f 40  -2633.4 2046003.4  1.0  1.0  5  0 298286846
[16]  B05 1f 32   -338.9 4092000.9  0.9  0.0  2  0 298272798
[17]  B08 1f 42   -550.9 4092001.4  1.0  1.0  5  0 298272809
[18]  B12 1f 35  -3066.0 4092008.0  1.0  1.0  5  0 298272847
[19]  B13 1f 39   -577.2 4092001.5  1.0  1.0  5  0 298272806
[20]  B19 1f 35   -290.9 4092000.8  1.0  1.0  5  0 298272860
[21]  B20 1f 44   2291.7 4091994.0  1.0  1.0  5  0      7891
$GNGGA,000000.000,,,,,0,00,,,M,,,,0000*2B
$GNRMC,000000.000,A,,,,,,,000000,,*26
$GPGSA,A,1,,,,,,,,,,,,,,,*1E
$BDGSA,A,1,,,,,,,,,,,,,,,*0F
$GPGSV,2,1,05,02,00,000,42,06,00,000,49,12,00,000,46,23,00,000,40*74
$GPGSV,2,2,05,25,00,000,40*4F
$BDGSV,2,1,06,05,00,000,32,08,00,000,42,12,00,000,35,13,00,000,39*6A
$BDGSV,2,2,06,19,00,000,35,20,00,000,44*62
$LOGTIM,0,0.000000,0.000000,0.000000,0.000000,0.000*0A
EndT:        0
---00000031--- Acq_st=7 2019-5-22 10:51:10 
[00]  G02  f 41  -1783.5 2046002.3  1.0  1.0  5  0 298287856
[01]  G06  f 49   -323.2 2046000.4  1.0  1.0  5  0 298287862
[02]  G12  f 46  -1247.0 2046001.6  1.0  1.0  5  0 298287855
[03]  G23  f 39    975.6 2045998.7  1.0  1.0  5  0 298287852
[04]  G25  f 40  -2628.7 2046003.5  1.0  1.0  5  0 298287846
[16]  B05 1f 33   -334.9 4092000.8  0.9  0.0  2  0 298273798
[17]  B08 1f 42   -547.2 4092001.4  1.0  1.0  5  0 298273809
[18]  B12 1f 35  -3061.8 4092008.0  1.0  1.0  5  0 298273847
[19]  B13 1f 39   -573.7 4092001.5  1.0  1.0  5  0 298273806
[20]  B19 1f 35   -286.0 4092000.7  1.0  1.0  5  0 298273860
[21]  B20 1f 44   2295.9 4091994.0  1.0  1.0  5  0 298273851
$GNGGA,000000.000,,,,,0,00,,,M,,,,0000*2B
$GNRMC,000000.000,A,,,,,,,000000,,*26
$GPGSA,A,1,,,,,,,,,,,,,,,*1E
$BDGSA,A,1,,,,,,,,,,,,,,,*0F
$GPGSV,2,1,05,02,00,000,41,06,00,000,49,12,00,000,46,23,00,000,39*79
$GPGSV,2,2,05,25,00,000,40*4F
$BDGSV,2,1,06,05,00,000,33,08,00,000,42,12,00,000,35,13,00,000,39*6B
$BDGSV,2,2,06,19,00,000,35,20,00,000,44*62
$LOGTIM,0,0.000000,0.000000,0.000000,0.000000,0.000*0A
EndT:        0
---00000032--- Acq_st=3 2019-5-22 10:51:11 
[00]  G02  f 40  -1783.5 2046002.3  1.0  1.0  5  0 298288856
[01]  G06  f 49   -322.9 2046000.4  1.0  1.0  5  0 298288862
[02]  G12  f 46  -1246.3 2046001.6  1.0  1.0  5  0 298288855
[03]  G23  f 39    976.1 2045998.7  1.0  1.0  5  0 298288852
[04]  G25  f 40  -2628.2 2046003.4  1.0  1.0  5  0 298288846
[16]  B05 1f 33   -334.4 4092000.8  0.9  0.0  2  0 298274798
[17]  B08 1f 42   -547.0 4092001.4  1.0  1.0  5  0 298274809
[18]  B12 1f 36  -3061.5 4092008.0  1.0  1.0  5  0 298274847
[19]  B13 1f 39   -573.1 4092001.5  1.0  1.0  5  0 298274806
[20]  B19 1f 35   -285.4 4092000.7  1.0  1.0  5  0 298274860
[21]  B20 1f 44   2296.7 4091994.0  1.0  1.0  5  0 298274851
$GNGGA,000000.000,,,,,0,00,,,M,,,,0000*2B
$GNRMC,000000.000,A,,,,,,,000000,,*26
$GPGSA,A,1,,,,,,,,,,,,,,,*1E
$BDGSA,A,1,,,,,,,,,,,,,,,*0F
$GPGSV,2,1,05,02,00,000,40,06,00,000,49,12,00,000,46,23,00,000,39*78
$GPGSV,2,2,05,25,00,000,40*4F
$BDGSV,2,1,06,05,00,000,34,08,00,000,42,12,00,000,36,13,00,000,39*6F
$BDGSV,2,2,06,19,00,000,35,20,00,000,44*62
$LOGTIM,0,0.000000,0.000000,0.000000,0.000000,0.000*0A
EndT:        0
---00000033--- Acq_st=3 2019-5-22 10:51:12 
[00]  G02  f 41  -1784.5 2046002.3  1.0  1.0  5  0 298289856
[01]  G06  f 49   -323.8 2046000.4  1.0  1.0  5  0 298289862
[02]  G12  f 46  -1246.6 2046001.6  1.0  1.0  5  0 298289855
[03]  G23  f 38    975.3 2045998.7  1.0  1.0  5  0 298289852
[04]  G25  f 40  -2628.9 2046003.4  1.0  1.0  5  0 298289846
[16]  B05 1f 33   -335.3 4092000.9  0.9  0.0  2  0 298275798
[17]  B08 1f 42   -547.4 4092001.4  1.0  1.0  5  0 298275809
[18]  B12 1f 36  -3063.2 4092008.1  1.0  1.0  5  0 298275847
[19]  B13 1f 39   -574.5 4092001.5  1.0  1.0  5  0 298275806
[20]  B19 1f 35   -286.0 4092000.7  1.0  0.9  5  0 298275860
[21]  B20 1f 43   2295.8 4091994.0  1.0  1.0  5  0 298275851
$GNGGA,000000.000,,,,,0,00,,,M,,,,0000*2B
$GNRMC,000000.000,A,,,,,,,000000,,*26
$GPGSA,A,1,,,,,,,,,,,,,,,*1E
$BDGSA,A,1,,,,,,,,,,,,,,,*0F
$GPGSV,2,1,05,02,00,000,41,06,00,000,49,12,00,000,46,23,00,000,38*78
$GPGSV,2,2,05,25,00,000,40*4F
$BDGSV,2,1,06,05,00,000,33,08,00,000,42,12,00,000,36,13,00,000,39*68
$BDGSV,2,2,06,19,00,000,35,20,00,000,43*65
$LOGTIM,0,0.000000,0.000000,0.000000,0.000000,0.000*0A
EndT:        0
---00000034--- Acq_st=3 2019-5-22 10:51:13 
[00]  G02  f 42  -1785.7 2046002.3  1.0  1.0  5  0 298290856
[01]  G06  f 49   -325.0 2046000.4  1.0  1.0  5  0 298290862
[02]  G12  f 46  -1247.4 2046001.6  1.0  1.0  5  0 298290855
[03]  G23  f 37    974.4 2045998.8  1.0  1.0  5  0 298290852
[04]  G25  f 40  -2630.1 2046003.4  1.0  1.0  5  0 298290846
[16]  B05 1f 33   -337.1 4092001.0  0.9  0.0  2  0 298276798
[17]  B08 1f 42   -549.2 4092001.4  1.0  1.0  5  0 298276809
[18]  B12 1f 37  -3064.3 4092008.0  1.0  1.0  5  0 298276847
[19]  B13 1f 40   -576.0 4092001.5  1.0  1.0  5  0 298276806
[20]  B19 1f 35   -286.2 4092000.7  1.0  1.0  5  0 298276860
[21]  B20 1f 43   2294.8 4091994.0  1.0  1.0  5  0 298276851
$GNGGA,000000.000,,,,,0,00,,,M,,,,0000*2B
$GNRMC,000000.000,A,,,,,,,000000,,*26
$GPGSA,A,1,,,,,,,,,,,,,,,*1E
$BDGSA,A,1,,,,,,,,,,,,,,,*0F
$GPGSV,2,1,05,02,00,000,42,06,00,000,49,12,00,000,46,23,00,000,37*74
$GPGSV,2,2,05,25,00,000,40*4F
$BDGSV,2,1,06,05,00,000,33,08,00,000,42,12,00,000,37,13,00,000,40*67
$BDGSV,2,2,06,19,00,000,35,20,00,000,43*65
$LOGTIM,0,0.000000,0.000000,0.000000,0.000000,0.000*0A
EndT:        0
---00000035--- Acq_st=3 2019-5-22 10:51:14 
[00]  G02  f 41  -1786.6 2046002.3  1.0  1.0  5  0 298291856
[01]  G06  f 49   -326.0 2046000.4  1.0  1.0  5  0 298291862
[02]  G12  f 46  -1247.9 2046001.6  1.0  1.0  5  0 298291855
[03]  G23  f 37    973.6 2045998.7  1.0  0.9  5  0 298291852
[04]  G25  f 40  -2630.2 2046003.4  1.0  1.0  5  0 298291846
[16]  B05 1f 33   -338.5 4092000.9  0.9  0.0  2  0 298277798
[17]  B08 1f 42   -551.2 4092001.4  1.0  1.0  5  0 298277809
[18]  B12 1f 36  -3065.4 4092008.0  1.0  1.0  5  0 298277847
[19]  B13 1f 39   -577.3 4092001.5  1.0  1.0  5  0 298277806
[20]  B19 1f 35   -287.3 4092000.8  1.0  0.9  5  0 298277860
[21]  B20 1f 43   2293.5 4091994.0  1.0  1.0  5  0 298277851
$GNGGA,000000.000,,,,,0,00,,,M,,,,0000*2B
$GNRMC,000000.000,A,,,,,,,000000,,*26
$GPGSA,A,1,,,,,,,,,,,,,,,*1E
$BDGSA,A,1,,,,,,,,,,,,,,,*0F
$GPGSV,2,1,05,02,00,000,41,06,00,000,49,12,00,000,46,23,00,000,37*77
$GPGSV,2,2,05,25,00,000,40*4F
$BDGSV,2,1,06,05,00,000,33,08,00,000,42,12,00,000,36,13,00,000,39*68
$BDGSV,2,2,06,19,00,000,35,20,00,000,43*65
$LOGTIM,0,0.000000,0.000000,0.000000,0.000000,0.000*0A
EndT:        0
---00000036--- Acq_st=3 2019-5-22 10:51:15 
[00]  G02  f 40  -1785.6 2046002.4  1.0  1.0  5  0 298292856
[01]  G06  f 48   -325.0 2046000.4  1.0  1.0  5  0 298292862
[02]  G12  f 45  -1246.7 2046001.6  1.0  1.0  5  0 298292855
[03]  G23  f 36    975.2 2045998.7  1.0  1.0  5  0 298292852
[04]  G25  f 40  -2628.9 2046003.4  1.0  1.0  5  0 298292846
[16]  B05 1f 33   -337.6 4092001.2  0.9  0.0  2  0 298278798
[17]  B08 1f 42   -549.5 4092001.4  1.0  1.0  5  0 298278809
[18]  B12 1f 37  -3064.6 4092008.0  1.0  0.9  5  0 298278847
[19]  B13 1f 39   -576.2 4092001.5  1.0  1.0  5  0 298278806
[20]  B19 1f 35   -285.9 4092000.8  1.0  1.0  5  0 298278860
[21]  B20 1f 43   2295.0 4091994.0  1.0  1.0  5  0 298278851
$GNGGA,000000.000,,,,,0,00,,,M,,,,0000*2B
$GNRMC,000000.000,A,,,,,,,000000,,*26
$GPGSA,A,1,,,,,,,,,,,,,,,*1E
$BDGSA,A,1,,,,,,,,,,,,,,,*0F
$GPGSV,2,1,05,02,00,000,40,06,00,000,48,12,00,000,45,23,00,000,36*75
$GPGSV,2,2,05,25,00,000,40*4F
$BDGSV,2,1,06,05,00,000,33,08,00,000,42,12,00,000,37,13,00,000,39*69
$BDGSV,2,2,06,19,00,000,35,20,00,000,43*65
$LOGTIM,0,0.000000,0.000000,0.000000,0.000000,0.000*0A
EndT:        0
---00000037--- Acq_st=3 2019-5-22 10:51:16 
[00]  G02  f 41  -1788.7 2046002.3  1.0  1.0  5  0 298293856
[01]  G06  f 49   -327.7 2046000.4  1.0  1.0  5  0 298293862
[02]  G12  f 45  -1248.8 2046001.6  1.0  1.0  5  0 298293855
[03]  G23  f 36    973.4 2045998.8  1.0  1.0  5  0 298293852
[04]  G25  f 40  -2631.7 2046003.4  1.0  1.0  5  0 298293846
[16]  B05 1f 33   -340.0 4092000.9  0.9  0.0  2  0 298279798
[17]  B08 1f 42   -552.3 4092001.5  1.0  1.0  5  0 298279809
[18]  B12 1f 37  -3067.8 4092008.0  1.0  1.0  5  0 298279847
[19]  B13 1f 39   -579.0 4092001.5  1.0  1.0  5  0 298279806
[20]  B19 1f 36   -288.6 4092000.7  1.0  1.0  5  0 298279860
[21]  B20 1f 43   2292.2 4091994.0  1.0  1.0  5  0 298279851
$GNGGA,000000.000,,,,,0,00,,,M,,,,0000*2B
$GNRMC,000000.000,A,,,,,,,000000,,*26
$GPGSA,A,1,,,,,,,,,,,,,,,*1E
$BDGSA,A,1,,,,,,,,,,,,,,,*0F
$GPGSV,2,1,05,02,00,000,41,06,00,000,49,12,00,000,45,23,00,000,36*75
$GPGSV,2,2,05,25,00,000,40*4F
$BDGSV,2,1,06,05,00,000,33,08,00,000,42,12,00,000,37,13,00,000,39*69
$BDGSV,2,2,06,19,00,000,36,20,00,000,43*66
$LOGTIM,0,0.000000,0.000000,0.000000,0.000000,0.000*0A
EndT:        0
---00000038--- Acq_st=3 2019-5-22 10:51:17 
[00]  G02  f 41  -1789.2 2046002.3  1.0  1.0  5  0 298294856
[01]  G06  f 49   -328.0 2046000.4  1.0  1.0  5  0 298294862
[02]  G12  f 45  -1248.4 2046001.6  1.0  1.0  5  0 298294855
[03]  G23  f 36    973.2 2045998.8  1.0  1.0  5  0 298294852
[04]  G25  f 40  -2631.2 2046003.4  1.0  1.0  5  0 298294846
[16]  B05 1f 33   -340.3 4092001.0  0.9  0.0  2  0 298280798
[17]  B08 1f 41   -553.1 4092001.4  1.0  1.0  5  0 298280809
[18]  B12 1f 37  -3067.7 4092008.0  1.0  1.0  5  0 298280847
[19]  B13 1f 39   -579.5 4092001.5  1.0  1.0  5  0 298280806
[20]  B19 1f 36   -287.9 4092000.7  1.0  1.0  5  0 298280860
[21]  B20 1f 43   2292.1 4091994.0  1.0  1.0  5  0 298280851
$GNGGA,000000.000,,,,,0,00,,,M,,,,0000*2B
$GNRMC,000000.000,A,,,,,,,000000,,*26
$GPGSA,A,1,,,,,,,,,,,,,,,*1E
$BDGSA,A,1,,,,,,,,,,,,,,,*0F
$GPGSV,2,1,05,02,00,000,41,06,00,000,49,12,00,000,45,23,00,000,36*75
$GPGSV,2,2,05,25,00,000,40*4F
$BDGSV,2,1,06,05,00,000,33,08,00,000,41,12,00,000,37,13,00,000,39*6A
$BDGSV,2,2,06,19,00,000,36,20,00,000,43*66
$LOGTIM,0,0.000000,0.000000,0.000000,0.000000,0.000*0A
EndT:        0
---00000039--- Acq_st=3 2019-5-22 10:51:18 
[00]  G02  f 40  -1789.2 2046002.4  1.0  1.0  5  0 298295856
[01]  G06  f 49   -327.5 2046000.4  1.0  1.0  5  0 298295862
[02]  G12  f 45  -1247.5 2046001.6  1.0  1.0  5  0 298295855
[03]  G23  f 36    974.0 2045998.8  1.0  1.0  5  0 298295852
[04]  G25  f 40  -2630.7 2046003.4  1.0  1.0  5  0 298295846
[16]  B05 1f 33   -340.4 4092001.1  0.9  0.0  2  0 298281798
[17]  B08 1f 42   -552.8 4092001.5  1.0  1.0  5  0 298281809
[18]  B12 1f 37  -3067.6 4092008.0  1.0  1.0  5  0 298281847
[19]  B13 1f 39   -579.1 4092001.5  1.0  1.0  5  0 298281806
[20]  B19 1f 36   -287.7 4092000.7  1.0  1.0  5  0 298281860
[21]  B20 1f 43   2292.6 4091994.0  1.0  1.0  5  0 298281851
lsq: nits= 4
$GNGGA,105118.932,3112.6353,N,12136.4400,E,1,05,48.2,46.0,M,,,,0000*19
$GNRMC,105118.932,A,3112.6353,N,12136.4400,E,6.35,0.00,220519,,*11
$GPGSA,A,3,02,06,12,23,,,,,,,,,48.4,48.2,4.9*3F
$BDGSA,A,3,08,,,,,,,,,,,,48.4,48.2,4.9*20
$GPGSV,2,1,05,02,00,000,40,06,00,000,49,12,00,000,45,23,00,000,36*74
$GPGSV,2,2,05,25,00,000,40*4F
$BDGSV,2,1,06,05,00,000,33,08,00,000,42,12,00,000,37,13,00,000,39*69
$BDGSV,2,2,06,19,00,000,36,20,00,000,43*66
$LOGTIM,3,7299932.029888,7299774.681183,0.000000,0.000000,-61.493*17
EndT:        1
---00000040--- Acq_st=3 2019-5-22 10:51:19 
[00]  G02  f 40  -1790.3 2046002.3  1.0  1.0  5  0 298296856
[01]  G06  f 48   -328.7 2046000.4  1.0  1.0  5  0 298296862
[02]  G12  f 45  -1248.5 2046001.6  1.0  1.0  5  0 298296855
[03]  G23  f 36    973.2 2045998.8  1.0  0.9  5  0 298296852
[04]  G25  f 40  -2631.9 2046003.4  1.0  1.0  5  0 298296846
[16]  B05 1f 32   -341.4 4092000.9  0.9  0.0  2  0 298282798
[17]  B08 1f 42   -554.0 4092001.5  1.0  1.0  5  0 298282809
[18]  B12 1f 37  -3069.3 4092008.0  1.0  1.0  5  0 298282847
[19]  B13 1f 40   -580.9 4092001.5  1.0  1.0  5  0 298282806
[20]  B19 1f 36   -288.3 4092000.7  1.0  1.1  5  0 298282860
[21]  B20 1f 43   2291.4 4091994.0  1.0  1.0  5  0 298282851
lsq: nits= 4
$GNGGA,105120.000,3112.5817,N,12136.4455,E,1,05,48.5,53.3,M,,,,0000*12
$GNRMC,105120.000,A,3112.5817,N,12136.4455,E,0.98,0.00,220519,,*1B
$GPGSA,A,3,02,06,12,23,,,,,,,,,48.7,48.5,4.9*3B
$BDGSA,A,3,08,,,,,,,,,,,,48.7,48.5,4.9*24
$GPGSV,2,1,05,02,00,000,40,06,00,000,48,12,00,000,45,23,00,000,36*75
$GPGSV,2,2,05,25,00,000,40*4F
$BDGSV,2,1,06,05,00,000,32,08,00,000,42,12,00,000,37,13,00,000,40*66
$BDGSV,2,2,06,19,00,000,36,20,00,000,43*66
$LOGTIM,3,-115.080252,-270.731480,0.000000,0.000000,-63.599*10
EndT:        1
---00000041--- Acq_st=3 2019-5-22 10:51:20 
[00]  G02  f 40  -1793.2 2046002.4  1.0  1.0  5  0 298297924
[01]  G06  f 48   -332.1 2046000.5  1.0  1.0  5  0 298297930
[02]  G12  f 46  -1251.1 2046001.6  1.0  1.0  5  0 298297923
[03]  G23  f 36    970.0 2045998.8  1.0  1.0  5  0 298297919
[04]  G25  f 41  -2634.7 2046003.4  1.0  1.0  5  0 298297914
[16]  B05 1f 33   -345.3 4092000.9  0.9  0.0  2  0 298283866
[17]  B08 1f 42   -557.8 4092001.5  1.0  1.0  5  0 298283877
[18]  B12 1f 37  -3072.3 4092008.1  1.0  1.0  5  0 298283915
[19]  B13 1f 39   -584.3 4092001.5  1.0  0.9  5  0 298283874
[20]  B19 1f 37   -291.4 4092000.7  1.0  1.0  5  0 298283928
[21]  B20 1f 43   2288.2 4091994.0  1.0  1.0  5  0 298283919
lsq: nits= 4
$GNGGA,105121.000,3112.5251,N,12136.4505,E,1,05,48.7,63.7,M,,,,0000*1A
$GNRMC,105121.000,A,3112.5251,N,12136.4505,E,1.65,0.00,220519,,*15
$GPGSA,A,3,02,06,12,23,,,,,,,,,49.0,48.7,4.9*3F
$BDGSA,A,3,08,,,,,,,,,,,,49.0,48.7,4.9*20
$GPGSV,2,1,05,02,38,304,40,06,58,003,48,12,26,299,46,23,21,055,36*71
$GPGSV,2,2,05,25,00,000,41*4E
$BDGSV,2,1,06,05,00,000,33,08,58,002,42,12,00,000,37,13,00,000,39*66
$BDGSV,2,2,06,19,00,000,37,20,00,000,43*67
$LOGTIM,3,-227.455532,-380.729229,0.000000,0.000000,-64.438*10
EndT:        1
---00000042--- Acq_st=3 2019-5-22 10:51:21 
[00]  G02  f 40  -1793.0 2046002.3  1.0  1.0  5  0 298298924
[01]  G06  f 48   -331.4 2046000.5  1.0  1.0  5  0 298298930
[02]  G12  f 45  -1249.9 2046001.6  1.0  1.0  5  0 298298923
[03]  G23  f 36    971.3 2045998.8  1.0  1.0  5  0 298298919
[04]  G25  f 40  -2633.7 2046003.4  1.0  1.0  5  0 298298914
[16]  B05 1f 34   -344.6 4092001.0  0.9  0.0  2  0 298284866
[17]  B08 1f 42   -557.9 4092001.4  1.0  1.0  5  0 298284877
[18]  B12 1f 37  -3071.8 4092008.1  1.0  0.9  5  0 298284915
[19]  B13 1f 39   -584.1 4092001.5  1.0  1.0  5  0 298284874
[20]  B19 1f 37   -290.3 4092000.7  1.0  1.0  5  0 298284928
[21]  B20 1f 43   2288.9 4091994.0  1.0  1.0  5  0 298284919
lsq: nits= 4
$GNGGA,105122.000,3112.5271,N,12136.4523,E,1,05,49.0,59.8,M,,,,0000*1F
$GNRMC,105122.000,A,3112.5271,N,12136.4523,E,0.82,0.00,220519,,*18
$GPGSA,A,3,02,06,12,23,,,,,,,,,49.3,49.0,4.9*3A
$BDGSA,A,3,08,,,,,,,,,,,,49.3,49.0,4.9*25
$GPGSV,2,1,05,02,38,304,40,06,58,003,48,12,26,299,45,23,21,055,36*72
$GPGSV,2,2,05,25,00,000,40*4F
$BDGSV,2,1,07,05,00,000,34,08,58,002,42,12,00,000,37,13,00,000,39*60
$BDGSV,2,2,07,19,00,000,37,20,00,000,43,07,18,193,00*53
$LOGTIM,3,-294.788390,-446.269303,0.000000,0.000000,-64.078*10
EndT:        1
---00000043--- Acq_st=3 2019-5-22 10:51:22 
[00]  G02  f 40  -1792.3 2046002.4  1.0  1.0  5  0 298299924
[01]  G06  f 48   -330.2 2046000.4  1.0  1.0  5  0 298299930
[02]  G12  f 45  -1248.2 2046001.6  1.0  1.0  5  0 298299923
[03]  G23  f 35    972.3 2045998.8  1.0  1.0  5  0 298299919
[04]  G25  f 40  -2632.3 2046003.4  1.0  1.0  5  0 298299914
[16]  B05 1f 34   -344.0 4092000.9  0.9  0.0  2  0 298285866
[17]  B08 1f 42   -556.4 4092001.4  1.0  1.0  5  0 298285877
[18]  B12 1f 37  -3070.7 4092008.1  1.0  0.9  5  0 298285915
[19]  B13 1f 39   -582.9 4092001.5  1.0  1.0  5  0 298285874
[20]  B19 1f 37   -288.4 4092000.7  1.0  1.0  5  0 298285928
[21]  B20 1f 43   2290.3 4091994.0  1.0  1.0  5  0 298285919
lsq: nits= 4
$GNGGA,105123.000,3112.5374,N,12136.4522,E,1,05,49.3,56.7,M,,,,0000*18
$GNRMC,105123.000,A,3112.5374,N,12136.4522,E,0.18,0.00,220519,,*1F
$GPGSA,A,3,02,06,12,23,,,,,,,,,49.5,49.3,5.0*37
$BDGSA,A,3,08,,,,,,,,,,,,49.5,49.3,5.0*28
$GPGSV,2,1,05,02,38,304,40,06,58,003,48,12,26,300,45,23,21,055,35*70
$GPGSV,2,2,05,25,00,000,40*4F
$BDGSV,2,1,07,05,00,000,34,08,58,002,42,12,00,000,37,13,00,000,39*60
$BDGSV,2,2,07,19,00,000,37,20,00,000,43,07,18,193,00*53
$LOGTIM,3,-352.934908,-502.972964,0.000000,0.000000,-63.561*18
EndT:        1
---00000044--- Acq_st=3 2019-5-22 10:51:23 
[00]  G02  f 40  -1789.9 2046002.3  1.0  1.0  5  0 298300924
[01]  G06  f 48   -328.0 2046000.4  1.0  1.0  5  0 298300930
[02]  G12  f 45  -1245.5 2046001.6  1.0  1.0  5  0 298300923
[03]  G23  f 35    974.3 2045998.7  1.0  1.0  5  0 298300919
[04]  G25  f 40  -2629.9 2046003.4  1.0  1.0  5  0 298300914
[16]  B05 1f 31   -342.0 4092001.0  0.9  0.0  2  0 298286866
[17]  B08 1f 42   -554.4 4092001.5  1.0  1.0  5  0 298286877
[18]  B12 1f 36  -3068.9 4092008.1  1.0  0.9  5  0 298286915
[19]  B13 1f 39   -580.8 4092001.5  1.0  1.0  5  0 298286874
[20]  B19 1f 37   -285.7 4092000.7  1.0  1.0  5  0 298286928
[21]  B20 1f 43   2292.6 4091994.0  1.0  1.0  5  0 298286919
lsq: nits= 4
$GNGGA,105124.000,3112.7172,N,12136.4398,E,1,06,3.8,30.2,M,,,,0000*2D
$GNRMC,105124.000,A,3112.7172,N,12136.4398,E,0.23,0.00,220519,,*11
$GPGSA,A,3,02,06,12,23,,,,,,,,,4.8,3.8,3.0*30
$BDGSA,A,3,05,08,,,,,,,,,,,4.8,3.8,3.0*2A
$GPGSV,2,1,05,02,38,304,40,06,58,003,48,12,26,300,45,23,21,055,35*70
$GPGSV,2,2,05,25,00,000,40*4F
$BDGSV,2,1,07,05,00,000,31,08,58,002,42,12,00,000,36,13,00,000,39*64
$BDGSV,2,2,07,19,00,000,37,20,00,000,43,07,18,193,00*53
$LOGTIM,3,-267.622649,-414.640329,0.000000,0.000000,-63.129*1E
EndT:        1
---00000045--- Acq_st=3 2019-5-22 10:51:24 
[00]  G02  f 40  -1787.1 2046002.3  1.0  1.0  5  0 298301924
[01]  G06  f 48   -325.2 2046000.4  1.0  1.0  5  0 298301930
[02]  G12  f 44  -1242.3 2046001.6  1.0  1.0  5  0 298301923
[03]  G23  f 35    977.6 2045998.8  1.0  0.9  5  0 298301919
[04]  G25  f 40  -2626.8 2046003.4  1.0  1.0  5  0 298301914
[16]  B05 1f 34   -339.0 4092000.9  0.9  0.0  2  0 298287866
[17]  B08 1f 42   -551.7 4092001.5  1.0  1.0  5  0 298287877
[18]  B12 1f 36  -3066.4 4092008.1  1.0  1.0  5  0 298287915
[19]  B13 1f 39   -578.2 4092001.5  1.0  1.0  5  0 298287874
[20]  B19 1f 37   -282.0 4092000.7  1.0  1.0  5  0 298287928
[21]  B20 1f 43   2295.9 4091994.0  1.0  1.0  5  0 298287919
lsq: nits= 2
$GNGGA,105125.000,3112.6978,N,12136.4343,E,1,07,1.8,55.7,M,,,,0000*2C
$GNRMC,105125.000,A,3112.6978,N,12136.4343,E,0.48,0.00,220519,,*18
$GPGSA,A,3,02,06,12,23,25,,,,,,,,2.1,1.8,1.0*38
$BDGSA,A,3,05,08,,,,,,,,,,,2.1,1.8,1.0*25
$GPGSV,2,1,05,02,38,304,40,06,58,003,48,12,26,300,44,23,21,055,35*71
$GPGSV,2,2,05,25,00,000,40*4F
$BDGSV,2,1,07,05,15,255,34,08,58,002,42,12,00,000,36,13,00,000,39*67
$BDGSV,2,2,07,19,00,000,37,20,00,000,43,07,18,193,00*53
$LOGTIM,3,-329.979335,-477.191857,0.000000,0.000000,-62.488*19
EndT:        3
---00000046--- Acq_st=3 2019-5-22 10:51:25 
[00]  G02  f 41  -1781.2 2046002.3  1.0  1.0  5  0 298302924
[01]  G06  f 48   -318.8 2046000.4  1.0  1.0  5  0 298302930
[02]  G12  f 45  -1235.6 2046001.6  1.0  1.0  5  0 298302923
[03]  G23  f 36    985.4 2045998.7  1.0  1.0  5  0 298302919
[04]  G25  f 39  -2620.3 2046003.4  1.0  1.0  5  0 298302914
[16]  B05 1f 33   -333.4 4092000.8  0.9  0.0  2  0 298288866
[17]  B08 1f 42   -545.5 4092001.4  1.0  1.0  5  0 298288877
[18]  B12 1f 36  -3060.7 4092008.1  1.0  1.0  5  0 298288915
[19]  B13 1f 39   -572.2 4092001.5  1.0  1.0  5  0 298288874
[20]  B19 1f 37   -276.3 4092000.7  1.0  1.0  5  0 298288928
[21]  B20 1f 43   2302.0 4091994.0  1.0  1.0  5  0 298288919
lsq: nits= 2
$GNGGA,105126.000,3112.6954,N,12136.4329,E,1,07,1.8,58.8,M,,,,0000*2F
$GNRMC,105126.000,A,3112.6954,N,12136.4329,E,0.20,0.00,220519,,*17
$GPGSA,A,3,02,06,12,23,25,,,,,,,,2.1,1.8,1.0*38
$BDGSA,A,3,05,08,,,,,,,,,,,2.1,1.8,1.0*25
$GPGSV,2,1,05,02,38,304,41,06,58,003,48,12,26,299,45,23,21,055,36*73
$GPGSV,2,2,05,25,01,325,39*44
$BDGSV,2,1,07,05,15,255,33,08,58,002,42,12,00,000,36,13,00,000,39*60
$BDGSV,2,2,07,19,00,000,37,20,00,000,43,07,18,193,00*53
$LOGTIM,3,-391.583857,-538.979419,0.000000,0.000000,-61.830*12
EndT:        3
---00000047--- Acq_st=3 2019-5-22 10:51:26 
[00]  G02  f 42  -1785.3 2046002.3  1.0  1.0  5  0 298303924
[01]  G06  f 49   -323.3 2046000.4  1.0  1.0  5  0 298303930
[02]  G12  f 45  -1239.5 2046001.6  1.0  1.0  5  0 298303923
[03]  G23  f 37    980.8 2045998.7  1.0  1.0  5  0 298303919
[04]  G25  f 39  -2623.7 2046003.4  1.0  1.0  5  0 298303914
[16]  B05 1f 34   -337.2 4092000.9  0.9  0.0  2  0 298289866
[17]  B08 1f 42   -550.6 4092001.4  1.0  1.0  5  0 298289877
[18]  B12 1f 36  -3065.5 4092008.1  1.0  1.0  5  0 298289915
[19]  B13 1f 39   -576.7 4092001.5  1.0  1.0  5  0 298289874
[20]  B19 1f 36   -280.3 4092000.7  1.0  1.0  5  0 298289928
[21]  B20 1f 44   2297.4 4091994.0  1.0  1.0  5  0 298289919
lsq: nits= 2
$GNGGA,105127.000,3112.6944,N,12136.4323,E,1,07,1.8,58.9,M,,,,0000*24
$GNRMC,105127.000,A,3112.6944,N,12136.4323,E,0.44,0.00,220519,,*1F
$GPGSA,A,3,02,06,12,23,25,,,,,,,,2.1,1.8,1.0*38
$BDGSA,A,3,05,08,,,,,,,,,,,2.1,1.8,1.0*25
$GPGSV,2,1,05,02,38,304,42,06,58,003,49,12,26,299,45,23,21,055,37*70
$GPGSV,2,2,05,25,01,325,39*44
$BDGSV,2,1,07,05,15,255,34,08,58,002,42,12,00,000,36,13,00,000,39*67
$BDGSV,2,2,07,19,00,000,36,20,00,000,44,07,18,193,00*55
$LOGTIM,3,-453.699114,-601.785480,0.000000,0.000000,-62.348*1E
EndT:        3
---00000048--- Acq_st=3 2019-5-22 10:51:27 
[00]  G02  f 42  -1790.2 2046002.3  1.0  1.0  5  0 298304924
[01]  G06  f 49   -328.1 2046000.4  1.0  1.0  5  0 298304930
[02]  G12  f 45  -1243.8 2046001.6  1.0  1.0  5  0 298304923
[03]  G23  f 36    976.3 2045998.7  1.0  1.0  5  0 298304919
[04]  G25  f 39  -2628.8 2046003.5  1.0  1.0  5  0 298304914
[16]  B05 1f 33   -341.7 4092000.9  0.9  0.0  2  0 298290866
[17]  B08 1f 42   -555.4 4092001.5  1.0  1.0  5  0 298290877
[18]  B12 1f 36  -3070.5 4092008.1  1.0  1.0  5  0 298290915
[19]  B13 1f 39   -582.2 4092001.5  1.0  1.0  5  0 298290874
[20]  B19 1f 37   -284.8 4092000.8  1.0  0.9  5  0 298290928
[21]  B20 1f 43   2292.8 4091994.0  1.0  1.0  5  0 298290919
lsq: nits= 2
$GNGGA,105128.000,3112.6940,N,12136.4318,E,1,07,1.8,58.5,M,,,,0000*2B
$GNRMC,105128.000,A,3112.6940,N,12136.4318,E,0.97,0.00,220519,,*12
$GPGSA,A,3,02,06,12,23,25,,,,,,,,2.1,1.8,1.0*38
$BDGSA,A,3,05,08,,,,,,,,,,,2.1,1.8,1.0*25
$GPGSV,2,1,05,02,38,304,42,06,58,003,49,12,26,299,45,23,21,055,36*71
$GPGSV,2,2,05,25,01,325,39*44
$BDGSV,2,1,07,05,15,255,33,08,58,002,42,12,00,000,36,13,00,000,39*60
$BDGSV,2,2,07,19,00,000,37,20,00,000,43,07,18,193,00*53
$LOGTIM,3,-516.391827,-665.341346,0.000000,0.000000,-63.022*17
EndT:        3
---00000049--- Acq_st=3 2019-5-22 10:51:28 
[00]  G02  f 42  -1794.1 2046002.3  1.0  1.0  5  0 298305924
[01]  G06  f 49   -331.7 2046000.4  1.0  1.0  5  0 298305930
[02]  G12  f 45  -1246.9 2046001.6  1.0  1.0  5  0 298305923
[03]  G23  f 35    973.6 2045998.7  1.0  1.0  5  0 298305919
[04]  G25  f 40  -2632.3 2046003.5  1.0  1.0  5  0 298305914
[16]  B05 1f 33   -345.7 4092001.0  0.9  0.0  2  0 298291866
[17]  B08 1f 41   -559.2 4092001.5  1.0  1.0  5  0 298291877
[18]  B12 1f 35  -3073.5 4092008.1  1.0  1.0  5  0 298291915
[19]  B13 1f 39   -585.3 4092001.5  1.0  1.0  5  0 298291874
[20]  B19 1f 36   -287.0 4092000.8  1.0  1.0  5  0 298291928
[21]  B20 1f 44   2289.6 4091994.0  1.0  1.0  5  0 298291919
lsq: nits= 2
$GNGGA,105129.000,3112.6973,N,12136.4310,E,1,07,1.8,61.4,M,,,,0000*29
$GNRMC,105129.000,A,3112.6973,N,12136.4310,E,1.28,0.00,220519,,*1E
$GPGSA,A,3,02,06,12,23,25,,,,,,,,2.1,1.8,1.0*38
$BDGSA,A,3,05,08,,,,,,,,,,,2.1,1.8,1.0*25
$GPGSV,2,1,05,02,38,304,42,06,58,003,49,12,26,299,45,23,21,055,35*72
$GPGSV,2,2,05,25,01,325,40*4A
$BDGSV,2,1,07,05,15,255,33,08,58,002,41,12,00,000,35,13,00,000,39*60
$BDGSV,2,2,07,19,00,000,36,20,00,000,44,07,18,193,00*55
$LOGTIM,3,-575.347542,-733.817904,0.000000,0.000000,-63.550*11
EndT:        3
---00000050--- Acq_st=3 2019-5-22 10:51:29 
[00]  G02  f 42  -1793.4 2046002.3  1.0  1.0  5  0 298306924
[01]  G06  f 49   -330.9 2046000.4  1.0  1.0  5  0 298306930
[02]  G12  f 45  -1245.4 2046001.6  1.0  1.0  5  0 298306923
[03]  G23  f 36    974.4 2045998.7  1.0  1.0  5  0 298306919
[04]  G25  f 40  -2631.1 2046003.4  1.0  1.0  5  0 298306914
[16]  B05 1f 35   -345.2 4092000.9  0.9  0.0  2  0 298292866
[17]  B08 1f 42   -559.2 4092001.4  1.0  1.0  5  0 298292877
[18]  B12 1f 34  -3072.6 4092008.0  1.0  0.9  5  0 298292915
[19]  B13 1f 40   -585.0 4092001.6  1.0  1.0  5  0 298292874
[20]  B19 1f 36   -286.7 4092000.8  1.0  1.0  5  0 298292928
[21]  B20 1f 43   2290.4 4091994.0  1.0  1.0  5  0 298292919
lsq: nits= 2
$GNGGA,105130.000,3112.6969,N,12136.4306,E,1,07,1.8,59.6,M,,,,0000*24
$GNRMC,105130.000,A,3112.6969,N,12136.4306,E,0.95,0.00,220519,,*1D
$GPGSA,A,3,02,06,12,23,25,,,,,,,,2.1,1.8,1.0*38
$BDGSA,A,3,05,08,,,,,,,,,,,2.1,1.8,1.0*25
$GPGSV,2,1,05,02,38,304,42,06,58,003,49,12,26,299,45,23,21,055,36*71
$GPGSV,2,2,05,25,01,325,40*4A
$BDGSV,2,1,07,05,15,255,35,08,58,002,42,12,00,000,34,13,00,000,40*6A
$BDGSV,2,2,07,19,00,000,36,20,00,000,43,07,18,193,00*52
$LOGTIM,3,-639.367493,-797.530250,0.000000,0.000000,-63.602*1D
EndT:        3
---00000051--- Acq_st=3 2019-5-22 10:51:30 
[00]  G02  f 43  -1792.5 2046002.3  1.0  1.0  5  0 298307924
[01]  G06  f 49   -329.9 2046000.4  1.0  1.0  5  0 298307930
[02]  G12  f 45  -1243.9 2046001.6  1.0  1.0  5  0 298307923
[03]  G23  f 37    975.2 2045998.7  1.0  1.0  5  0 298307919
[04]  G25  f 39  -2630.0 2046003.4  1.0  1.0  5  0 298307914
[16]  B05 1f 33   -344.8 4092000.9  0.9  0.0  2  0 298293866
[17]  B08 1f 42   -557.8 4092001.4  1.0  1.0  5  0 298293877
[18]  B12 1f 34  -3071.6 4092008.1  1.0  1.0  5  0 298293915
[19]  B13 1f 39   -584.5 4092001.5  1.0  1.0  5  0 298293874
[20]  B19 1f 36   -285.1 4092000.7  1.0  1.1  5  0 298293928
[21]  B20 1f 44   2291.1 4091994.0  1.0  1.0  5  0 298293919
lsq: nits= 2
$GNGGA,105131.000,3112.6967,N,12136.4304,E,1,07,1.8,57.7,M,,,,0000*26
$GNRMC,105131.000,A,3112.6967,N,12136.4304,E,0.78,0.00,220519,,*13
$GPGSA,A,3,02,06,12,23,25,,,,,,,,2.1,1.8,1.0*38
$BDGSA,A,3,05,08,,,,,,,,,,,2.1,1.8,1.0*25
$GPGSV,2,1,05,02,38,304,43,06,58,003,49,12,26,299,45,23,21,055,37*71
$GPGSV,2,2,05,25,01,325,39*44
$BDGSV,2,1,07,05,15,255,33,08,58,002,42,12,00,000,34,13,00,000,39*62
$BDGSV,2,2,07,19,00,000,36,20,00,000,44,07,18,193,00*55
$LOGTIM,3,-703.189583,-861.304159,0.000000,0.000000,-63.628*12
EndT:        3
---00000052--- Acq_st=3 2019-5-22 10:51:31 
[00]  G02  f 42  -1796.7 2046002.3  1.0  1.0  5  0 298308924
[01]  G06  f 49   -333.8 2046000.4  1.0  1.0  5  0 298308930
[02]  G12  f 45  -1247.7 2046001.6  1.0  1.0  5  0 298308923
[03]  G23  f 38    972.5 2045998.7  1.0  1.0  5  0 298308919
[04]  G25  f 40  -2633.1 2046003.4  1.0  1.0  5  0 298308914
[16]  B05 1f 32   -348.2 4092000.9  0.9  0.0  2  0 298294866
[17]  B08 1f 42   -562.1 4092001.4  1.0  1.0  5  0 298294877
[18]  B12 1f 34  -3076.2 4092008.0  1.0  0.9  5  0 298294915
[19]  B13 1f 39   -587.7 4092001.5  1.0  1.0  5  0 298294874
[20]  B19 1f 35   -288.9 4092000.7  1.0  1.0  5  0 298294928
[21]  B20 1f 44   2288.0 4091994.0  1.0  1.0  5  0 298294919
lsq: nits= 2
$GNGGA,105132.000,3112.7004,N,12136.4299,E,1,07,1.8,60.8,M,,,,0000*26
$GNRMC,105132.000,A,3112.7004,N,12136.4299,E,1.04,0.00,220519,,*12
$GPGSA,A,3,02,06,12,23,25,,,,,,,,2.1,1.8,1.0*38
$BDGSA,A,3,05,08,,,,,,,,,,,2.1,1.8,1.0*25
$GPGSV,2,1,05,02,38,304,42,06,58,003,49,12,26,299,45,23,21,055,38*7F
$GPGSV,2,2,05,25,01,325,40*4A
$BDGSV,2,1,07,05,15,255,32,08,58,002,42,12,00,000,34,13,00,000,39*63
$BDGSV,2,2,07,19,00,000,35,20,00,000,44,07,18,193,00*56
$LOGTIM,3,-763.278444,-929.436142,0.000000,0.000000,-64.026*1D
EndT:        3
---00000053--- Acq_st=3 2019-5-22 10:51:32 
[00]  G02  f 42  -1796.9 2046002.3  1.0  1.0  5  0 298309924
[01]  G06  f 49   -334.1 2046000.4  1.0  1.0  5  0 298309930
[02]  G12  f 45  -1247.2 2046001.7  1.0  1.0  5  0 298309923
[03]  G23  f 38    972.1 2045998.7  1.0  1.0  5  0 298309919
[04]  G25  f 39  -2632.9 2046003.4  1.0  1.0  5  0 298309914
[16]  B05 1f 31   -348.6 4092000.9  0.9  0.0  2  0 298295866
[17]  B08 1f 42   -562.6 4092001.5  1.0  1.0  5  0 298295877
[18]  B12 1f 35  -3076.7 4092008.1  1.0  1.0  5  0 298295915
[19]  B13 1f 39   -588.9 4092001.5  1.0  1.0  5  0 298295874
[20]  B19 1f 35   -288.8 4092000.7  1.0  1.0  5  0 298295928
[21]  B20 1f 44   2287.3 4091994.0  1.0  1.0  5  0 298295919
lsq: nits= 2
$GNGGA,105133.000,3112.6998,N,12136.4296,E,1,07,1.8,58.7,M,,,,0000*21
$GNRMC,105133.000,A,3112.6998,N,12136.4296,E,1.05,0.00,220519,,*10
$GPGSA,A,3,02,06,12,23,25,,,,,,,,2.1,1.8,1.0*38
$BDGSA,A,3,05,08,,,,,,,,,,,2.1,1.8,1.0*25
$GPGSV,2,1,05,02,38,304,42,06,58,003,49,12,26,299,45,23,21,055,38*7F
$GPGSV,2,2,05,25,01,325,39*44
$BDGSV,2,1,07,05,15,255,31,08,58,002,42,12,00,000,35,13,00,000,39*61
$BDGSV,2,2,07,19,00,000,35,20,00,000,44,07,18,193,00*56
$LOGTIM,3,-828.045717,-993.407597,0.000000,0.000000,-64.198*1F
EndT:        3
---00000054--- Acq_st=3 2019-5-22 10:51:33 
[00]  G02  f 42  -1796.7 2046002.4  1.0  1.0  5  0 298310924
[01]  G06  f 49   -333.5 2046000.4  1.0  1.0  5  0 298310930
[02]  G12  f 45  -1246.2 2046001.6  1.0  1.0  5  0 298310923
[03]  G23  f 39    973.0 2045998.8  1.0  1.0  5  0 298310919
[04]  G25  f 40  -2631.9 2046003.4  1.0  1.0  5  0 298310914
[16]  B05 1f 33   -348.7 4092001.1  0.9  0.0  2  0 298296866
[17]  B08 1f 42   -562.1 4092001.5  1.0  1.0  5  0 298296877
[18]  B12 1f 35  -3077.3 4092008.0  1.0  0.9  5  0 298296915
[19]  B13 1f 39   -588.5 4092001.5  1.0  1.0  5  0 298296874
[20]  B19 1f 35   -288.0 4092000.7  1.0  1.0  5  0 298296928
[21]  B20 1f 43   2288.0 4091993.9  1.0  1.0  5  0 298296919
lsq: nits= 2
$GNGGA,105134.000,3112.6990,N,12136.4291,E,1,07,1.8,58.0,M,,,,0000*2E
$GNRMC,105134.000,A,3112.6990,N,12136.4291,E,0.85,0.00,220519,,*11
$GPGSA,A,3,02,06,12,23,25,,,,,,,,2.1,1.8,1.0*38
$BDGSA,A,3,05,08,,,,,,,,,,,2.1,1.8,1.0*25
$GPGSV,2,1,05,02,38,304,42,06,58,003,49,12,26,299,45,23,21,055,39*7E
$GPGSV,2,2,05,25,01,325,40*4A
$BDGSV,2,1,07,05,15,255,33,08,58,002,42,12,00,000,35,13,00,000,39*63
$BDGSV,2,2,07,19,00,000,35,20,00,000,43,07,18,193,00*51
$LOGTIM,3,-892.703429,-1057.333222,0.000000,0.000000,-64.256*2D
EndT:        3
---00000055--- Acq_st=7 2019-5-22 10:51:34 
[00]  G02  f 42  -1797.2 2046002.4  1.0  1.0  5  0 298311924
[01]  G06  f 49   -334.3 2046000.4  1.0  1.0  5  0 298311930
[02]  G12  f 45  -1246.5 2046001.6  1.0  1.0  5  0 298311923
[03]  G23  f 39    972.4 2045998.7  1.0  1.0  5  0 298311919
[04]  G25  f 39  -2633.1 2046003.4  1.0  1.0  5  0 298311914
[16]  B05 1f 34   -349.0 4092001.0  0.9  0.0  2  0 298297866
[17]  B08 1f 42   -563.0 4092001.5  1.0  1.0  5  0 298297877
[18]  B12 1f 35  -3077.1 4092008.1  1.0  1.0  5  0 298297915
[19]  B13 1f 39   -589.4 4092001.5  1.0  1.0  5  0 298297874
[20]  B19 1f 35   -287.3 4092000.8  1.0  1.0  5  0 298297928
[21]  B20 1f 44   2287.5 4091994.0  1.0  1.0  5  0 298297919
lsq: nits= 2
$GNGGA,105135.000,3112.6984,N,12136.4286,E,1,07,1.8,57.8,M,,,,0000*2B
$GNRMC,105135.000,A,3112.6984,N,12136.4286,E,0.83,0.00,220519,,*15
$GPGSA,A,3,02,06,12,23,25,,,,,,,,2.1,1.8,1.0*38
$BDGSA,A,3,05,08,,,,,,,,,,,2.1,1.8,1.0*25
$GPGSV,2,1,05,02,38,304,42,06,58,003,49,12,26,299,45,23,21,055,39*7E
$GPGSV,2,2,05,25,01,325,39*44
$BDGSV,2,1,07,05,15,255,34,08,58,002,42,12,00,000,35,13,00,000,39*64
$BDGSV,2,2,07,19,00,000,35,20,00,000,44,07,18,193,00*56
$LOGTIM,3,-957.212121,-1121.279514,0.000000,0.000000,-64.386*2C
EndT:        3
---00000056--- Acq_st=3 2019-5-22 10:51:35 
[00]  G02  f 42  -1796.9 2046002.3  1.0  1.0  5  0 298312924
[01]  G06  f 49   -333.3 2046000.4  1.0  1.0  5  0 298312930
[02]  G12  f 44  -1245.3 2046001.6  1.0  1.0  5  0 298312923
[03]  G23  f 39    973.8 2045998.7  1.0  1.0  5  0 298312919
[04]  G25  f 39  -2631.8 2046003.4  1.0  1.0  5  0 298312914
[16]  B05 1f 35   -348.5 4092000.9  0.9  0.0  2  0 298298866
[17]  B08 1f 42   -562.5 4092001.5  1.0  1.0  5  0 298298877
[18]  B12 1f 35  -3076.9 4092008.1  1.0  1.0  5  0 298298915
[19]  B13 1f 40   -589.2 4092001.5  1.0  1.0  5  0 298298874
[20]  B19 1f 35   -286.9 4092000.7  1.0  1.0  5  0 298298928
[21]  B20 1f 44   2288.3 4091994.0  1.0  1.0  5  0 298298919
lsq: nits= 2
$GNGGA,105136.000,3112.7016,N,12136.4286,E,1,07,1.8,61.8,M,,,,0000*2E
$GNRMC,105136.000,A,3112.7016,N,12136.4286,E,0.56,0.00,220519,,*1D
$GPGSA,A,3,02,06,12,23,25,,,,,,,,2.1,1.8,1.0*38
$BDGSA,A,3,05,08,,,,,,,,,,,2.1,1.8,1.0*25
$GPGSV,2,1,05,02,38,304,42,06,58,003,49,12,26,299,44,23,21,055,39*7F
$GPGSV,2,2,05,25,01,325,39*44
$BDGSV,2,1,07,05,15,255,35,08,58,002,42,12,00,000,35,13,00,000,40*6B
$BDGSV,2,2,07,19,00,000,35,20,00,000,44,07,18,193,00*56
$LOGTIM,3,-1018.418949,-1187.520741,0.000000,0.000000,-64.247*1C
EndT:        3
---00000057--- Acq_st=3 2019-5-22 10:51:36 
[00]  G02  f 42  -1790.6 2046002.3  1.0  1.0  5  0 298313924
[01]  G06  f 49   -326.9 2046000.4  1.0  1.0  5  0 298313930
[02]  G12  f 45  -1238.3 2046001.6  1.0  1.0  5  0 298313923
[03]  G23  f 38    980.7 2045998.7  1.0  0.9  5  0 298313919
