FlashID=0x1 0x20 0x18
BBram_blkflag1: 10d5: ef2a
FW Ver: 1.30  
GPS00 Init Dop:   5000, 40
GPS01 Init Dop:   5000, 40
GPS02 Init Dop:   5000, 40
GPS03 Init Dop:   5000, 40
GPS04 Init Dop:   5000, 40
GPS05 Init Dop:   5000, 40
GPS06 Init Dop:   5000, 40
GPS07 Init Dop:   5000, 40
GPS08 Init Dop:   5000, 40
GPS09 Init Dop:   5000, 40
GPS10 Init Dop:   5000, 40
GPS11 Init Dop:   5000, 40
GPS12 Init Dop:   5000, 40
GPS13 Init Dop:   5000, 40
GPS14 Init Dop:   5000, 40
GPS15 Init Dop:   5000, 40
GPS16 Init Dop:   5000, 40
GPS17 Init Dop:   5000, 40
GPS18 Init Dop:   5000, 40
GPS19 Init Dop:   5000, 40
GPS20 Init Dop:   5000, 40
GPS21 Init Dop:   5000, 40
GPS22 Init Dop:   5000, 40
GPS23 Init Dop:   5000, 40
GPS24 Init Dop:   5000, 40
GPS25 Init Dop:   5000, 40
GPS26 Init Dop:   5000, 40
GPS27 Init Dop:   5000, 40
GPS28 Init Dop:   5000, 40
GPS29 Init Dop:   5000, 40
GPS30 Init Dop:   5000, 40
GPS31 Init Dop:   5000, 40
BDS00 Init Dop:   5000, 40
BDS01 Init Dop:   5000, 40
BDS02 Init Dop:   5000, 40
BDS03 Init Dop:   5000, 40
BDS04 Init Dop:   5000, 40
BDS05 Init Dop:   5000, 40
BDS06 Init Dop:   5000, 40
BDS07 Init Dop:   5000, 40
BDS08 Init Dop:   5000, 40
BDS09 Init Dop:   5000, 40
BDS10 Init Dop:   5000, 40
BDS11 Init Dop:   5000, 40
BDS12 Init Dop:   5000, 40
BDS13 Init Dop:   5000, 40
BDS14 Init Dop:   5000, 40
BDS15 Init Dop:   5000, 40
BDS16 Init Dop:   5000, 40
BDS17 Init Dop:   5000, 40
BDS18 Init Dop:   5000, 40
BDS19 Init Dop:   5000, 40
BDS20 Init Dop:   5000, 40
BDS21 Init Dop:   5000, 40
BDS22 Init Dop:   5000, 40
BDS23 Init Dop:   5000, 40
BDS24 Init Dop:   5000, 40
BDS25 Init Dop:   5000, 40
BDS26 Init Dop:   5000, 40
BDS27 Init Dop:   5000, 40
BDS28 Init Dop:   5000, 40
BDS29 Init Dop:   5000, 40
BDS30 Init Dop:   5000, 40
BDS31 Init Dop:   5000, 40
good luck!
---00000001--- Acq_st=3 2019-5-22 11:26:31 
$GNGGA,000000.000,,,,,0,00,,,M,,,,0000*2B
$GNRMC,000000.000,A,,,,,,,000000,,*26
$GPGSA,A,1,,,,,,,,,,,,,,,*1E
$BDGSA,A,1,,,,,,,,,,,,,,,*0F
$LOGTIM,0,0.000000,0.000000,0.000000,0.000000,0.000*0A
EndT:        0
---00000002--- Acq_st=3 2019-5-22 11:26:32 
[00]  G05  1  7  -1230.0 2046000.9 -0.1  0.0  1  0         0
$GNGGA,000000.000,,,,,0,00,,,M,,,,0000*2B
$GNRMC,000000.000,A,,,,,,,000000,,*26
$GPGSA,A,1,,,,,,,,,,,,,,,*1E
$BDGSA,A,1,,,,,,,,,,,,,,,*0F
$LOGTIM,0,0.000000,0.000000,0.000000,0.000000,0.000*0A
EndT:        0
---00000003--- Acq_st=3 2019-5-22 11:26:33 
[00]  G05  1  7  -1266.3 2046001.1 -0.0  0.0  1  0         3
$GNGGA,000000.000,,,,,0,00,,,M,,,,0000*2B
$GNRMC,000000.000,A,,,,,,,000000,,*26
$GPGSA,A,1,,,,,,,,,,,,,,,*1E
$BDGSA,A,1,,,,,,,,,,,,,,,*0F
$LOGTIM,0,0.000000,0.000000,0.000000,0.000000,0.000*0A
EndT:        0
---00000004--- Acq_st=3 2019-5-22 11:26:34 
[00]  G05  1  7   -980.4 2046001.6  0.0  0.0  1  0         3
$GNGGA,000000.000,,,,,0,00,,,M,,,,0000*2B
$GNRMC,000000.000,A,,,,,,,000000,,*26
$GPGSA,A,1,,,,,,,,,,,,,,,*1E
$BDGSA,A,1,,,,,,,,,,,,,,,*0F
$LOGTIM,0,0.000000,0.000000,0.000000,0.000000,0.000*0A
EndT:        0
---00000005--- Acq_st=3 2019-5-22 11:26:35 
[00]  G05  1 12   -943.8 2046001.0 -0.1  0.0  1  0         3
$GNGGA,000000.000,,,,,0,00,,,M,,,,0000*2B
$GNRMC,000000.000,A,,,,,,,000000,,*26
$GPGSA,A,1,,,,,,,,,,,,,,,*1E
$BDGSA,A,1,,,,,,,,,,,,,,,*0F
$LOGTIM,0,0.000000,0.000000,0.000000,0.000000,0.000*0A
EndT:        0
---00000006--- Acq_st=3 2019-5-22 11:26:36 
$GNGGA,000000.000,,,,,0,00,,,M,,,,0000*2B
$GNRMC,000000.000,A,,,,,,,000000,,*26
$GPGSA,A,1,,,,,,,,,,,,,,,*1E
$BDGSA,A,1,,,,,,,,,,,,,,,*0F
$LOGTIM,0,0.000000,0.000000,0.000000,0.000000,0.000*0A
EndT:        0
---00000007--- Acq_st=3 2019-5-22 11:26:37 
$GNGGA,000000.000,,,,,0,00,,,M,,,,0000*2B
$GNRMC,000000.000,A,,,,,,,000000,,*26
$GPGSA,A,1,,,,,,,,,,,,,,,*1E
$BDGSA,A,1,,,,,,,,,,,,,,,*0F
$LOGTIM,0,0.000000,0.000000,0.000000,0.000000,0.000*0A
EndT:        0
---00000008--- Acq_st=3 2019-5-22 11:26:38 
$GNGGA,000000.000,,,,,0,00,,,M,,,,0000*2B
$GNRMC,000000.000,A,,,,,,,000000,,*26
$GPGSA,A,1,,,,,,,,,,,,,,,*1E
$BDGSA,A,1,,,,,,,,,,,,,,,*0F
$LOGTIM,0,0.000000,0.000000,0.000000,0.000000,0.000*0A
EndT:        0
---00000009--- Acq_st=3 2019-5-22 11:26:39 
[00]  G25  1  7    805.9 2046000.3  0.0  0.0  1  0         3
$GNGGA,000000.000,,,,,0,00,,,M,,,,0000*2B
$GNRMC,000000.000,A,,,,,,,000000,,*26
$GPGSA,A,1,,,,,,,,,,,,,,,*1E
$BDGSA,A,1,,,,,,,,,,,,,,,*0F
$LOGTIM,0,0.000000,0.000000,0.000000,0.000000,0.000*0A
EndT:        0
---00000010--- Acq_st=3 2019-5-22 11:26:40 
[00]  G25  1  7    971.9 2046000.1 -0.0  0.0  1  0         9
$GNGGA,000000.000,,,,,0,00,,,M,,,,0000*2B
$GNRMC,000000.000,A,,,,,,,000000,,*26
$GPGSA,A,1,,,,,,,,,,,,,,,*1E
$BDGSA,A,1,,,,,,,,,,,,,,,*0F
$LOGTIM,0,0.000000,0.000000,0.000000,0.000000,0.000*0A
EndT:        0
---00000011--- Acq_st=3 2019-5-22 11:26:41 
[00]  G25  1  7    906.9 2046000.7 -0.1  0.0  1  0         9
$GNGGA,000000.000,,,,,0,00,,,M,,,,0000*2B
$GNRMC,000000.000,A,,,,,,,000000,,*26
$GPGSA,A,1,,,,,,,,,,,,,,,*1E
$BDGSA,A,1,,,,,,,,,,,,,,,*0F
$LOGTIM,0,0.000000,0.000000,0.000000,0.000000,0.000*0A
EndT:        0
---00000012--- Acq_st=3 2019-5-22 11:26:42 
$GNGGA,000000.000,,,,,0,00,,,M,,,,0000*2B
$GNRMC,000000.000,A,,,,,,,000000,,*26
$GPGSA,A,1,,,,,,,,,,,,,,,*1E
$BDGSA,A,1,,,,,,,,,,,,,,,*0F
$LOGTIM,0,0.000000,0.000000,0.000000,0.000000,0.000*0A
EndT:        0
---00000013--- Acq_st=3 2019-5-22 11:26:43 
$GNGGA,000000.000,,,,,0,00,,,M,,,,0000*2B
$GNRMC,000000.000,A,,,,,,,000000,,*26
$GPGSA,A,1,,,,,,,,,,,,,,,*1E
$BDGSA,A,1,,,,,,,,,,,,,,,*0F
$LOGTIM,0,0.000000,0.000000,0.000000,0.000000,0.000*0A
EndT:        0
---00000014--- Acq_st=3 2019-5-22 11:26:44 
$GNGGA,000000.000,,,,,0,00,,,M,,,,0000*2B
$GNRMC,000000.000,A,,,,,,,000000,,*26
$GPGSA,A,1,,,,,,,,,,,,,,,*1E
$BDGSA,A,1,,,,,,,,,,,,,,,*0F
$LOGTIM,0,0.000000,0.000000,0.000000,0.000000,0.000*0A
EndT:        0
---00000015--- Acq_st=3 2019-5-22 11:26:45 
[16]  B05  1 19   -338.9 4092000.9  0.3  0.0  1  0         0
$GNGGA,000000.000,,,,,0,00,,,M,,,,0000*2B
$GNRMC,000000.000,A,,,,,,,000000,,*26
$GPGSA,A,1,,,,,,,,,,,,,,,*1E
$BDGSA,A,1,,,,,,,,,,,,,,,*0F
$LOGTIM,0,0.000000,0.000000,0.000000,0.000000,0.000*0A
EndT:        0
---00000016--- Acq_st=3 2019-5-22 11:26:46 
[16]  B05  7 32   -344.1 4092000.8  0.9  0.0  2  0       684
$GNGGA,000000.000,,,,,0,00,,,M,,,,0000*2B
$GNRMC,000000.000,A,,,,,,,000000,,*26
$GPGSA,A,1,,,,,,,,,,,,,,,*1E
$BDGSA,A,1,,,,,,,,,,,,,,,*0F
$BDGSV,1,1,01,05,00,000,32*5D
$LOGTIM,0,0.000000,0.000000,0.000000,0.000000,0.000*0A
EndT:        0
---00000017--- Acq_st=3 2019-5-22 11:26:47 
[16]  B05 1f 33   -345.7 4092000.9  0.9  0.0  2  0      1683
$GNGGA,000000.000,,,,,0,00,,,M,,,,0000*2B
$GNRMC,000000.000,A,,,,,,,000000,,*26
$GPGSA,A,1,,,,,,,,,,,,,,,*1E
$BDGSA,A,1,,,,,,,,,,,,,,,*0F
$BDGSV,1,1,01,05,00,000,33*5C
$LOGTIM,0,0.000000,0.000000,0.000000,0.000000,0.000*0A
EndT:        0
---00000018--- Acq_st=3 2019-5-22 11:26:48 
[16]  B05 1f 32   -343.1 4092000.8  0.9  0.0  2  0 300411797
$GNGGA,000000.000,,,,,0,00,,,M,,,,0000*2B
$GNRMC,000000.000,A,,,,,,,000000,,*26
$GPGSA,A,1,,,,,,,,,,,,,,,*1E
$BDGSA,A,1,,,,,,,,,,,,,,,*0F
$BDGSV,1,1,01,05,00,000,32*5D
$LOGTIM,0,0.000000,0.000000,0.000000,0.000000,0.000*0A
EndT:        0
---00000019--- Acq_st=3 2019-5-22 11:26:49 
[16]  B05 1f 33   -346.3 4092000.7  0.9  0.0  2  0 300412797
$GNGGA,000000.000,,,,,0,00,,,M,,,,0000*2B
$GNRMC,000000.000,A,,,,,,,000000,,*26
$GPGSA,A,1,,,,,,,,,,,,,,,*1E
$BDGSA,A,1,,,,,,,,,,,,,,,*0F
$BDGSV,1,1,01,05,00,000,33*5C
$LOGTIM,0,0.000000,0.000000,0.000000,0.000000,0.000*0A
EndT:        0
---00000020--- Acq_st=3 2019-5-22 11:26:50 
[16]  B05 1f 32   -353.0 4092001.0  0.9  0.0  2  0 300413797
[17]  B12  1  7  -3072.1 4092008.0 -0.1  0.0  1  0         0
$GNGGA,000000.000,,,,,0,00,,,M,,,,0000*2B
$GNRMC,000000.000,A,,,,,,,000000,,*26
$GPGSA,A,1,,,,,,,,,,,,,,,*1E
$BDGSA,A,1,,,,,,,,,,,,,,,*0F
$BDGSV,1,1,01,05,00,000,32*5D
$LOGTIM,0,0.000000,0.000000,0.000000,0.000000,0.000*0A
EndT:        0
---00000021--- Acq_st=3 2019-5-22 11:26:51 
[16]  B05 1f 32   -351.7 4092000.8  0.9  0.0  2  0 300414797
[17]  B12  7 26  -3068.2 4092008.1 -0.2  0.0 20  0       781
$GNGGA,000000.000,,,,,0,00,,,M,,,,0000*2B
$GNRMC,000000.000,A,,,,,,,000000,,*26
$GPGSA,A,1,,,,,,,,,,,,,,,*1E
$BDGSA,A,1,,,,,,,,,,,,,,,*0F
$BDGSV,1,1,02,05,00,000,32,12,00,000,26*69
$LOGTIM,0,0.000000,0.000000,0.000000,0.000000,0.000*0A
EndT:        0
---00000022--- Acq_st=3 2019-5-22 11:26:52 
[16]  B05 1f 32   -347.1 4092001.1  0.9  0.0  2  0 300415797
[17]  B12  7 37  -3064.7 4092008.0  0.8  1.0  5  0      1770
$GNGGA,000000.000,,,,,0,00,,,M,,,,0000*2B
$GNRMC,000000.000,A,,,,,,,000000,,*26
$GPGSA,A,1,,,,,,,,,,,,,,,*1E
$BDGSA,A,1,,,,,,,,,,,,,,,*0F
$BDGSV,1,1,02,05,00,000,32,12,00,000,37*69
$LOGTIM,0,0.000000,0.000000,0.000000,0.000000,0.000*0A
EndT:        0
---00000023--- Acq_st=3 2019-5-22 11:26:53 
[16]  B05 1f 33   -346.4 4092000.9  0.9  0.0  2  0 300416797
[17]  B12  7 37  -3064.8 4092008.0  1.0  1.0  5  0      2770
$GNGGA,000000.000,,,,,0,00,,,M,,,,0000*2B
$GNRMC,000000.000,A,,,,,,,000000,,*26
$GPGSA,A,1,,,,,,,,,,,,,,,*1E
$BDGSA,A,1,,,,,,,,,,,,,,,*0F
$BDGSV,1,1,02,05,00,000,33,12,00,000,37*68
$LOGTIM,0,0.000000,0.000000,0.000000,0.000000,0.000*0A
EndT:        0
---00000024--- Acq_st=3 2019-5-22 11:26:54 
[16]  B05 1f 32   -347.7 4092001.0  0.9  0.0  2  0 300417797
[17]  B12  7 36  -3065.2 4092008.0  1.0  1.0  5  0      3770
$GNGGA,000000.000,,,,,0,00,,,M,,,,0000*2B
$GNRMC,000000.000,A,,,,,,,000000,,*26
$GPGSA,A,1,,,,,,,,,,,,,,,*1E
$BDGSA,A,1,,,,,,,,,,,,,,,*0F
$BDGSV,1,1,02,05,00,000,32,12,00,000,36*68
$LOGTIM,0,0.000000,0.000000,0.000000,0.000000,0.000*0A
EndT:        0
---00000025--- Acq_st=3 2019-5-22 11:26:55 
[16]  B05 1f 31   -347.7 4092001.0  0.9  0.0  2  0 300418797
[17]  B12  7 36  -3064.9 4092008.0  1.0  1.0  5  0      4770
[18]  B19  1  7    713.7 4091997.4  0.0  0.0  1  0         0
$GNGGA,000000.000,,,,,0,00,,,M,,,,0000*2B
$GNRMC,000000.000,A,,,,,,,000000,,*26
$GPGSA,A,1,,,,,,,,,,,,,,,*1E
$BDGSA,A,1,,,,,,,,,,,,,,,*0F
$BDGSV,1,1,02,05,00,000,31,12,00,000,36*6B
$LOGTIM,0,0.000000,0.000000,0.000000,0.000000,0.000*0A
EndT:        0
---00000026--- Acq_st=3 2019-5-22 11:26:56 
[16]  B05 1f 32   -344.7 4092000.9  0.9  0.0  2  0 300419797
[17]  B12  7 36  -3061.6 4092008.0  1.0  1.0  5  0      5770
[18]  B19  7 28    718.5 4091998.1 -0.1  1.0 10  0       879
$GNGGA,000000.000,,,,,0,00,,,M,,,,0000*2B
$GNRMC,000000.000,A,,,,,,,000000,,*26
$GPGSA,A,1,,,,,,,,,,,,,,,*1E
$BDGSA,A,1,,,,,,,,,,,,,,,*0F
$BDGSV,1,1,03,05,00,000,32,12,00,000,36,19,00,000,28*5B
$LOGTIM,0,0.000000,0.000000,0.000000,0.000000,0.000*0A
EndT:        0
---00000027--- Acq_st=3 2019-5-22 11:26:57 
[16]  B05 1f 30   -347.8 4092000.9  0.9  0.0  2  0 300420797
[17]  B12 1f 36  -3064.7 4092008.0  1.0  0.9  5  0      6770
[18]  B19  7 37    714.6 4091998.1  0.9  1.0  5  0      1878
$GNGGA,000000.000,,,,,0,00,,,M,,,,0000*2B
$GNRMC,000000.000,A,,,,,,,000000,,*26
$GPGSA,A,1,,,,,,,,,,,,,,,*1E
$BDGSA,A,1,,,,,,,,,,,,,,,*0F
$BDGSV,1,1,03,05,00,000,30,12,00,000,36,19,00,000,37*57
$LOGTIM,0,0.000000,0.000000,0.000000,0.000000,0.000*0A
EndT:        0
---00000028--- Acq_st=3 2019-5-22 11:26:58 
[16]  B05 1f 30   -353.8 4092000.7  0.9  0.0  2  0 300421797
[17]  B12 1f 36  -3071.4 4092008.0  1.0  1.0  5  0 300421850
[18]  B19  7 37    708.5 4091998.1  1.0  1.0  5  0      2878
$GNGGA,000000.000,,,,,0,00,,,M,,,,0000*2B
$GNRMC,000000.000,A,,,,,,,000000,,*26
$GPGSA,A,1,,,,,,,,,,,,,,,*1E
$BDGSA,A,1,,,,,,,,,,,,,,,*0F
$BDGSV,1,1,03,05,00,000,30,12,00,000,36,19,00,000,37*57
$LOGTIM,0,0.000000,0.000000,0.000000,0.000000,0.000*0A
EndT:        0
---00000029--- Acq_st=3 2019-5-22 11:26:59 
[16]  B05 1f 31   -353.6 4092001.0  0.9  0.0  2  0 300422797
[17]  B12 1f 36  -3071.0 4092008.0  1.0  0.9  5  0 300422850
[18]  B19  7 37    709.5 4091998.2  1.0  1.0  5  0      3878
$GNGGA,000000.000,,,,,0,00,,,M,,,,0000*2B
$GNRMC,000000.000,A,,,,,,,000000,,*26
$GPGSA,A,1,,,,,,,,,,,,,,,*1E
$BDGSA,A,1,,,,,,,,,,,,,,,*0F
$BDGSV,1,1,03,05,00,000,31,12,00,000,36,19,00,000,37*56
$LOGTIM,0,0.000000,0.000000,0.000000,0.000000,0.000*0A
EndT:        0
---00000030--- Acq_st=3 2019-5-22 11:27:0 
[16]  B05 1f 31   -350.3 4092000.9  0.9  0.0  2  0 300423797
[17]  B12 1f 36  -3067.5 4092008.0  1.0  1.0  5  0 300423850
[18]  B19  7 36    713.2 4091998.1  1.0  0.9  5  0      4878
$GNGGA,000000.000,,,,,0,00,,,M,,,,0000*2B
$GNRMC,000000.000,A,,,,,,,000000,,*26
$GPGSA,A,1,,,,,,,,,,,,,,,*1E
$BDGSA,A,1,,,,,,,,,,,,,,,*0F
$BDGSV,1,1,03,05,00,000,31,12,00,000,36,19,00,000,36*57
$LOGTIM,0,0.000000,0.000000,0.000000,0.000000,0.000*0A
EndT:        0
---00000031--- Acq_st=3 2019-5-22 11:27:1 
[16]  B05 1f 31   -347.1 4092000.8  0.9  0.0  2  0 300424797
[17]  B12 1f 36  -3063.5 4092008.0  1.0  1.0  5  0 300424850
[18]  B19  7 36    716.8 4091998.1  1.0  1.0  5  0      5878
$GNGGA,000000.000,,,,,0,00,,,M,,,,0000*2B
$GNRMC,000000.000,A,,,,,,,000000,,*26
$GPGSA,A,1,,,,,,,,,,,,,,,*1E
$BDGSA,A,1,,,,,,,,,,,,,,,*0F
$BDGSV,1,1,03,05,00,000,31,12,00,000,36,19,00,000,36*57
$LOGTIM,0,0.000000,0.000000,0.000000,0.000000,0.000*0A
EndT:        0
---00000032--- Acq_st=3 2019-5-22 11:27:2 
[16]  B05 1f 32   -348.3 4092000.8  0.9  0.0  2  0 300425797
[17]  B12 1f 37  -3065.4 4092008.0  1.0  1.0  5  0 300425850
[18]  B19  7 36    716.3 4091998.1  1.0  1.0  5  0      6878
$GNGGA,000000.000,,,,,0,00,,,M,,,,0000*2B
$GNRMC,000000.000,A,,,,,,,000000,,*26
$GPGSA,A,1,,,,,,,,,,,,,,,*1E
$BDGSA,A,1,,,,,,,,,,,,,,,*0F
$BDGSV,1,1,03,05,00,000,32,12,00,000,37,19,00,000,36*55
$LOGTIM,0,0.000000,0.000000,0.000000,0.000000,0.000*0A
EndT:        0
---00000033--- Acq_st=3 2019-5-22 11:27:3 
[16]  B05 1f 31   -350.3 4092000.8  0.9  0.0  2  0 300426797
[17]  B12 1f 37  -3067.4 4092008.0  1.0  1.0  5  0 300426850
[18]  B19 1f 35    715.3 4091998.1  1.0  1.0  5  0      7878
$GNGGA,000000.000,,,,,0,00,,,M,,,,0000*2B
$GNRMC,000000.000,A,,,,,,,000000,,*26
$GPGSA,A,1,,,,,,,,,,,,,,,*1E
$BDGSA,A,1,,,,,,,,,,,,,,,*0F
$BDGSV,1,1,03,05,00,000,31,12,00,000,37,19,00,000,35*55
$LOGTIM,0,0.000000,0.000000,0.000000,0.000000,0.000*0A
EndT:        0
---00000034--- Acq_st=7 2019-5-22 11:27:4 
[16]  B05 1f 32   -351.5 4092001.0  0.9  0.0  2  0 300427797
[17]  B12 1f 37  -3068.7 4092008.0  1.0  1.0  5  0 300427850
[18]  B19 1f 35    714.1 4091998.3  1.0  1.0  5  0 300427858
$GNGGA,000000.000,,,,,0,00,,,M,,,,0000*2B
$GNRMC,000000.000,A,,,,,,,000000,,*26
$GPGSA,A,1,,,,,,,,,,,,,,,*1E
$BDGSA,A,1,,,,,,,,,,,,,,,*0F
$BDGSV,1,1,03,05,00,000,31,12,00,000,37,19,00,000,35*55
$LOGTIM,0,0.000000,0.000000,0.000000,0.000000,0.000*0A
EndT:        0
---00000035--- Acq_st=3 2019-5-22 11:27:5 
[16]  B05 1f 32   -354.8 4092001.1  0.9  0.0  2  0 300428797
[17]  B12 1f 37  -3071.5 4092008.0  1.0  0.9  5  0 300428850
[18]  B19 1f 34    710.7 4091998.2  1.0  1.0  5  0 300428858
$GNGGA,000000.000,,,,,0,00,,,M,,,,0000*2B
$GNRMC,000000.000,A,,,,,,,000000,,*26
$GPGSA,A,1,,,,,,,,,,,,,,,*1E
$BDGSA,A,1,,,,,,,,,,,,,,,*0F
$BDGSV,1,1,03,05,00,000,32,12,00,000,37,19,00,000,34*57
$LOGTIM,0,0.000000,0.000000,0.000000,0.000000,0.000*0A
EndT:        0
---00000036--- Acq_st=3 2019-5-22 11:27:6 
[16]  B05 1f 33   -353.1 4092000.8  0.9  0.0  2  0 300429797
[17]  B12 1f 37  -3069.1 4092008.0  1.0  0.9  5  0 300429850
[18]  B19 1f 33    712.7 4091998.1  1.0  1.0  5  0 300429858
$GNGGA,000000.000,,,,,0,00,,,M,,,,0000*2B
$GNRMC,000000.000,A,,,,,,,000000,,*26
$GPGSA,A,1,,,,,,,,,,,,,,,*1E
$BDGSA,A,1,,,,,,,,,,,,,,,*0F
$BDGSV,1,1,03,05,00,000,33,12,00,000,37,19,00,000,33*51
$LOGTIM,0,0.000000,0.000000,0.000000,0.000000,0.000*0A
EndT:        0
---00000037--- Acq_st=3 2019-5-22 11:27:7 
[16]  B05 1f 31   -348.1 4092000.9  0.9  0.0  2  0 300430797
[17]  B12 1f 37  -3064.6 4092008.0  1.0  1.0  5  0 300430850
[18]  B19 1f 33    718.8 4091998.2  0.9  0.9  5  0 300430858
$GNGGA,000000.000,,,,,0,00,,,M,,,,0000*2B
$GNRMC,000000.000,A,,,,,,,000000,,*26
$GPGSA,A,1,,,,,,,,,,,,,,,*1E
$BDGSA,A,1,,,,,,,,,,,,,,,*0F
$BDGSV,1,1,03,05,00,000,31,12,00,000,37,19,00,000,33*53
$LOGTIM,0,0.000000,0.000000,0.000000,0.000000,0.000*0A
EndT:        0
---00000038--- Acq_st=3 2019-5-22 11:27:8 
[16]  B05 1f 33   -348.1 4092000.9  0.9  0.0  2  0 300431797
[17]  B12 1f 37  -3064.5 4092008.0  1.0  0.9  5  0 300431850
[18]  B19 1f 31    718.1 4091998.1  0.9  0.9  5  0 300431858
$GNGGA,000000.000,,,,,0,00,,,M,,,,0000*2B
$GNRMC,000000.000,A,,,,,,,000000,,*26
$GPGSA,A,1,,,,,,,,,,,,,,,*1E
$BDGSA,A,1,,,,,,,,,,,,,,,*0F
$BDGSV,1,1,03,05,00,000,33,12,00,000,37,19,00,000,31*53
$LOGTIM,0,0.000000,0.000000,0.000000,0.000000,0.000*0A
EndT:        0
---00000039--- Acq_st=3 2019-5-22 11:27:9 
[16]  B05 1f 30   -353.8 4092001.0  0.9  0.0  2  0 300432797
[17]  B12 1f 37  -3070.4 4092008.0  1.0  1.0  5  0 300432850
[18]  B19 1f 31    713.8 4091998.1  1.0  1.0  5  0 300432858
$GNGGA,000000.000,,,,,0,00,,,M,,,,0000*2B
$GNRMC,000000.000,A,,,,,,,000000,,*26
$GPGSA,A,1,,,,,,,,,,,,,,,*1E
$BDGSA,A,1,,,,,,,,,,,,,,,*0F
$BDGSV,1,1,03,05,00,000,30,12,00,000,37,19,00,000,31*50
$LOGTIM,0,0.000000,0.000000,0.000000,0.000000,0.000*0A
EndT:        0
---00000040--- Acq_st=3 2019-5-22 11:27:10 
[16]  B05 1f 34   -354.8 4092001.0  0.9  0.0  2  0 300433797
[17]  B12 1f 38  -3071.9 4092008.1  1.0  1.0  5  0 300433850
[18]  B19 1f 30    713.6 4091998.1  0.9  1.0  5  0 300433858
$GNGGA,000000.000,,,,,0,00,,,M,,,,0000*2B
$GNRMC,000000.000,A,,,,,,,000000,,*26
$GPGSA,A,1,,,,,,,,,,,,,,,*1E
$BDGSA,A,1,,,,,,,,,,,,,,,*0F
$BDGSV,1,1,03,05,00,000,34,12,00,000,38,19,00,000,30*5A
$LOGTIM,0,0.000000,0.000000,0.000000,0.000000,0.000*0A
EndT:        0
---00000041--- Acq_st=3 2019-5-22 11:27:11 
[16]  B05 1f 33   -352.9 4092000.7  0.9  0.0  2  0 300434797
[17]  B12 1f 37  -3069.3 4092008.0  1.0  1.1  5  0 300434850
[18]  B19 1f 29    715.1 4091998.1  0.9  0.8  5  0 300434858
$GNGGA,000000.000,,,,,0,00,,,M,,,,0000*2B
$GNRMC,000000.000,A,,,,,,,000000,,*26
$GPGSA,A,1,,,,,,,,,,,,,,,*1E
$BDGSA,A,1,,,,,,,,,,,,,,,*0F
$BDGSV,1,1,03,05,00,000,33,12,00,000,37,19,00,000,29*5A
$LOGTIM,0,0.000000,0.000000,0.000000,0.000000,0.000*0A
EndT:        0
---00000042--- Acq_st=3 2019-5-22 11:27:12 
[16]  B05 1f 32   -351.3 4092000.9  0.9  0.0  2  0 300435797
[17]  B12 1f 37  -3067.7 4092008.0  1.0  0.9  5  0 300435850
[18]  B19 1f 27    718.9 4091998.1  0.9  0.8  5  0 300435858
$GNGGA,000000.000,,,,,0,00,,,M,,,,0000*2B
$GNRMC,000000.000,A,,,,,,,000000,,*26
$GPGSA,A,1,,,,,,,,,,,,,,,*1E
$BDGSA,A,1,,,,,,,,,,,,,,,*0F
$BDGSV,1,1,03,05,00,000,32,12,00,000,37,19,00,000,27*55
$LOGTIM,0,0.000000,0.000000,0.000000,0.000000,0.000*0A
EndT:        0
---00000043--- Acq_st=3 2019-5-22 11:27:13 
[00]  G25  1  7    797.8 2045999.9 -0.1  0.0  1  0         9
[16]  B05 1f 32   -344.7 4092001.0  0.9  0.0  2  0 300436797
[17]  B12 1f 38  -3060.8 4092008.0  1.0  1.0  5  0 300436850
[18]  B19 1f 25    724.6 4091998.1  0.5  0.8 10  0 300436858
$GNGGA,000000.000,,,,,0,00,,,M,,,,0000*2B
$GNRMC,000000.000,A,,,,,,,000000,,*26
$GPGSA,A,1,,,,,,,,,,,,,,,*1E
$BDGSA,A,1,,,,,,,,,,,,,,,*0F
$BDGSV,1,1,03,05,00,000,32,12,00,000,38,19,00,000,25*58
$LOGTIM,0,0.000000,0.000000,0.000000,0.000000,0.000*0A
EndT:        0
---00000044--- Acq_st=3 2019-5-22 11:27:14 
[00]  G25  1  7    753.0 2046000.1 -0.1  0.0  1  0         7
[16]  B05 1f 32   -341.8 4092000.9  0.9  0.0  2  0 300437797
[17]  B12 1f 38  -3057.6 4092008.0  1.0  1.0  5  0 300437850
[18]  B19 1f 24    728.4 4091998.1  0.7  0.8 10  0 300437858
$GNGGA,000000.000,,,,,0,00,,,M,,,,0000*2B
$GNRMC,000000.000,A,,,,,,,000000,,*26
$GPGSA,A,1,,,,,,,,,,,,,,,*1E
$BDGSA,A,1,,,,,,,,,,,,,,,*0F
$BDGSV,1,1,03,05,00,000,32,12,00,000,38,19,00,000,24*59
$LOGTIM,0,0.000000,0.000000,0.000000,0.000000,0.000*0A
EndT:        0
---00000045--- Acq_st=3 2019-5-22 11:27:15 
[00]  G25  1  7    914.9 2046000.0 -0.0  0.0  1  0         7
[16]  B05 1f 32   -343.3 4092001.0  0.9  0.0  2  0 300438797
[17]  B12 1f 37  -3059.5 4092008.1  1.0  1.0  5  0 300438850
[18]  B19 1f 24    726.4 4091998.1  0.7  0.7 10  0 300438858
$GNGGA,000000.000,,,,,0,00,,,M,,,,0000*2B
$GNRMC,000000.000,A,,,,,,,000000,,*26
$GPGSA,A,1,,,,,,,,,,,,,,,*1E
$BDGSA,A,1,,,,,,,,,,,,,,,*0F
$BDGSV,1,1,03,05,00,000,32,12,00,000,37,19,00,000,24*56
$LOGTIM,0,0.000000,0.000000,0.000000,0.000000,0.000*0A
EndT:        0
---00000046--- Acq_st=3 2019-5-22 11:27:16 
[16]  B05 1f 32   -347.3 4092000.9  0.9  0.0  2  0 300439797
[17]  B12 1f 38  -3063.3 4092008.0  1.0  1.0  5  0 300439850
[18]  B19 1f 25    723.1 4091998.1  0.8  0.9 10  0 300439858
$GNGGA,000000.000,,,,,0,00,,,M,,,,0000*2B
$GNRMC,000000.000,A,,,,,,,000000,,*26
$GPGSA,A,1,,,,,,,,,,,,,,,*1E
$BDGSA,A,1,,,,,,,,,,,,,,,*0F
$BDGSV,1,1,03,05,00,000,32,12,00,000,38,19,00,000,25*58
$LOGTIM,0,0.000000,0.000000,0.000000,0.000000,0.000*0A
EndT:        0
---00000047--- Acq_st=3 2019-5-22 11:27:17 
[16]  B05 1f 31   -347.1 4092000.8  0.9  0.0  2  0 300440797
[17]  B12 1f 38  -3063.1 4092008.0  1.0  1.0  5  0 300440850
[18]  B19 1f 27    723.2 4091998.2  0.9  0.9 10  0 300440858
$GNGGA,000000.000,,,,,0,00,,,M,,,,0000*2B
$GNRMC,000000.000,A,,,,,,,000000,,*26
$GPGSA,A,1,,,,,,,,,,,,,,,*1E
$BDGSA,A,1,,,,,,,,,,,,,,,*0F
$BDGSV,1,1,03,05,00,000,31,12,00,000,38,19,00,000,27*59
$LOGTIM,0,0.000000,0.000000,0.000000,0.000000,0.000*0A
EndT:        0
---00000048--- Acq_st=3 2019-5-22 11:27:18 
[16]  B05 1f 32   -350.0 4092001.0  0.9  0.0  2  0 300441797
[17]  B12 1f 37  -3066.8 4092008.1  1.0  1.0  5  0 300441850
[18]  B19 1f 28    720.7 4091998.2  0.9  1.0 10  0 300441858
$GNGGA,000000.000,,,,,0,00,,,M,,,,0000*2B
$GNRMC,000000.000,A,,,,,,,000000,,*26
$GPGSA,A,1,,,,,,,,,,,,,,,*1E
$BDGSA,A,1,,,,,,,,,,,,,,,*0F
$BDGSV,1,1,03,05,00,000,32,12,00,000,37,19,00,000,28*5A
$LOGTIM,0,0.000000,0.000000,0.000000,0.000000,0.000*0A
EndT:        0
---00000049--- Acq_st=3 2019-5-22 11:27:19 
[16]  B05 1f 33   -350.3 4092000.8  0.9  0.0  2  0 300442797
[17]  B12 1f 38  -3065.9 4092008.0  1.0  1.0  5  0 300442850
[18]  B19 1f 30    721.1 4091998.1  0.9  0.9  5  0 300442858
$GNGGA,000000.000,,,,,0,00,,,M,,,,0000*2B
$GNRMC,000000.000,A,,,,,,,000000,,*26
$GPGSA,A,1,,,,,,,,,,,,,,,*1E
$BDGSA,A,1,,,,,,,,,,,,,,,*0F
$BDGSV,1,1,03,05,00,000,33,12,00,000,38,19,00,000,30*5D
$LOGTIM,0,0.000000,0.000000,0.000000,0.000000,0.000*0A
EndT:        0
---00000050--- Acq_st=3 2019-5-22 11:27:20 
[16]  B05 1f 32   -347.7 4092001.0  0.9  0.0  2  0 300443797
[17]  B12 1f 38  -3063.6 4092008.1  1.0  1.0  5  0 300443850
[18]  B19 1f 31    724.4 4091998.1  0.9  0.9  5  0 300443858
[19]  B08  1  7   -724.2 4092002.2  0.0  0.0  1  0         0
$GNGGA,000000.000,,,,,0,00,,,M,,,,0000*2B
$GNRMC,000000.000,A,,,,,,,000000,,*26
$GPGSA,A,1,,,,,,,,,,,,,,,*1E
$BDGSA,A,1,,,,,,,,,,,,,,,*0F
$BDGSV,1,1,03,05,00,000,32,12,00,000,38,19,00,000,31*5D
$LOGTIM,0,0.000000,0.000000,0.000000,0.000000,0.000*0A
EndT:        0
---00000051--- Acq_st=3 2019-5-22 11:27:21 
[16]  B05 1f 32   -348.6 4092000.8  0.9  0.0  2  0 300444797
[17]  B12 1f 38  -3064.2 4092008.1  1.0  1.0  5  0 300444850
[18]  B19 1f 31    723.0 4091998.1  1.0  0.9  5  0 300444858
[19]  B08  1  7   -709.5 4092002.7  0.2  0.0  1  0       340
$GNGGA,000000.000,,,,,0,00,,,M,,,,0000*2B
$GNRMC,000000.000,A,,,,,,,000000,,*26
$GPGSA,A,1,,,,,,,,,,,,,,,*1E
$BDGSA,A,1,,,,,,,,,,,,,,,*0F
$BDGSV,1,1,03,05,00,000,32,12,00,000,38,19,00,000,31*5D
$LOGTIM,0,0.000000,0.000000,0.000000,0.000000,0.000*0A
EndT:        0
---00000052--- Acq_st=3 2019-5-22 11:27:22 
[16]  B05 1f 31   -351.1 4092000.9  0.9  0.0  2  0 300445797
[17]  B12 1f 37  -3066.8 4092008.0  1.0  1.0  5  0 300445850
[18]  B19 1f 31    721.6 4091998.2  1.0  1.0  5  0 300445858
[19]  B08  7 34   -711.4 4092001.9  0.8  1.0  5  0      1329
$GNGGA,000000.000,,,,,0,00,,,M,,,,0000*2B
$GNRMC,000000.000,A,,,,,,,000000,,*26
$GPGSA,A,1,,,,,,,,,,,,,,,*1E
$BDGSA,A,1,,,,,,,,,,,,,,,*0F
$BDGSV,1,1,04,05,00,000,31,12,00,000,37,19,00,000,31,08,00,000,34*69
$LOGTIM,0,0.000000,0.000000,0.000000,0.000000,0.000*0A
EndT:        0
---00000053--- Acq_st=3 2019-5-22 11:27:23 
[16]  B05 1f 31   -351.0 4092001.1  0.9  0.0  2  0 300446797
[17]  B12 1f 37  -3066.7 4092008.0  1.0  1.0  5  0 300446850
[18]  B19 1f 31    722.0 4091998.1  1.0  0.9  5  0 300446858
[19]  B08  7 36   -712.0 4092001.9  1.0  1.0  5  0      2329
[20]  B13  1  7   -855.2 4092002.4  0.0  0.0  1  0         0
$GNGGA,000000.000,,,,,0,00,,,M,,,,0000*2B
$GNRMC,000000.000,A,,,,,,,000000,,*26
$GPGSA,A,1,,,,,,,,,,,,,,,*1E
$BDGSA,A,1,,,,,,,,,,,,,,,*0F
$BDGSV,1,1,04,05,00,000,31,12,00,000,37,19,00,000,31,08,00,000,36*6B
$LOGTIM,0,0.000000,0.000000,0.000000,0.000000,0.000*0A
EndT:        0
---00000054--- Acq_st=3 2019-5-22 11:27:24 
[16]  B05 1f 31   -354.6 4092000.9  0.9  0.0  2  0 300447797
[17]  B12 1f 38  -3070.4 4092008.0  1.0  1.0  5  0 300447850
[18]  B19 1f 32    719.8 4091998.1  1.0  1.0  5  0 300447858
[19]  B08  7 36   -715.1 4092001.9  1.0  1.0  5  0      3329
[20]  B13  7 18   -752.8 4092002.1  0.0  0.0 20  0       539
$GNGGA,000000.000,,,,,0,00,,,M,,,,0000*2B
$GNRMC,000000.000,A,,,,,,,000000,,*26
$GPGSA,A,1,,,,,,,,,,,,,,,*1E
$BDGSA,A,1,,,,,,,,,,,,,,,*0F
$BDGSV,2,1,05,05,00,000,31,12,00,000,38,19,00,000,32,08,00,000,36*65
$BDGSV,2,2,05,13,00,000,18*56
$LOGTIM,0,0.000000,0.000000,0.000000,0.000000,0.000*0A
EndT:        0
---00000055--- Acq_st=3 2019-5-22 11:27:25 
[16]  B05 1f 32   -356.1 4092001.0  0.9  0.0  2  0 300448797
[17]  B12 1f 38  -3071.3 4092008.0  1.0  1.0  5  0 300448850
[18]  B19 1f 33    718.0 4091998.2  1.0  1.0  5  0 300448858
[19]  B08  7 36   -717.5 4092001.9  1.0  1.0  5  0      4329
[20]  B13  7 35   -756.2 4092002.1  0.5  1.0  5  0      1526
$GNGGA,000000.000,,,,,0,00,,,M,,,,0000*2B
$GNRMC,000000.000,A,,,,,,,000000,,*26
$GPGSA,A,1,,,,,,,,,,,,,,,*1E
$BDGSA,A,1,,,,,,,,,,,,,,,*0F
$BDGSV,2,1,05,05,00,000,32,12,00,000,38,19,00,000,33,08,00,000,36*67
$BDGSV,2,2,05,13,00,000,35*59
$LOGTIM,0,0.000000,0.000000,0.000000,0.000000,0.000*0A
EndT:        0
---00000056--- Acq_st=3 2019-5-22 11:27:26 
[16]  B05 1f 31   -353.6 4092000.9  0.9  0.0  2  0 300449797
[17]  B12 1f 38  -3068.8 4092008.0  1.0  1.0  5  0 300449850
[18]  B19 1f 33    722.1 4091998.1  1.0  0.9  5  0 300449858
[19]  B08  7 37   -714.1 4092001.9  1.0  0.9  5  0      5329
[20]  B13  7 35   -754.0 4092002.0  1.0  1.0  5  0      2526
$GNGGA,000000.000,,,,,0,00,,,M,,,,0000*2B
$GNRMC,000000.000,A,,,,,,,000000,,*26
$GPGSA,A,1,,,,,,,,,,,,,,,*1E
$BDGSA,A,1,,,,,,,,,,,,,,,*0F
$BDGSV,2,1,05,05,00,000,31,12,00,000,38,19,00,000,33,08,00,000,37*65
$BDGSV,2,2,05,13,00,000,35*59
$LOGTIM,0,0.000000,0.000000,0.000000,0.000000,0.000*0A
EndT:        0
---00000057--- Acq_st=3 2019-5-22 11:27:27 
[16]  B05 1f 32   -350.2 4092001.0  0.9  0.0  2  0 300450797
[17]  B12 1f 38  -3065.7 4092008.0  1.0  1.0  5  0 300450850
[18]  B19 1f 33    724.7 4091998.0  1.0  0.9  5  0 300450858
[19]  B08 1f 37   -711.3 4092001.8  1.0  1.0  5  0      6329
[20]  B13 1f 35   -750.6 4092002.0  1.0  1.0  5  0      3526
$GNGGA,000000.000,,,,,0,00,,,M,,,,0000*2B
$GNRMC,000000.000,A,,,,,,,000000,,*26
$GPGSA,A,1,,,,,,,,,,,,,,,*1E
$BDGSA,A,1,,,,,,,,,,,,,,,*0F
$BDGSV,2,1,05,05,00,000,32,12,00,000,38,19,00,000,33,08,00,000,37*66
$BDGSV,2,2,05,13,00,000,35*59
$LOGTIM,0,0.000000,0.000000,0.000000,0.000000,0.000*0A
EndT:        0
---00000058--- Acq_st=3 2019-5-22 11:27:28 
[16]  B05 1f 32   -356.1 4092001.1  0.9  0.0  2  0 300451797
[17]  B12 1f 38  -3071.5 4092008.1  1.0  0.9  5  0 300451850
[18]  B19 1f 34    719.7 4091998.1  1.0  1.0  5  0 300451858
[19]  B08 1f 37   -717.9 4092001.9  1.0  0.9  5  0 300451809
[20]  B13 1f 35   -756.1 4092002.0  1.0  1.0  5  0 300451806
$GNGGA,000000.000,,,,,0,00,,,M,,,,0000*2B
$GNRMC,000000.000,A,,,,,,,000000,,*26
$GPGSA,A,1,,,,,,,,,,,,,,,*1E
$BDGSA,A,1,,,,,,,,,,,,,,,*0F
$BDGSV,2,1,05,05,00,000,32,12,00,000,38,19,00,000,34,08,00,000,37*61
$BDGSV,2,2,05,13,00,000,35*59
$LOGTIM,0,0.000000,0.000000,0.000000,0.000000,0.000*0A
EndT:        0
---00000059--- Acq_st=3 2019-5-22 11:27:29 
[16]  B05 1f 31   -357.6 4092000.8  0.9  0.0  2  0 300452797
[17]  B12 1f 38  -3072.3 4092008.1  1.0  0.9  5  0 300452850
[18]  B19 1f 34    717.9 4091998.0  1.0  1.0  5  0 300452858
[19]  B08 1f 37   -718.2 4092001.9  1.0  1.0  5  0 300452809
[20]  B13 1f 35   -758.3 4092002.0  1.0  1.0  5  0 300452806
$GNGGA,000000.000,,,,,0,00,,,M,,,,0000*2B
$GNRMC,000000.000,A,,,,,,,000000,,*26
$GPGSA,A,1,,,,,,,,,,,,,,,*1E
$BDGSA,A,1,,,,,,,,,,,,,,,*0F
$BDGSV,2,1,05,05,00,000,31,12,00,000,38,19,00,000,34,08,00,000,37*62
$BDGSV,2,2,05,13,00,000,35*59
$LOGTIM,0,0.000000,0.000000,0.000000,0.000000,0.000*0A
EndT:        0
---00000060--- Acq_st=3 2019-5-22 11:27:30 
[16]  B05 1f 32   -353.9 4092001.0  0.9  0.0  2  0 300453797
[17]  B12 1f 38  -3069.2 4092008.0  1.0  1.0  5  0 300453850
[18]  B19 1f 34    722.2 4091998.1  1.0  0.9  5  0 300453858
[19]  B08 1f 37   -715.2 4092001.8  1.0  1.0  5  0 300453809
[20]  B13 1f 35   -753.9 4092001.9  1.0  1.0  5  0 300453806
$GNGGA,000000.000,,,,,0,00,,,M,,,,0000*2B
$GNRMC,000000.000,A,,,,,,,000000,,*26
$GPGSA,A,1,,,,,,,,,,,,,,,*1E
$BDGSA,A,1,,,,,,,,,,,,,,,*0F
$BDGSV,2,1,05,05,00,000,32,12,00,000,38,19,00,000,34,08,00,000,37*61
$BDGSV,2,2,05,13,00,000,35*59
$LOGTIM,0,0.000000,0.000000,0.000000,0.000000,0.000*0A
EndT:        0
---00000061--- Acq_st=3 2019-5-22 11:27:31 
[16]  B05 1f 32   -348.9 4092000.6  0.9  0.0  2  0 300454797
[17]  B12 1f 38  -3064.3 4092008.1  1.0  1.0  5  0 300454850
[18]  B19 1f 34    727.7 4091998.1  1.0  1.0  5  0 300454858
[19]  B08 1f 37   -710.5 4092001.8  1.0  1.0  5  0 300454809
[20]  B13 1f 35   -749.4 4092002.0  1.0  1.0  5  0 300454806
$GNGGA,000000.000,,,,,0,00,,,M,,,,0000*2B
$GNRMC,000000.000,A,,,,,,,000000,,*26
$GPGSA,A,1,,,,,,,,,,,,,,,*1E
$BDGSA,A,1,,,,,,,,,,,,,,,*0F
$BDGSV,2,1,05,05,00,000,32,12,00,000,38,19,00,000,34,08,00,000,37*61
$BDGSV,2,2,05,13,00,000,35*59
$LOGTIM,0,0.000000,0.000000,0.000000,0.000000,0.000*0A
EndT:        0
---00000062--- Acq_st=3 2019-5-22 11:27:32 
[16]  B05 1f 31   -348.3 4092001.1  0.9  0.0  2  0 300455797
[17]  B12 1f 38  -3063.6 4092008.0  1.0  1.0  5  0 300455850
[18]  B19 1f 34    727.7 4091998.1  1.0  1.0  5  0 300455858
[19]  B08 1f 37   -709.9 4092001.9  1.0  1.0  5  0 300455809
[20]  B13 1f 35   -748.5 4092001.9  1.0  1.0  5  0 300455806
$GNGGA,000000.000,,,,,0,00,,,M,,,,0000*2B
$GNRMC,000000.000,A,,,,,,,000000,,*26
$GPGSA,A,1,,,,,,,,,,,,,,,*1E
$BDGSA,A,1,,,,,,,,,,,,,,,*0F
$BDGSV,2,1,05,05,00,000,31,12,00,000,38,19,00,000,34,08,00,000,37*62
$BDGSV,2,2,05,13,00,000,35*59
$LOGTIM,0,0.000000,0.000000,0.000000,0.000000,0.000*0A
EndT:        0
---00000063--- Acq_st=3 2019-5-22 11:27:33 
[16]  B05 1f 32   -349.0 4092000.8  0.9  0.0  2  0 300456797
[17]  B12 1f 38  -3063.9 4092008.1  1.0  1.0  5  0 300456850
[18]  B19 1f 34    729.0 4091998.1  1.0  1.0  5  0 300456858
[19]  B08 1f 37   -710.1 4092001.9  1.0  1.0  5  0 300456809
[20]  B13 1f 35   -748.8 4092002.0  1.0  1.0  5  0 300456806
$GNGGA,000000.000,,,,,0,00,,,M,,,,0000*2B
$GNRMC,000000.000,A,,,,,,,000000,,*26
$GPGSA,A,1,,,,,,,,,,,,,,,*1E
$BDGSA,A,1,,,,,,,,,,,,,,,*0F
$BDGSV,2,1,05,05,00,000,32,12,00,000,38,19,00,000,34,08,00,000,37*61
$BDGSV,2,2,05,13,00,000,35*59
$LOGTIM,0,0.000000,0.000000,0.000000,0.000000,0.000*0A
EndT:        0
---00000064--- Acq_st=3 2019-5-22 11:27:34 
[16]  B05 1f 32   -353.2 4092001.0  0.9  0.0  2  0 300457797
[17]  B12 1f 38  -3068.3 4092008.0  1.0  1.0  5  0 300457850
[18]  B19 1f 34    724.1 4091998.1  1.0  1.0  5  0 300457858
[19]  B08 1f 37   -715.0 4092001.9  1.0  1.0  5  0 300457809
[20]  B13 1f 35   -754.1 4092002.0  1.0  1.0  5  0 300457806
$GNGGA,000000.000,,,,,0,00,,,M,,,,0000*2B
$GNRMC,000000.000,A,,,,,,,000000,,*26
$GPGSA,A,1,,,,,,,,,,,,,,,*1E
$BDGSA,A,1,,,,,,,,,,,,,,,*0F
$BDGSV,2,1,05,05,00,000,32,12,00,000,38,19,00,000,34,08,00,000,37*61
$BDGSV,2,2,05,13,00,000,35*59
$LOGTIM,0,0.000000,0.000000,0.000000,0.000000,0.000*0A
EndT:        0
---00000065--- Acq_st=3 2019-5-22 11:27:35 
[16]  B05 1f 31   -354.9 4092000.9  0.9  0.0  2  0 300458797
[17]  B12 1f 38  -3070.1 4092008.1  1.0  0.9  5  0 300458850
[18]  B19 1f 34    723.5 4091998.1  1.0  1.0  5  0 300458858
[19]  B08 1f 37   -717.1 4092001.9  1.0  1.0  5  0 300458809
[20]  B13 1f 36   -755.1 4092002.0  1.0  0.9  5  0 300458806
$GNGGA,000000.000,,,,,0,00,,,M,,,,0000*2B
$GNRMC,000000.000,A,,,,,,,000000,,*26
$GPGSA,A,1,,,,,,,,,,,,,,,*1E
$BDGSA,A,1,,,,,,,,,,,,,,,*0F
$BDGSV,2,1,05,05,00,000,31,12,00,000,38,19,00,000,34,08,00,000,37*62
$BDGSV,2,2,05,13,00,000,36*5A
$LOGTIM,0,0.000000,0.000000,0.000000,0.000000,0.000*0A
EndT:        0
---00000066--- Acq_st=7 2019-5-22 11:27:36 
[16]  B05 1f 31   -358.6 4092000.9  0.9  0.0  2  0 300459797
[17]  B12 1f 37  -3073.3 4092008.0  1.0  1.0  5  0 300459850
[18]  B19 1f 34    719.3 4091998.2  1.0  1.0  5  0 300459858
[19]  B08 1f 38   -719.4 4092001.9  1.0  1.0  5  0 300459809
[20]  B13 1f 36   -758.7 4092002.0  1.0  0.9  5  0 300459806
$GNGGA,000000.000,,,,,0,00,,,M,,,,0000*2B
$GNRMC,000000.000,A,,,,,,,000000,,*26
$GPGSA,A,1,,,,,,,,,,,,,,,*1E
$BDGSA,A,1,,,,,,,,,,,,,,,*0F
$BDGSV,2,1,05,05,00,000,31,12,00,000,37,19,00,000,34,08,00,000,38*62
$BDGSV,2,2,05,13,00,000,36*5A
$LOGTIM,0,0.000000,0.000000,0.000000,0.000000,0.000*0A
EndT:        0
---00000067--- Acq_st=7 2019-5-22 11:27:37 
[16]  B05 1f 31   -362.0 4092001.1  0.9  0.0  2  0 300460797
[17]  B12 1f 37  -3076.2 4092008.0  1.0  0.9  5  0 300460850
[18]  B19 1f 34    717.6 4091998.1  1.0  1.0  5  0 300460858
[19]  B08 1f 37   -723.4 4092001.9  1.0  1.0  5  0 300460809
[20]  B13 1f 36   -762.0 4092001.9  1.0  1.0  5  0 300460806
$GNGGA,000000.000,,,,,0,00,,,M,,,,0000*2B
$GNRMC,000000.000,A,,,,,,,000000,,*26
$GPGSA,A,1,,,,,,,,,,,,,,,*1E
$BDGSA,A,1,,,,,,,,,,,,,,,*0F
$BDGSV,2,1,05,05,00,000,31,12,00,000,37,19,00,000,34,08,00,000,37*6D
$BDGSV,2,2,05,13,00,000,36*5A
$LOGTIM,0,0.000000,0.000000,0.000000,0.000000,0.000*0A
EndT:        0
---00000068--- Acq_st=3 2019-5-22 11:27:38 
[16]  B05 1f 30   -357.2 4092000.9  0.9  0.0  2  0 300461797
[17]  B12 1f 37  -3072.3 4092008.0  1.0  0.9  5  0 300461850
[18]  B19 1f 34    721.8 4091998.0  1.0  1.0  5  0 300461858
[19]  B08 1f 37   -718.8 4092001.9  1.0  1.0  5  0 300461809
[20]  B13 1f 36   -758.3 4092002.0  1.0  0.9  5  0 300461806
$GNGGA,000000.000,,,,,0,00,,,M,,,,0000*2B
$GNRMC,000000.000,A,,,,,,,000000,,*26
$GPGSA,A,1,,,,,,,,,,,,,,,*1E
$BDGSA,A,1,,,,,,,,,,,,,,,*0F
$BDGSV,2,1,05,05,00,000,30,12,00,000,37,19,00,000,34,08,00,000,37*6C
$BDGSV,2,2,05,13,00,000,36*5A
$LOGTIM,0,0.000000,0.000000,0.000000,0.000000,0.000*0A
EndT:        0
---00000069--- Acq_st=3 2019-5-22 11:27:39 
[16]  B05 1f 31   -352.1 4092001.3  0.9  0.0  2  0 300462797
[17]  B12 1f 37  -3066.7 4092008.1  1.0  0.9  5  0 300462850
[18]  B19 1f 34    728.0 4091998.1  1.0  1.0  5  0 300462858
[19]  B08 1f 37   -714.3 4092001.9  1.0  0.9  5  0 300462809
[20]  B13 1f 36   -752.9 4092002.0  1.0  1.0  5  0 300462806
$GNGGA,000000.000,,,,,0,00,,,M,,,,0000*2B
$GNRMC,000000.000,A,,,,,,,000000,,*26
$GPGSA,A,1,,,,,,,,,,,,,,,*1E
$BDGSA,A,1,,,,,,,,,,,,,,,*0F
$BDGSV,2,1,05,05,00,000,30,12,00,000,37,19,00,000,34,08,00,000,37*6C
$BDGSV,2,2,05,13,00,000,36*5A
$LOGTIM,0,0.000000,0.000000,0.000000,0.000000,0.000*0A
EndT:        0
---00000070--- Acq_st=3 2019-5-22 11:27:40 
[16]  B05 1f 30   -354.0 4092001.0  0.9  0.0  2  0 300463797
[17]  B12 1f 37  -3068.9 4092008.1  1.0  1.0  5  0 300463850
[18]  B19 1f 33    726.5 4091998.1  1.0  1.0  5  0 300463858
[19]  B08 1f 37   -716.1 4092001.8  1.0  1.0  5  0 300463809
[20]  B13 1f 36   -754.7 4092002.0  1.0  1.0  5  0 300463806
$GNGGA,000000.000,,,,,0,00,,,M,,,,0000*2B
$GNRMC,000000.000,A,,,,,,,000000,,*26
$GPGSA,A,1,,,,,,,,,,,,,,,*1E
$BDGSA,A,1,,,,,,,,,,,,,,,*0F
$BDGSV,2,1,05,05,00,000,30,12,00,000,37,19,00,000,33,08,00,000,37*6B
$BDGSV,2,2,05,13,00,000,36*5A
$LOGTIM,0,0.000000,0.000000,0.000000,0.000000,0.000*0A
EndT:        0
---00000071--- Acq_st=3 2019-5-22 11:27:41 
[16]  B05 1f 30   -355.2 4092000.8  0.9  0.0  2  0 300464797
[17]  B12 1f 37  -3069.7 4092008.0  1.0  0.9  5  0 300464850
[18]  B19 1f 33    724.9 4091998.0  1.0  1.1  5  0 300464858
[19]  B08 1f 38   -716.9 4092001.9  1.0  1.0  5  0 300464809
[20]  B13 1f 36   -756.0 4092002.0  1.0  0.9  5  0 300464806
$GNGGA,000000.000,,,,,0,00,,,M,,,,0000*2B
$GNRMC,000000.000,A,,,,,,,000000,,*26
$GPGSA,A,1,,,,,,,,,,,,,,,*1E
$BDGSA,A,1,,,,,,,,,,,,,,,*0F
$BDGSV,2,1,05,05,00,000,30,12,00,000,37,19,00,000,33,08,00,000,38*64
$BDGSV,2,2,05,13,00,000,36*5A
$LOGTIM,0,0.000000,0.000000,0.000000,0.000000,0.000*0A
EndT:        0
---00000072--- Acq_st=3 2019-5-22 11:27:42 
[16]  B05 1f 31   -354.4 4092000.9  0.9  0.0  2  0 300465797
[17]  B12 1f 37  -3068.5 4092008.0  1.0  1.0  5  0 300465850
[18]  B19 1f 34    727.1 4091998.1  1.0  1.0  5  0 300465858
[19]  B08 1f 38   -716.0 4092001.9  1.0  1.0  5  0 300465809
[20]  B13 1f 36   -755.7 4092002.0  1.0  1.0  5  0 300465806
$GNGGA,000000.000,,,,,0,00,,,M,,,,0000*2B
$GNRMC,000000.000,A,,,,,,,000000,,*26
$GPGSA,A,1,,,,,,,,,,,,,,,*1E
$BDGSA,A,1,,,,,,,,,,,,,,,*0F
$BDGSV,2,1,05,05,00,000,31,12,00,000,37,19,00,000,34,08,00,000,38*62
$BDGSV,2,2,05,13,00,000,36*5A
$LOGTIM,0,0.000000,0.000000,0.000000,0.000000,0.000*0A
EndT:        0
---00000073--- Acq_st=3 2019-5-22 11:27:43 
[16]  B05 1f 31   -351.2 4092000.9  0.9  0.0  2  0 300466797
[17]  B12 1f 38  -3065.2 4092008.0  1.0  1.0  5  0 300466850
[18]  B19 1f 34    730.7 4091998.2  1.0  1.0  5  0 300466858
[19]  B08 1f 37   -712.6 4092001.9  1.0  0.9  5  0 300466809
[20]  B13 1f 36   -752.3 4092002.0  1.0  0.9  5  0 300466806
$GNGGA,000000.000,,,,,0,00,,,M,,,,0000*2B
$GNRMC,000000.000,A,,,,,,,000000,,*26
$GPGSA,A,1,,,,,,,,,,,,,,,*1E
$BDGSA,A,1,,,,,,,,,,,,,,,*0F
$BDGSV,2,1,05,05,00,000,31,12,00,000,38,19,00,000,34,08,00,000,37*62
$BDGSV,2,2,05,13,00,000,36*5A
$LOGTIM,0,0.000000,0.000000,0.000000,0.000000,0.000*0A
EndT:        0
---00000074--- Acq_st=3 2019-5-22 11:27:44 
[16]  B05 1f 32   -355.7 4092000.9  0.9  0.0  2  0 300467797
[17]  B12 1f 38  -3069.4 4092008.0  1.0  1.0  5  0 300467850
[18]  B19 1f 34    726.8 4091998.0  1.0  1.0  5  0 300467858
[19]  B08 1f 38   -717.9 4092001.9  1.0  1.0  5  0 300467809
[20]  B13 1f 36   -755.6 4092002.0  1.0  1.0  5  0 300467806
lsq: nits= 4
$GNGGA,112744.931,3112.7706,N,12136.5420,E,1,05,4.2,-307.5,M,,,,0000*33
$GNRMC,112744.931,A,3112.7706,N,12136.5420,E,0.14,0.00,220519,,*18
$GPGSA,A,3,,,,,,,,,,,,,8.1,4.2,6.9*32
$BDGSA,A,3,05,08,12,13,19,,,,,,,,8.1,4.2,6.9*27
$BDGSV,2,1,05,05,00,000,32,12,00,000,38,19,00,000,34,08,00,000,38*6E
$BDGSV,2,2,05,13,00,000,36*5A
$LOGTIM,2,0.000000,-10117596.874175,0.000000,0.000000,-66.410*09
EndT:        1
---00000075--- Acq_st=3 2019-5-22 11:27:45 
[16]  B05 1f 31   -351.3 4092001.0  0.9  0.0  2  0 300468797
[17]  B12 1f 37  -3065.3 4092008.0  1.0  0.9  5  0 300468850
[18]  B19 1f 34    731.3 4091998.0  1.0  1.0  5  0 300468858
[19]  B08 1f 38   -712.8 4092001.9  1.0  1.0  5  0 300468809
[20]  B13 1f 35   -751.6 4092002.0  1.0  1.0  5  0 300468806
lsq: nits= 2
$GNGGA,112746.000,3112.7450,N,12136.5480,E,1,05,4.2,-320.6,M,,,,0000*36
$GNRMC,112746.000,A,3112.7450,N,12136.5480,E,0.38,0.00,220519,,*15
$GPGSA,A,3,,,,,,,,,,,,,8.1,4.2,6.9*32
$BDGSA,A,3,05,08,12,13,19,,,,,,,,8.1,4.2,6.9*27
$BDGSV,2,1,05,05,00,000,31,12,00,000,37,19,00,000,34,08,00,000,38*62
$BDGSV,2,2,05,13,00,000,35*59
$LOGTIM,2,0.000000,-69.945537,0.000000,0.000000,-65.835*03
EndT:        2
---00000076--- Acq_st=3 2019-5-22 11:27:46 
[00]  G25  1  7    742.2 2045999.9 -0.0  0.0  1  0         7
[16]  B05 1f 31   -347.4 4092000.9  0.9  0.0  2  0 300469866
[17]  B12 1f 37  -3062.1 4092008.0  1.0  1.0  5  0 300469919
[18]  B19 1f 34    734.6 4091998.0  1.0  1.0  5  0 300469927
[19]  B08 1f 38   -709.7 4092001.8  1.0  1.0  5  0 300469878
[20]  B13 1f 36   -749.7 4092001.9  1.0  1.0  5  0 300469875
lsq: nits= 2
$GNGGA,112747.000,3112.7357,N,12136.5464,E,1,05,4.2,-291.7,M,,,,0000*37
$GNRMC,112747.000,A,3112.7357,N,12136.5464,E,0.06,0.00,220519,,*13
$GPGSA,A,3,,,,,,,,,,,,,8.1,4.2,6.9*32
$BDGSA,A,3,05,08,12,13,19,,,,,,,,8.1,4.2,6.9*27
$BDGSV,2,1,07,05,15,255,31,12,28,319,37,19,69,043,34,08,60,012,38*6A
$BDGSV,2,2,07,13,49,323,36,07,12,193,00,22,52,220,00*5F
$LOGTIM,2,0.000000,-134.862362,0.000000,0.000000,-65.409*3B
EndT:        2
---00000077--- Acq_st=3 2019-5-22 11:27:47 
[00]  G25  1  7    729.7 2045999.6 -0.1  0.0  1  0         4
[16]  B05 1f 31   -347.7 4092001.0  0.9  0.0  2  0 300470866
[17]  B12 1f 37  -3062.6 4092008.1  1.0  0.9  5  0 300470919
[18]  B19 1f 34    735.7 4091998.1  1.0  1.0  5  0 300470927
[19]  B08 1f 38   -709.9 4092001.8  1.0  1.0  5  0 300470878
[20]  B13 1f 36   -749.7 4092001.9  1.0  1.0  5  0 300470875
lsq: nits= 2
$GNGGA,112748.000,3112.7320,N,12136.5450,E,1,05,4.2,-293.3,M,,,,0000*39
$GNRMC,112748.000,A,3112.7320,N,12136.5450,E,0.17,0.00,220519,,*1B
$GPGSA,A,3,,,,,,,,,,,,,8.1,4.2,6.9*32
$BDGSA,A,3,05,08,12,13,19,,,,,,,,8.1,4.2,6.9*27
$BDGSV,2,1,07,05,15,255,31,12,28,319,37,19,69,043,34,08,60,012,38*6A
$BDGSV,2,2,07,13,49,323,36,07,12,193,00,22,52,220,00*5F
$LOGTIM,2,0.000000,-199.087751,0.000000,0.000000,-65.038*3D
EndT:        2
---00000078--- Acq_st=3 2019-5-22 11:27:48 
[00]  G25  1  7    487.5 2046000.0 -0.1  0.0  1  0         4
[16]  B05 1f 31   -347.2 4092000.8  0.9  0.0  2  0 300471866
[17]  B12 1f 37  -3060.8 4092008.0  1.0  1.0  5  0 300471919
[18]  B19 1f 35    736.2 4091998.0  1.0  1.0  5  0 300471927
[19]  B08 1f 38   -709.8 4092001.9  1.0  0.9  5  0 300471878
[20]  B13 1f 36   -748.6 4092002.0  1.0  1.0  5  0 300471875
lsq: nits= 2
$GNGGA,112749.000,3112.7316,N,12136.5386,E,1,05,4.2,-293.2,M,,,,0000*30
$GNRMC,112749.000,A,3112.7316,N,12136.5386,E,0.07,0.00,220519,,*12
$GPGSA,A,3,,,,,,,,,,,,,8.1,4.2,6.9*32
$BDGSA,A,3,05,08,12,13,19,,,,,,,,8.1,4.2,6.9*27
$BDGSV,2,1,07,05,15,255,31,12,28,319,37,19,69,043,35,08,60,012,38*6B
$BDGSV,2,2,07,13,49,323,36,07,12,193,00,22,52,220,00*5F
$LOGTIM,2,0.000000,-264.037392,0.000000,0.000000,-64.949*32
EndT:        2
---00000079--- Acq_st=3 2019-5-22 11:27:49 
[16]  B05 1f 32   -340.7 4092000.9  0.9  0.0  2  0 300472866
[17]  B12 1f 37  -3054.8 4092008.0  1.0  1.0  5  0 300472919
[18]  B19 1f 35    742.7 4091998.0  1.0  1.0  5  0 300472927
[19]  B08 1f 38   -703.3 4092001.8  1.0  1.0  5  0 300472878
[20]  B13 1f 36   -742.8 4092002.0  1.0  1.0  5  0 300472875
lsq: nits= 2
$GNGGA,112750.000,3112.7256,N,12136.5351,E,1,05,4.2,-281.3,M,,,,0000*35
$GNRMC,112750.000,A,3112.7256,N,12136.5351,E,0.41,0.00,220519,,*17
$GPGSA,A,3,,,,,,,,,,,,,8.1,4.2,6.9*32
$BDGSA,A,3,05,08,12,13,19,,,,,,,,8.1,4.2,6.9*27
$BDGSV,2,1,07,05,15,255,32,12,28,319,37,19,69,043,35,08,60,012,38*68
$BDGSV,2,2,07,13,49,323,36,07,12,193,00,22,52,220,00*5F
$LOGTIM,2,0.000000,-327.072225,0.000000,0.000000,-64.215*3A
EndT:        2
---00000080--- Acq_st=3 2019-5-22 11:27:50 
[16]  B05 1f 31   -344.6 4092001.1  0.9  0.0  2  0 300473866
[17]  B12 1f 37  -3059.3 4092008.0  1.0  1.0  5  0 300473919
[18]  B19 1f 35    740.3 4091998.1  1.0  1.0  5  0 300473927
[19]  B08 1f 38   -707.7 4092001.8  1.0  1.0  5  0 300473878
[20]  B13 1f 35   -746.9 4092001.9  1.0  1.0  5  0 300473875
lsq: nits= 2
$GNGGA,112751.000,3112.7219,N,12136.5340,E,1,05,4.2,-275.5,M,,,,0000*32
$GNRMC,112751.000,A,3112.7219,N,12136.5340,E,0.29,0.00,220519,,*13
$GPGSA,A,3,,,,,,,,,,,,,8.1,4.2,6.9*32
$BDGSA,A,3,05,08,12,13,19,,,,,,,,8.1,4.2,6.9*27
$BDGSV,2,1,07,05,15,255,31,12,28,319,37,19,69,043,35,08,60,012,38*6B
$BDGSV,2,2,07,13,49,323,35,07,12,193,00,22,52,220,00*5C
$LOGTIM,2,0.000000,-391.558126,0.000000,0.000000,-64.347*3C
EndT:        2
---00000081--- Acq_st=3 2019-5-22 11:27:51 
[16]  B05 1f 31   -342.8 4092000.9  0.9  0.0  2  0 300474866
[17]  B12 1f 37  -3056.9 4092008.0  1.0  1.0  5  0 300474919
[18]  B19 1f 35    741.3 4091998.0  1.0  1.0  5  0 300474927
[19]  B08 1f 38   -706.1 4092001.8  1.0  0.9  5  0 300474878
[20]  B13 1f 36   -745.1 4092001.9  1.0  1.0  5  0 300474875
lsq: nits= 2
$GNGGA,112752.000,3112.7181,N,12136.5312,E,1,05,4.2,-273.8,M,,,,0000*3F
$GNRMC,112752.000,A,3112.7181,N,12136.5312,E,0.33,0.00,220519,,*1E
$GPGSA,A,3,,,,,,,,,,,,,8.1,4.2,6.9*32
$BDGSA,A,3,05,08,12,13,19,,,,,,,,8.1,4.2,6.9*27
$BDGSV,2,1,07,05,15,255,31,12,28,319,37,19,69,043,35,08,60,012,38*6B
$BDGSV,2,2,07,13,49,323,36,07,12,193,00,22,52,220,00*5F
$LOGTIM,2,0.000000,-455.383946,0.000000,0.000000,-64.179*32
EndT:        2
---00000082--- Acq_st=3 2019-5-22 11:27:52 
[16]  B05 1f 32   -339.1 4092000.9  0.9  0.0  2  0 300475866
[17]  B12 1f 37  -3053.0 4092008.0  1.0  1.0  5  0 300475919
[18]  B19 1f 36    745.9 4091998.0  1.0  1.0  5  0 300475927
[19]  B08 1f 38   -702.2 4092001.8  1.0  0.9  5  0 300475878
[20]  B13 1f 36   -741.4 4092001.9  1.0  1.0  5  0 300475875
lsq: nits= 2
$GNGGA,112753.000,3112.7184,N,12136.5315,E,1,05,4.2,-274.5,M,,,,0000*36
$GNRMC,112753.000,A,3112.7184,N,12136.5315,E,0.50,0.00,220519,,*18
$GPGSA,A,3,,,,,,,,,,,,,8.1,4.2,6.9*32
$BDGSA,A,3,05,08,12,13,19,,,,,,,,8.1,4.2,6.9*27
$BDGSV,2,1,07,05,15,255,32,12,28,319,37,19,69,043,36,08,60,012,38*6B
$BDGSV,2,2,07,13,49,323,36,07,12,193,00,22,52,220,00*5F
$LOGTIM,2,0.000000,-517.581291,0.000000,0.000000,-63.688*3E
EndT:        2

