FlashID=0x1 0x20 0x18
BBram_blkflag1: 140e: ebf1
FW Ver: 1.30  
GPS00 Init Dop:   5000, 40
GPS01 Init Dop:   5000, 40
GPS02 Init Dop:   5000, 40
GPS03 Init Dop:   5000, 40
GPS04 Init Dop:   5000, 40
GPS05 Init Dop:   5000, 40
GPS06 Init Dop:   5000, 40
GPS07 Init Dop:   5000, 40
GPS08 Init Dop:   5000, 40
GPS09 Init Dop:   5000, 40
GPS10 Init Dop:   5000, 40
GPS11 Init Dop:   5000, 40
GPS12 Init Dop:   5000, 40
GPS13 Init Dop:   5000, 40
GPS14 Init Dop:   5000, 40
GPS15 Init Dop:   5000, 40
GPS16 Init Dop:   5000, 40
GPS17 Init Dop:   5000, 40
GPS18 Init Dop:   5000, 40
GPS19 Init Dop:   5000, 40
GPS20 Init Dop:   5000, 40
GPS21 Init Dop:   5000, 40
GPS22 Init Dop:   5000, 40
GPS23 Init Dop:   5000, 40
GPS24 Init Dop:   5000, 40
GPS25 Init Dop:   5000, 40
GPS26 Init Dop:   5000, 40
GPS27 Init Dop:   5000, 40
GPS28 Init Dop:   5000, 40
GPS29 Init Dop:   5000, 40
GPS30 Init Dop:   5000, 40
GPS31 Init Dop:   5000, 40
BDS00 Init Dop:   5000, 40
BDS01 Init Dop:   5000, 40
BDS02 Init Dop:   5000, 40
BDS03 Init Dop:   5000, 40
BDS04 Init Dop:   5000, 40
BDS05 Init Dop:   5000, 40
BDS06 Init Dop:   5000, 40
BDS07 Init Dop:   5000, 40
BDS08 Init Dop:   5000, 40
BDS09 Init Dop:   5000, 40
BDS10 Init Dop:   5000, 40
BDS11 Init Dop:   5000, 40
BDS12 Init Dop:   5000, 40
BDS13 Init Dop:   5000, 40
BDS14 Init Dop:   5000, 40
BDS15 Init Dop:   5000, 40
BDS16 Init Dop:   5000, 40
BDS17 Init Dop:   5000, 40
BDS18 Init Dop:   5000, 40
BDS19 Init Dop:   5000, 40
BDS20 Init Dop:   5000, 40
BDS21 Init Dop:   5000, 40
BDS22 Init Dop:   5000, 40
BDS23 Init Dop:   5000, 40
BDS24 Init Dop:   5000, 40
BDS25 Init Dop:   5000, 40
BDS26 Init Dop:   5000, 40
BDS27 Init Dop:   5000, 40
BDS28 Init Dop:   5000, 40
BDS29 Init Dop:   5000, 40
BDS30 Init Dop:   5000, 40
BDS31 Init Dop:   5000, 40
good luck!
---00000001--- Acq_st=3 2019-5-22 11:28:46 
[00]  G02  1 22  -1744.9 2046003.7 -0.0  0.0  1  0         0
$GNGGA,000000.000,,,,,0,00,,,M,,,,0000*2B
$GNRMC,000000.000,A,,,,,,,000000,,*26
$GPGSA,A,1,,,,,,,,,,,,,,,*1E
$BDGSA,A,1,,,,,,,,,,,,,,,*0F
$LOGTIM,0,0.000000,0.000000,0.000000,0.000000,0.000*0A
EndT:        0
---00000002--- Acq_st=3 2019-5-22 11:28:46 
[00]  G02  7  7  -1741.5 2046002.2  0.1  0.0  5  0        15
[01]  G05  1  7  -2487.9 2046003.8 -0.0  0.0  1  0         0
$GNGGA,000000.000,,,,,0,00,,,M,,,,0000*2B
$GNRMC,000000.000,A,,,,,,,000000,,*26
$GPGSA,A,1,,,,,,,,,,,,,,,*1E
$BDGSA,A,1,,,,,,,,,,,,,,,*0F
$LOGTIM,0,0.000000,0.000000,0.000000,0.000000,0.000*0A
EndT:        0
---00000003--- Acq_st=3 2019-5-22 11:28:47 
[00]  G02  7 44  -1739.6 2046002.2  1.0  1.0  5  0        12
[01]  G05  1 19  -2559.4 2046005.8 -0.1  0.0  1  0         1
[02]  G06  1 29     20.7 2046000.2 -0.1  0.0  1  0         0
$GNGGA,000000.000,,,,,0,00,,,M,,,,0000*2B
$GNRMC,000000.000,A,,,,,,,000000,,*26
$GPGSA,A,1,,,,,,,,,,,,,,,*1E
$BDGSA,A,1,,,,,,,,,,,,,,,*0F
$GPGSV,1,1,01,02,00,000,44*4A
$LOGTIM,0,0.000000,0.000000,0.000000,0.000000,0.000*0A
EndT:        0
---00000004--- Acq_st=3 2019-5-22 11:28:48 
[00]  G02  7 43  -1741.1 2046002.3  1.0  1.0  5  0        12
[01]  G05  7 36  -2562.0 2046003.5  0.4  0.9  5  0        13
[02]  G06  7 31     12.8 2045999.9  0.6  1.0  5  0         3
[03]  G09  1 18    412.3 2046000.0 -0.0  0.0  1  0         0
$GNGGA,000000.000,,,,,0,00,,,M,,,,0000*2B
$GNRMC,000000.000,A,,,,,,,000000,,*26
$GPGSA,A,1,,,,,,,,,,,,,,,*1E
$BDGSA,A,1,,,,,,,,,,,,,,,*0F
$GPGSV,1,1,03,02,00,000,43,05,00,000,36,06,00,000,31*4B
$LOGTIM,0,0.000000,0.000000,0.000000,0.000000,0.000*0A
EndT:        0
---00000005--- Acq_st=3 2019-5-22 11:28:49 
[00]  G02  f 43  -1745.0 2046002.3  1.0  1.0  5  0        12
[01]  G05  f 37  -2565.6 2046003.4  1.0  1.0  5  0        13
[02]  G06  7 44      9.6 2045999.9  1.0  1.0  5  0        16
[03]  G09  7 29    382.2 2045999.5  0.0  0.9 10  0         8
[04]  G12  1 28    144.1 2046000.6 -0.2  0.0  1  0         0
$GNGGA,000000.000,,,,,0,00,,,M,,,,0000*2B
$GNRMC,000000.000,A,,,,,,,000000,,*26
$GPGSA,A,1,,,,,,,,,,,,,,,*1E
$BDGSA,A,1,,,,,,,,,,,,,,,*0F
$GPGSV,1,1,04,02,00,000,43,05,00,000,37,06,00,000,44,09,00,000,29*7D
$LOGTIM,0,0.000000,0.000000,0.000000,0.000000,0.000*0A
EndT:        0
---00000006--- Acq_st=3 2019-5-22 11:28:50 
[00]  G02  f 43  -1747.4 2046002.3  1.0  1.0  5  0 300547932
[01]  G05  f 38  -2567.7 2046003.4  1.0  1.0  5  0 300547933
[02]  G06  7 44      7.3 2045999.9  1.0  1.0  5  0        16
[03]  G09  7 34    380.4 2045999.4  1.0  1.0  5  0        13
[04]  G12  7 31    147.1 2045999.7  0.5  1.0  5  0        14
$GNGGA,000000.000,,,,,0,00,,,M,,,,0000*2B
$GNRMC,000000.000,A,,,,,,,000000,,*26
$GPGSA,A,1,,,,,,,,,,,,,,,*1E
$BDGSA,A,1,,,,,,,,,,,,,,,*0F
$GPGSV,2,1,05,02,00,000,43,05,00,000,38,06,00,000,44,09,00,000,34*7C
$GPGSV,2,2,05,12,00,000,31*4D
$LOGTIM,0,0.000000,0.000000,0.000000,0.000000,0.000*0A
EndT:        1
---00000007--- Acq_st=3 2019-5-22 11:28:51 
[00]  G02  f 43  -1746.2 2046002.3  1.0  1.0  5  0 300548932
[01]  G05  f 38  -2566.4 2046003.4  1.0  1.0  5  0 300548933
[02]  G06  7 45      8.3 2046000.0  1.0  1.0  5  0        16
[03]  G09  7 34    381.8 2045999.5  1.0  0.9  5  0        13
[04]  G12  7 47    148.9 2045999.7  1.0  1.0  5  0        10
$GNGGA,000000.000,,,,,0,00,,,M,,,,0000*2B
$GNRMC,000000.000,A,,,,,,,000000,,*26
$GPGSA,A,1,,,,,,,,,,,,,,,*1E
$BDGSA,A,1,,,,,,,,,,,,,,,*0F
$GPGSV,2,1,05,02,00,000,43,05,00,000,38,06,00,000,45,09,00,000,34*7D
$GPGSV,2,2,05,12,00,000,47*4C
$LOGTIM,0,0.000000,0.000000,0.000000,0.000000,0.000*0A
EndT:        0
---00000008--- Acq_st=3 2019-5-22 11:28:52 
[00]  G02  f 43  -1748.1 2046002.3  1.0  1.0  5  0 300549932
[01]  G05  f 38  -2568.1 2046003.4  1.0  1.0  5  0 300549933
[02]  G06  7 44      6.3 2046000.0  1.0  1.0  5  0        16
[03]  G09  7 33    379.8 2045999.5  1.0  0.9  5  0        13
[04]  G12  7 47    147.3 2045999.8  1.0  1.0  5  0        10
[05]  G23  1  7   1973.6 2045998.0  0.0  0.0  1  0         0
$GNGGA,000000.000,,,,,0,00,,,M,,,,0000*2B
$GNRMC,000000.000,A,,,,,,,000000,,*26
$GPGSA,A,1,,,,,,,,,,,,,,,*1E
$BDGSA,A,1,,,,,,,,,,,,,,,*0F
$GPGSV,2,1,05,02,00,000,43,05,00,000,38,06,00,000,44,09,00,000,33*7B
$GPGSV,2,2,05,12,00,000,47*4C
$LOGTIM,0,0.000000,0.000000,0.000000,0.000000,0.000*0A
EndT:        0
---00000009--- Acq_st=3 2019-5-22 11:28:53 
[00]  G02  f 43  -1747.6 2046002.2  1.0  1.0  5  0 300550932
[01]  G05  f 38  -2566.4 2046003.4  1.0  1.0  5  0 300550933
[02]  G06  7 44      7.4 2046000.0  1.0  1.0  5  0        16
[03]  G09  7 33    382.4 2045999.5  1.0  1.0  5  0        13
[04]  G12  7 47    148.7 2045999.8  1.0  1.0  5  0        10
[05]  G23  1 27   1943.0 2045997.3 -0.0  0.0  1  0        13
[06]  G25  1 18  -1527.2 2046003.8 -0.0  0.0  1  0         0
$GNGGA,000000.000,,,,,0,00,,,M,,,,0000*2B
$GNRMC,000000.000,A,,,,,,,000000,,*26
$GPGSA,A,1,,,,,,,,,,,,,,,*1E
$BDGSA,A,1,,,,,,,,,,,,,,,*0F
$GPGSV,2,1,05,02,00,000,43,05,00,000,38,06,00,000,44,09,00,000,33*7B
$GPGSV,2,2,05,12,00,000,47*4C
$LOGTIM,0,0.000000,0.000000,0.000000,0.000000,0.000*0A
EndT:        1
---00000010--- Acq_st=3 2019-5-22 11:28:54 
[00]  G02  f 43  -1740.5 2046002.2  1.0  1.0  5  0 300551932
[01]  G05  f 38  -2559.0 2046003.4  1.0  1.0  5  0 300551933
[02]  G06  7 44     14.6 2046000.0  1.0  1.0  5  0        16
[03]  G09  7 33    389.3 2045999.6  1.0  1.0  5  0        13
[04]  G12  7 48    156.2 2045999.8  1.0  1.0  5  0        10
[05]  G23  7 34   1949.6 2045997.5  0.2  1.0  5  0        13
[06]  G25  7 22  -1493.0 2046001.9  0.3  0.0 20  0        18
$GNGGA,000000.000,,,,,0,00,,,M,,,,0000*2B
$GNRMC,000000.000,A,,,,,,,000000,,*26
$GPGSA,A,1,,,,,,,,,,,,,,,*1E
$BDGSA,A,1,,,,,,,,,,,,,,,*0F
$GPGSV,2,1,07,02,00,000,43,05,00,000,38,06,00,000,44,09,00,000,33*79
$GPGSV,2,2,07,12,00,000,48,23,00,000,34,25,00,000,22*40
$LOGTIM,0,0.000000,0.000000,0.000000,0.000000,0.000*0A
EndT:        0
---00000011--- Acq_st=3 2019-5-22 11:28:55 
[00]  G02  f 44  -1743.6 2046002.3  1.0  1.0  5  0 300552932
[01]  G05  f 37  -2562.7 2046003.3  1.0  0.9  5  0 300552933
[02]  G06  f 44     11.5 2046000.0  1.0  1.0  5  0        16
[03]  G09  f 34    388.0 2045999.5  1.0  1.0  5  0        13
[04]  G12  f 48    153.5 2045999.8  1.0  1.0  5  0        10
[05]  G23  f 38   1945.2 2045997.5  1.0  1.0  5  0         3
[06]  G25  7 42  -1495.8 2046001.9  0.9  1.0  5  0         3
$GNGGA,000000.000,,,,,0,00,,,M,,,,0000*2B
$GNRMC,000000.000,A,,,,,,,000000,,*26
$GPGSA,A,1,,,,,,,,,,,,,,,*1E
$BDGSA,A,1,,,,,,,,,,,,,,,*0F
$GPGSV,2,1,07,02,00,000,44,05,00,000,37,06,00,000,44,09,00,000,34*76
$GPGSV,2,2,07,12,00,000,48,23,00,000,38,25,00,000,42*4A
$LOGTIM,0,0.000000,0.000000,0.000000,0.000000,0.000*0A
EndT:        0
---00000012--- Acq_st=3 2019-5-22 11:28:56 
[00]  G02  f 43  -1744.8 2046002.3  1.0  1.0  5  0 300553932
[01]  G05  f 37  -2562.2 2046003.3  1.0  0.9  5  0 300553933
[02]  G06  f 44     11.2 2046000.0  1.0  1.0  5  0 300553936
[03]  G09  f 34    387.2 2045999.5  1.0  0.9  5  0 300553933
[04]  G12  f 48    153.8 2045999.8  1.0  1.0  5  0 300553930
[05]  G23  f 38   1945.5 2045997.5  1.0  1.0  5  0 300553923
[06]  G25  7 42  -1495.1 2046001.9  1.0  1.0  5  0         3
$GNGGA,000000.000,,,,,0,00,,,M,,,,0000*2B
$GNRMC,000000.000,A,,,,,,,000000,,*26
$GPGSA,A,1,,,,,,,,,,,,,,,*1E
$BDGSA,A,1,,,,,,,,,,,,,,,*0F
$GPGSV,2,1,07,02,00,000,43,05,00,000,37,06,00,000,44,09,00,000,34*71
$GPGSV,2,2,07,12,00,000,48,23,00,000,38,25,00,000,42*4A
$LOGTIM,0,0.000000,0.000000,0.000000,0.000000,0.000*0A
EndT:        0
---00000013--- Acq_st=3 2019-5-22 11:28:57 
[00]  G02  f 43  -1740.7 2046002.2  1.0  1.0  5  0 300554932
[01]  G05  f 37  -2558.3 2046003.4  1.0  1.0  5  0 300554933
[02]  G06  f 44     14.9 2046000.0  1.0  1.0  5  0 300554936
[03]  G09  f 34    391.7 2045999.5  1.0  0.9  5  0 300554933
[04]  G12  f 48    157.6 2045999.8  1.0  1.0  5  0 300554930
[05]  G23  f 38   1949.9 2045997.4  1.0  1.0  5  0 300554923
[06]  G25  7 42  -1491.3 2046001.9  1.0  1.0  5  0         3
$GNGGA,000000.000,,,,,0,00,,,M,,,,0000*2B
$GNRMC,000000.000,A,,,,,,,000000,,*26
$GPGSA,A,1,,,,,,,,,,,,,,,*1E
$BDGSA,A,1,,,,,,,,,,,,,,,*0F
$GPGSV,2,1,07,02,00,000,43,05,00,000,37,06,00,000,44,09,00,000,34*71
$GPGSV,2,2,07,12,00,000,48,23,00,000,38,25,00,000,42*4A
$LOGTIM,0,0.000000,0.000000,0.000000,0.000000,0.000*0A
EndT:        0
---00000014--- Acq_st=3 2019-5-22 11:28:58 
[00]  G02  f 42  -1731.9 2046002.3  1.0  1.0  5  0 300555932
[01]  G05  f 37  -2549.3 2046003.3  1.0  1.0  5  0 300555933
[02]  G06  f 44     24.0 2046000.0  1.0  1.0  5  0 300555936
[03]  G09  f 35    400.1 2045999.5  1.0  0.9  5  0 300555933
[04]  G12  f 48    167.2 2045999.8  1.0  1.0  5  0 300555930
[05]  G23  f 38   1958.7 2045997.5  1.0  1.0  5  0 300555923
[06]  G25  7 42  -1481.6 2046001.9  1.0  1.0  5  0         3
$GNGGA,000000.000,,,,,0,00,,,M,,,,0000*2B
$GNRMC,000000.000,A,,,,,,,000000,,*26
$GPGSA,A,1,,,,,,,,,,,,,,,*1E
$BDGSA,A,1,,,,,,,,,,,,,,,*0F
$GPGSV,2,1,07,02,00,000,42,05,00,000,37,06,00,000,44,09,00,000,35*71
$GPGSV,2,2,07,12,00,000,48,23,00,000,38,25,00,000,42*4A
$LOGTIM,0,0.000000,0.000000,0.000000,0.000000,0.000*0A
EndT:        0
---00000015--- Acq_st=3 2019-5-22 11:28:59 
[00]  G02  f 42  -1731.5 2046002.3  1.0  1.0  5  0 300556932
[01]  G05  f 37  -2548.6 2046003.3  1.0  1.0  5  0 300556933
[02]  G06  f 44     24.4 2046000.0  1.0  1.0  5  0 300556936
[03]  G09  f 35    401.5 2045999.5  1.0  0.9  5  0 300556933
[04]  G12  f 48    168.0 2045999.8  1.0  1.0  5  0 300556930
[05]  G23  f 37   1959.8 2045997.5  1.0  1.0  5  0 300556923
[06]  G25  7 42  -1480.8 2046001.9  1.0  1.0  5  0         3
[16]  B05  1 23   -409.3 4092002.3  0.1  0.0  1  0         0
$GNGGA,000000.000,,,,,0,00,,,M,,,,0000*2B
$GNRMC,000000.000,A,,,,,,,000000,,*26
$GPGSA,A,1,,,,,,,,,,,,,,,*1E
$BDGSA,A,1,,,,,,,,,,,,,,,*0F
$GPGSV,2,1,07,02,00,000,42,05,00,000,37,06,00,000,44,09,00,000,35*71
$GPGSV,2,2,07,12,00,000,48,23,00,000,37,25,00,000,42*45
$LOGTIM,0,0.000000,0.000000,0.000000,0.000000,0.000*0A
EndT:        0
---00000016--- Acq_st=3 2019-5-22 11:29:0 
[00]  G02  f 42  -1735.2 2046002.2  1.0  1.0  5  0 300557932
[01]  G05  f 37  -2551.9 2046003.3  1.0  1.0  5  0 300557933
[02]  G06  f 44     21.0 2046000.0  1.0  1.0  5  0 300557936
[03]  G09  f 35    399.2 2045999.4  1.0  1.0  5  0 300557933
[04]  G12  f 48    165.3 2045999.8  1.0  1.0  5  0 300557930
[05]  G23  f 37   1956.6 2045997.5  1.0  1.0  5  0 300557923
[06]  G25  7 41  -1483.9 2046001.9  1.0  1.0  5  0         3
[16]  B05  7 31   -349.1 4092000.6  0.9  0.0  2  0       593
$GNGGA,000000.000,,,,,0,00,,,M,,,,0000*2B
$GNRMC,000000.000,A,,,,,,,000000,,*26
$GPGSA,A,1,,,,,,,,,,,,,,,*1E
$BDGSA,A,1,,,,,,,,,,,,,,,*0F
$GPGSV,2,1,07,02,00,000,42,05,00,000,37,06,00,000,44,09,00,000,35*71
$GPGSV,2,2,07,12,00,000,48,23,00,000,37,25,00,000,41*46
$BDGSV,1,1,01,05,00,000,31*5E
$LOGTIM,0,0.000000,0.000000,0.000000,0.000000,0.000*0A
EndT:        0
---00000017--- Acq_st=3 2019-5-22 11:29:1 
[00]  G02  f 42  -1735.4 2046002.2  1.0  1.0  5  0 300558932
[01]  G05  f 36  -2551.4 2046003.4  1.0  1.0  5  0 300558933
[02]  G06  f 44     20.8 2046000.0  1.0  1.0  5  0 300558936
[03]  G09  f 35    399.3 2045999.5  1.0  1.0  5  0 300558933
[04]  G12  f 48    165.7 2045999.8  1.0  1.0  5  0 300558930
[05]  G23  f 37   1956.2 2045997.5  1.0  1.0  5  0 300558923
[06]  G25  f 41  -1483.7 2046001.9  1.0  1.0  5  0         3
[16]  B05  f 31   -349.2 4092000.8  0.9  0.0  2  0      1592
[17]  B08  1  7   -736.6 4092002.9 -0.1  0.0  1  0         0
$GNGGA,000000.000,,,,,0,00,,,M,,,,0000*2B
$GNRMC,000000.000,A,,,,,,,000000,,*26
$GPGSA,A,1,,,,,,,,,,,,,,,*1E
$BDGSA,A,1,,,,,,,,,,,,,,,*0F
$GPGSV,2,1,07,02,00,000,42,05,00,000,36,06,00,000,44,09,00,000,35*70
$GPGSV,2,2,07,12,00,000,48,23,00,000,37,25,00,000,41*46
$BDGSV,1,1,01,05,00,000,31*5E
$LOGTIM,0,0.000000,0.000000,0.000000,0.000000,0.000*0A
EndT:        0
---00000018--- Acq_st=3 2019-5-22 11:29:2 
[00]  G02  f 42  -1731.9 2046002.3  1.0  1.0  5  0 300559932
[01]  G05  f 36  -2547.8 2046003.4  1.0  0.9  5  0 300559933
[02]  G06  f 44     24.1 2046000.0  1.0  1.0  5  0 300559936
[03]  G09  f 35    403.5 2045999.5  1.0  0.9  5  0 300559933
[04]  G12  f 48    169.1 2045999.8  1.0  1.0  5  0 300559930
[05]  G23  f 38   1960.0 2045997.5  1.0  1.0  5  0 300559923
[06]  G25  f 41  -1479.9 2046001.9  1.0  1.0  5  0 300559923
[16]  B05 1f 31   -346.3 4092000.7  0.9  0.0  2  0 300546472
[17]  B08  7 15   -713.0 4092001.8  0.0  0.0 20  0       447
$GNGGA,000000.000,,,,,0,00,,,M,,,,0000*2B
$GNRMC,000000.000,A,,,,,,,000000,,*26
$GPGSA,A,1,,,,,,,,,,,,,,,*1E
$BDGSA,A,1,,,,,,,,,,,,,,,*0F
$GPGSV,2,1,07,02,00,000,42,05,00,000,36,06,00,000,44,09,00,000,35*70
$GPGSV,2,2,07,12,00,000,48,23,00,000,38,25,00,000,41*49
$BDGSV,1,1,02,05,00,000,31,08,00,000,15*61
$LOGTIM,0,0.000000,0.000000,0.000000,0.000000,0.000*0A
EndT:        0
---00000019--- Acq_st=3 2019-5-22 11:29:3 
[00]  G02  f 42  -1733.4 2046002.3  1.0  1.0  5  0 300560932
[01]  G05  f 35  -2549.0 2046003.5  1.0  0.9  5  0 300560933
[02]  G06  f 44     23.2 2046000.0  1.0  1.0  5  0 300560936
[03]  G09  f 35    402.1 2045999.5  1.0  0.9  5  0 300560933
[04]  G12  f 48    168.8 2045999.8  1.0  1.0  5  0 300560930
[05]  G23  f 38   1958.9 2045997.5  1.0  1.0  5  0 300560923
[06]  G25  f 40  -1480.5 2046001.9  1.0  1.0  5  0 300560923
[16]  B05 1f 31   -347.1 4092000.9  0.9  0.0  2  0 300546872
[17]  B08  7 37   -714.1 4092001.8  0.9  1.0  5  0      1444
$GNGGA,000000.000,,,,,0,00,,,M,,,,0000*2B
$GNRMC,000000.000,A,,,,,,,000000,,*26
$GPGSA,A,1,,,,,,,,,,,,,,,*1E
$BDGSA,A,1,,,,,,,,,,,,,,,*0F
$GPGSV,2,1,07,02,00,000,42,05,00,000,35,06,00,000,44,09,00,000,35*73
$GPGSV,2,2,07,12,00,000,48,23,00,000,38,25,00,000,40*48
$BDGSV,1,1,02,05,00,000,31,08,00,000,37*61
$LOGTIM,0,0.000000,0.000000,0.000000,0.000000,0.000*0A
EndT:        0
---00000020--- Acq_st=3 2019-5-22 11:29:4 
[00]  G02  f 42  -1736.1 2046002.2  1.0  1.0  5  0 300561932
[01]  G05  f 34  -2551.0 2046003.3  1.0  1.0  5  0 300561933
[02]  G06  f 44     20.2 2045999.9  1.0  1.0  5  0 300561936
[03]  G09  f 35    399.8 2045999.5  1.0  1.0  5  0 300561933
[04]  G12  f 47    166.3 2045999.8  1.0  1.0  5  0 300561930
[05]  G23  f 37   1956.6 2045997.4  1.0  1.0  5  0 300561923
[06]  G25  f 41  -1482.8 2046001.9  1.0  1.0  5  0 300561923
[16]  B05 1f 31   -350.1 4092000.9  0.9  0.0  2  0 300547872
[17]  B08  7 37   -716.9 4092001.9  1.0  1.0  5  0      2444
[18]  B12  1  7  -3091.7 4092008.5 -0.0  0.0  1  0         0
$GNGGA,000000.000,,,,,0,00,,,M,,,,0000*2B
$GNRMC,000000.000,A,,,,,,,000000,,*26
$GPGSA,A,1,,,,,,,,,,,,,,,*1E
$BDGSA,A,1,,,,,,,,,,,,,,,*0F
$GPGSV,2,1,07,02,00,000,42,05,00,000,34,06,00,000,44,09,00,000,35*72
$GPGSV,2,2,07,12,00,000,47,23,00,000,37,25,00,000,41*49
$BDGSV,1,1,02,05,00,000,31,08,00,000,37*61
$LOGTIM,0,0.000000,0.000000,0.000000,0.000000,0.000*0A
EndT:        0
---00000021--- Acq_st=3 2019-5-22 11:29:5 
[00]  G02  f 43  -1733.5 2046002.2  1.0  1.0  5  0 300562932
[01]  G05  f 34  -2547.6 2046003.4  1.0  1.0  5  0 300562933
[02]  G06  f 44     22.8 2046000.0  1.0  1.0  5  0 300562936
[03]  G09  f 35    403.3 2045999.4  1.0  1.0  5  0 300562933
[04]  G12  f 47    169.4 2045999.8  1.0  1.0  5  0 300562930
[05]  G23  f 37   1960.0 2045997.4  1.0  1.0  5  0 300562923
[06]  G25  f 40  -1479.9 2046001.9  1.0  1.0  5  0 300562923
[16]  B05 1f 31   -348.1 4092001.0  0.9  0.0  2  0 300548872
[17]  B08  7 36   -714.4 4092001.9  1.0  1.0  5  0      3444
[18]  B12  7 23  -3056.4 4092008.0  0.6  0.0 20  0       585
[19]  B13  1  7   -746.4 4092002.6  0.0  0.0  1  0         0
$GNGGA,000000.000,,,,,0,00,,,M,,,,0000*2B
$GNRMC,000000.000,A,,,,,,,000000,,*26
$GPGSA,A,1,,,,,,,,,,,,,,,*1E
$BDGSA,A,1,,,,,,,,,,,,,,,*0F
$GPGSV,2,1,07,02,00,000,43,05,00,000,34,06,00,000,44,09,00,000,35*73
$GPGSV,2,2,07,12,00,000,47,23,00,000,37,25,00,000,40*48
$BDGSV,1,1,03,05,00,000,31,08,00,000,36,12,00,000,23*53
$LOGTIM,0,0.000000,0.000000,0.000000,0.000000,0.000*0A
EndT:        0
---00000022--- Acq_st=3 2019-5-22 11:29:6 
[00]  G02  f 43  -1740.2 2046002.3  1.0  1.0  5  0 300563932
[01]  G05  f 34  -2555.1 2046003.3  1.0  0.9  5  0 300563933
[02]  G06  f 44     16.6 2046000.0  1.0  1.0  5  0 300563936
[03]  G09  f 35    396.7 2045999.4  1.0  1.0  5  0 300563933
[04]  G12  f 47    163.3 2045999.8  1.0  1.0  5  0 300563930
[05]  G23  f 37   1953.0 2045997.4  1.0  1.0  5  0 300563923
[06]  G25  f 40  -1485.8 2046001.9  1.0  1.0  5  0 300563923
[16]  B05 1f 30   -354.5 4092001.0  0.9  0.0  2  0 300549872
[17]  B08  7 37   -721.1 4092002.0  1.0  1.0  5  0      4444
[18]  B12  7 37  -3063.2 4092008.0  1.0  1.0  5  0      1585
[19]  B13  7 28   -758.3 4092002.0 -0.2  0.9 10  0       870
$GNGGA,000000.000,,,,,0,00,,,M,,,,0000*2B
$GNRMC,000000.000,A,,,,,,,000000,,*26
$GPGSA,A,1,,,,,,,,,,,,,,,*1E
$BDGSA,A,1,,,,,,,,,,,,,,,*0F
$GPGSV,2,1,07,02,00,000,43,05,00,000,34,06,00,000,44,09,00,000,35*73
$GPGSV,2,2,07,12,00,000,47,23,00,000,37,25,00,000,40*48
$BDGSV,1,1,04,05,00,000,30,08,00,000,37,12,00,000,37,13,00,000,28*69
$LOGTIM,0,0.000000,0.000000,0.000000,0.000000,0.000*0A
EndT:        0
---00000023--- Acq_st=3 2019-5-22 11:29:7 
[00]  G02  f 43  -1739.4 2046002.3  1.0  1.0  5  0 300564932
[01]  G05  f 35  -2553.3 2046003.3  1.0  1.0  5  0 300564933
[02]  G06  f 43     18.1 2046000.0  1.0  1.0  5  0 300564936
[03]  G09  f 36    398.1 2045999.5  1.0  1.1  5  0 300564933
[04]  G12  f 47    165.0 2045999.8  1.0  1.0  5  0 300564930
[05]  G23  f 37   1954.4 2045997.5  1.0  1.0  5  0 300564923
[06]  G25  f 40  -1484.4 2046002.0  1.0  1.0  5  0 300564923
[16]  B05 1f 32   -353.7 4092000.8  0.9  0.0  2  0 300550872
[17]  B08  7 36   -721.0 4092001.9  1.0  1.0  5  0      5444
[18]  B12  7 37  -3062.4 4092008.0  1.0  1.0  5  0      2585
[19]  B13  7 37   -761.4 4092002.0  0.9  1.0  5  0      1861
$GNGGA,000000.000,,,,,0,00,,,M,,,,0000*2B
$GNRMC,000000.000,A,,,,,,,000000,,*26
$GPGSA,A,1,,,,,,,,,,,,,,,*1E
$BDGSA,A,1,,,,,,,,,,,,,,,*0F
$GPGSV,2,1,07,02,00,000,43,05,00,000,35,06,00,000,43,09,00,000,36*76
$GPGSV,2,2,07,12,00,000,47,23,00,000,37,25,00,000,40*48
$BDGSV,1,1,04,05,00,000,32,08,00,000,36,12,00,000,37,13,00,000,37*64
$LOGTIM,0,0.000000,0.000000,0.000000,0.000000,0.000*0A
EndT:        0
---00000024--- Acq_st=3 2019-5-22 11:29:8 
[00]  G02  f 43  -1734.7 2046002.2  1.0  1.0  5  0 300565932
[01]  G05  f 35  -2548.2 2046003.3  1.0  1.0  5  0 300565933
[02]  G06  f 43     22.4 2045999.9  1.0  1.0  5  0 300565936
[03]  G09  f 37    404.2 2045999.4  1.0  0.9  5  0 300565933
[04]  G12  f 47    170.0 2045999.8  1.0  1.0  5  0 300565930
[05]  G23  f 38   1959.5 2045997.5  1.0  1.0  5  0 300565923
[06]  G25  f 40  -1479.4 2046001.9  1.0  1.0  5  0 300565923
[16]  B05 1f 32   -348.7 4092000.8  0.9  0.0  2  0 300551872
[17]  B08  7 37   -715.9 4092001.8  1.0  1.0  5  0      6444
[18]  B12  7 37  -3057.6 4092008.0  1.0  1.0  5  0      3585
[19]  B13  7 37   -756.3 4092001.9  1.0  1.0  5  0      2861
$GNGGA,000000.000,,,,,0,00,,,M,,,,0000*2B
$GNRMC,000000.000,A,,,,,,,000000,,*26
$GPGSA,A,1,,,,,,,,,,,,,,,*1E
$BDGSA,A,1,,,,,,,,,,,,,,,*0F
$GPGSV,2,1,07,02,00,000,43,05,00,000,35,06,00,000,43,09,00,000,37*77
$GPGSV,2,2,07,12,00,000,47,23,00,000,38,25,00,000,40*47
$BDGSV,1,1,04,05,00,000,32,08,00,000,37,12,00,000,37,13,00,000,37*65
$LOGTIM,0,0.000000,0.000000,0.000000,0.000000,0.000*0A
EndT:        0
---00000025--- Acq_st=3 2019-5-22 11:29:9 
[00]  G02  f 43  -1734.2 2046002.2  1.0  1.0  5  0 300566932
[01]  G05  f 35  -2547.5 2046003.3  1.0  1.0  5  0 300566933
[02]  G06  f 43     22.9 2046000.0  1.0  1.0  5  0 300566936
[03]  G09  f 36    405.4 2045999.5  1.0  1.0  5  0 300566933
[04]  G12  f 47    171.2 2045999.8  1.0  1.0  5  0 300566930
[05]  G23  f 38   1960.3 2045997.5  1.0  1.0  5  0 300566923
[06]  G25  f 40  -1478.0 2046001.9  1.0  1.0  5  0 300566923
[16]  B05 1f 31   -349.4 4092000.9  0.9  0.0  2  0 300552872
[17]  B08 1f 36   -715.4 4092001.9  1.0  0.9  5  0      7444
[18]  B12 1f 37  -3056.8 4092008.0  1.0  1.0  5  0      4585
[19]  B13 1f 36   -755.9 4092002.0  1.0  1.0  5  0      3861
[20]  B19  1  7    769.7 4091998.6  0.1  0.0  1  0         0
$GNGGA,000000.000,,,,,0,00,,,M,,,,0000*2B
$GNRMC,000000.000,A,,,,,,,000000,,*26
$GPGSA,A,1,,,,,,,,,,,,,,,*1E
$BDGSA,A,1,,,,,,,,,,,,,,,*0F
$GPGSV,2,1,07,02,00,000,43,05,00,000,35,06,00,000,43,09,00,000,36*76
$GPGSV,2,2,07,12,00,000,47,23,00,000,38,25,00,000,40*47
$BDGSV,1,1,04,05,00,000,31,08,00,000,36,12,00,000,37,13,00,000,36*66
$LOGTIM,0,0.000000,0.000000,0.000000,0.000000,0.000*0A
EndT:        0
---00000026--- Acq_st=3 2019-5-22 11:29:10 
[00]  G02  f 43  -1733.2 2046002.3  1.0  1.0  5  0 300567932
[01]  G05  f 35  -2546.4 2046003.3  1.0  1.0  5  0 300567933
[02]  G06  f 44     23.8 2046000.0  1.0  1.0  5  0 300567936
[03]  G09  f 36    405.6 2045999.4  1.0  1.0  5  0 300567933
[04]  G12  f 47    172.2 2045999.8  1.0  1.0  5  0 300567930
[05]  G23  f 38   1960.9 2045997.5  1.0  0.9  5  0 300567923
[06]  G25  f 41  -1477.3 2046001.9  1.0  1.0  5  0 300567923
[16]  B05 1f 31   -347.7 4092000.9  0.9  0.0  2  0 300553872
[17]  B08 1f 36   -714.4 4092001.9  1.0  1.0  5  0 300553884
[18]  B12 1f 37  -3056.0 4092008.0  1.0  1.0  5  0 300553925
[19]  B13 1f 36   -755.3 4092002.0  1.0  1.0  5  0 300553881
[20]  B19  7 22    769.5 4091997.9  0.3  0.0 20  0       579
$GNGGA,000000.000,,,,,0,00,,,M,,,,0000*2B
$GNRMC,000000.000,A,,,,,,,000000,,*26
$GPGSA,A,1,,,,,,,,,,,,,,,*1E
$BDGSA,A,1,,,,,,,,,,,,,,,*0F
$GPGSV,2,1,07,02,00,000,43,05,00,000,35,06,00,000,44,09,00,000,36*71
$GPGSV,2,2,07,12,00,000,47,23,00,000,38,25,00,000,41*46
$BDGSV,2,1,05,05,00,000,31,08,00,000,36,12,00,000,37,13,00,000,36*64
$BDGSV,2,2,05,19,00,000,22*55
$LOGTIM,0,0.000000,0.000000,0.000000,0.000000,0.000*0A
EndT:        0
---00000027--- Acq_st=3 2019-5-22 11:29:11 
[00]  G02  f 43  -1735.7 2046002.3  1.0  1.0  5  0 300568932
[01]  G05  f 34  -2549.7 2046003.4  1.0  1.0  5  0 300568933
[02]  G06  f 43     21.0 2046000.0  1.0  1.0  5  0 300568936
[03]  G09  f 37    404.1 2045999.5  1.0  1.0  5  0 300568933
[04]  G12  f 47    170.0 2045999.8  1.0  1.0  5  0 300568930
[05]  G23  f 38   1958.2 2045997.5  1.0  1.0  5  0 300568923
[06]  G25  f 41  -1479.6 2046001.9  1.0  1.0  5  0 300568923
[16]  B05 1f 30   -350.8 4092000.8  0.9  0.0  2  0 300554872
[17]  B08 1f 36   -717.8 4092001.9  1.0  1.0  5  0 300554884
[18]  B12 1f 37  -3059.1 4092007.9  1.0  1.0  5  0 300554925
[19]  B13 1f 36   -758.4 4092002.0  1.0  1.0  5  0 300554881
[20]  B19  7 38    767.2 4091997.9  0.8  1.0  5  0      1573
$GNGGA,000000.000,,,,,0,00,,,M,,,,0000*2B
$GNRMC,000000.000,A,,,,,,,000000,,*26
$GPGSA,A,1,,,,,,,,,,,,,,,*1E
$BDGSA,A,1,,,,,,,,,,,,,,,*0F
$GPGSV,2,1,07,02,00,000,43,05,00,000,34,06,00,000,43,09,00,000,37*76
$GPGSV,2,2,07,12,00,000,47,23,00,000,38,25,00,000,41*46
$BDGSV,2,1,05,05,00,000,30,08,00,000,36,12,00,000,37,13,00,000,36*65
$BDGSV,2,2,05,19,00,000,38*5E
$LOGTIM,0,0.000000,0.000000,0.000000,0.000000,0.000*0A
EndT:        0
---00000028--- Acq_st=3 2019-5-22 11:29:12 
[00]  G02  f 42  -1738.6 2046002.3  1.0  1.0  5  0 300569932
[01]  G05  f 35  -2550.5 2046003.4  1.0  0.9  5  0 300569933
[02]  G06  f 43     19.3 2046000.0  1.0  1.0  5  0 300569936
[03]  G09  f 36    401.9 2045999.5  1.0  1.0  5  0 300569933
[04]  G12  f 47    168.6 2045999.8  1.0  1.0  5  0 300569930
[05]  G23  f 38   1957.2 2045997.5  1.0  1.0  5  0 300569923
[06]  G25  f 41  -1481.0 2046001.9  1.0  1.0  5  0 300569923
[16]  B05 1f 31   -352.9 4092000.9  0.9  0.0  2  0 300555872
[17]  B08 1f 36   -720.1 4092001.9  1.0  0.9  5  0 300555884
[18]  B12 1f 38  -3061.1 4092008.0  1.0  1.0  5  0 300555925
[19]  B13 1f 36   -760.8 4092002.0  1.0  0.9  5  0 300555881
[20]  B19  7 38    765.5 4091997.9  1.0  0.9  5  0      2573
$GNGGA,000000.000,,,,,0,00,,,M,,,,0000*2B
$GNRMC,000000.000,A,,,,,,,000000,,*26
$GPGSA,A,1,,,,,,,,,,,,,,,*1E
$BDGSA,A,1,,,,,,,,,,,,,,,*0F
$GPGSV,2,1,07,02,00,000,42,05,00,000,35,06,00,000,43,09,00,000,36*77
$GPGSV,2,2,07,12,00,000,47,23,00,000,38,25,00,000,41*46
$BDGSV,2,1,05,05,00,000,31,08,00,000,36,12,00,000,38,13,00,000,36*6B
$BDGSV,2,2,05,19,00,000,38*5E
$LOGTIM,0,0.000000,0.000000,0.000000,0.000000,0.000*0A
EndT:        0
---00000029--- Acq_st=3 2019-5-22 11:29:13 
[00]  G02  f 43  -1741.1 2046002.3  1.0  1.0  5  0 300570932
[01]  G05  f 35  -2552.3 2046003.3  1.0  1.0  5  0 300570933
[02]  G06  f 43     16.7 2046000.0  1.0  1.0  5  0 300570936
[03]  G09  f 35    399.8 2045999.5  1.0  1.0  5  0 300570933
[04]  G12  f 47    166.3 2045999.8  1.0  1.0  5  0 300570930
[05]  G23  f 38   1954.3 2045997.5  1.0  1.0  5  0 300570923
[06]  G25  f 41  -1483.0 2046001.9  1.0  1.0  5  0 300570923
[16]  B05 1f 30   -355.6 4092001.0  0.9  0.0  2  0 300556872
[17]  B08 1f 36   -722.2 4092001.9  1.0  1.0  5  0 300556884
[18]  B12 1f 38  -3063.5 4092008.0  1.0  1.0  5  0 300556925
[19]  B13 1f 36   -762.8 4092002.0  1.0  1.0  5  0 300556881
[20]  B19  7 38    763.6 4091998.0  1.0  1.0  5  0      3573
$GNGGA,000000.000,,,,,0,00,,,M,,,,0000*2B
$GNRMC,000000.000,A,,,,,,,000000,,*26
$GPGSA,A,1,,,,,,,,,,,,,,,*1E
$BDGSA,A,1,,,,,,,,,,,,,,,*0F
$GPGSV,2,1,07,02,00,000,43,05,00,000,35,06,00,000,43,09,00,000,35*75
$GPGSV,2,2,07,12,00,000,47,23,00,000,38,25,00,000,41*46
$BDGSV,2,1,05,05,00,000,30,08,00,000,36,12,00,000,38,13,00,000,36*6A
$BDGSV,2,2,05,19,00,000,38*5E
$LOGTIM,0,0.000000,0.000000,0.000000,0.000000,0.000*0A
EndT:        0
---00000030--- Acq_st=3 2019-5-22 11:29:14 
[00]  G02  f 43  -1741.5 2046002.3  1.0  1.0  5  0 300571932
[01]  G05  f 34  -2554.4 2046003.4  1.0  1.0  5  0 300571933
[02]  G06  f 43     16.2 2046000.0  1.0  1.0  5  0 300571936
[03]  G09  f 35    399.2 2045999.5  1.0  1.0  5  0 300571933
[04]  G12  f 47    166.1 2045999.8  1.0  1.0  5  0 300571930
[05]  G23  f 37   1954.1 2045997.5  1.0  1.0  5  0 300571923
[06]  G25  f 41  -1483.3 2046001.9  1.0  1.0  5  0 300571923
[16]  B05 1f 30   -355.9 4092001.1  0.9  0.0  2  0 300557872
[17]  B08 1f 36   -722.9 4092001.9  1.0  1.0  5  0 300557884
[18]  B12 1f 38  -3064.2 4092008.0  1.0  1.0  5  0 300557925
[19]  B13 1f 36   -764.1 4092002.0  1.0  1.0  5  0 300557881
[20]  B19  7 38    762.9 4091998.0  1.0  1.0  5  0      4573
$GNGGA,000000.000,,,,,0,00,,,M,,,,0000*2B
$GNRMC,000000.000,A,,,,,,,000000,,*26
$GPGSA,A,1,,,,,,,,,,,,,,,*1E
$BDGSA,A,1,,,,,,,,,,,,,,,*0F
$GPGSV,2,1,07,02,00,000,43,05,00,000,34,06,00,000,43,09,00,000,35*74
$GPGSV,2,2,07,12,00,000,47,23,00,000,37,25,00,000,41*49
$BDGSV,2,1,05,05,00,000,30,08,00,000,36,12,00,000,38,13,00,000,36*6A
$BDGSV,2,2,05,19,00,000,38*5E
$LOGTIM,0,0.000000,0.000000,0.000000,0.000000,0.000*0A
EndT:        0
---00000031--- Acq_st=3 2019-5-22 11:29:15 
[00]  G02  f 42  -1742.8 2046002.3  1.0  1.0  5  0 300572932
[01]  G05  f 35  -2554.7 2046003.3  1.0  1.0  5  0 300572933
[02]  G06  f 43     15.3 2046000.0  1.0  1.0  5  0 300572936
[03]  G09  f 36    399.6 2045999.4  1.0  1.0  5  0 300572933
[04]  G12  f 47    165.8 2045999.8  1.0  1.0  5  0 300572930
[05]  G23  f 37   1953.2 2045997.5  1.0  1.0  5  0 300572923
[06]  G25  f 41  -1483.8 2046001.9  1.0  1.0  5  0 300572923
[16]  B05 1f 31   -357.8 4092000.8  0.9  0.0  2  0 300558872
[17]  B08 1f 36   -724.9 4092001.9  1.0  1.0  5  0 300558884
[18]  B12 1f 38  -3065.6 4092008.0  1.0  1.0  5  0 300558925
[19]  B13 1f 36   -765.5 4092002.0  1.0  1.0  5  0 300558881
[20]  B19 1f 38    762.1 4091997.9  1.0  1.0  5  0      5573
$GNGGA,000000.000,,,,,0,00,,,M,,,,0000*2B
$GNRMC,000000.000,A,,,,,,,000000,,*26
$GPGSA,A,1,,,,,,,,,,,,,,,*1E
$BDGSA,A,1,,,,,,,,,,,,,,,*0F
$GPGSV,2,1,07,02,00,000,42,05,00,000,35,06,00,000,43,09,00,000,36*77
$GPGSV,2,2,07,12,00,000,47,23,00,000,37,25,00,000,41*49
$BDGSV,2,1,05,05,00,000,31,08,00,000,36,12,00,000,38,13,00,000,36*6B
$BDGSV,2,2,05,19,00,000,38*5E
$LOGTIM,0,0.000000,0.000000,0.000000,0.000000,0.000*0A
EndT:        0
---00000032--- Acq_st=3 2019-5-22 11:29:16 
[00]  G02  f 41  -1738.8 2046002.3  1.0  1.0  5  0 300573932
[01]  G05  f 35  -2550.8 2046003.3  1.0  0.9  5  0 300573933
[02]  G06  f 43     19.5 2046000.0  1.0  1.0  5  0 300573936
[03]  G09  f 36    403.6 2045999.4  1.0  1.0  5  0 300573933
[04]  G12  f 47    170.5 2045999.8  1.0  1.0  5  0 300573930
[05]  G23  f 37   1958.6 2045997.4  1.0  1.0  5  0 300573923
[06]  G25  f 41  -1479.1 2046001.9  1.0  1.0  5  0 300573923
[16]  B05 1f 31   -353.1 4092000.8  0.9  0.0  2  0 300559872
[17]  B08 1f 36   -720.5 4092001.9  1.0  1.0  5  0 300559884
[18]  B12 1f 38  -3061.2 4092008.0  1.0  1.0  5  0 300559925
[19]  B13 1f 36   -760.8 4092002.0  1.0  1.0  5  0 300559881
[20]  B19 1f 37    767.6 4091998.0  1.0  1.0  5  0 300559933
$GNGGA,000000.000,,,,,0,00,,,M,,,,0000*2B
$GNRMC,000000.000,A,,,,,,,000000,,*26
$GPGSA,A,1,,,,,,,,,,,,,,,*1E
$BDGSA,A,1,,,,,,,,,,,,,,,*0F
$GPGSV,2,1,07,02,00,000,41,05,00,000,35,06,00,000,43,09,00,000,36*74
$GPGSV,2,2,07,12,00,000,47,23,00,000,37,25,00,000,41*49
$BDGSV,2,1,05,05,00,000,31,08,00,000,36,12,00,000,38,13,00,000,36*6B
$BDGSV,2,2,05,19,00,000,37*51
$LOGTIM,0,0.000000,0.000000,0.000000,0.000000,0.000*0A
EndT:        0
---00000033--- Acq_st=3 2019-5-22 11:29:17 
[00]  G02  f 41  -1737.6 2046002.3  1.0  1.0  5  0 300574932
[01]  G05  f 36  -2548.2 2046003.3  1.0  0.9  5  0 300574933
[02]  G06  f 43     20.5 2045999.9  1.0  1.0  5  0 300574936
[03]  G09  f 35    405.1 2045999.4  1.0  1.0  5  0 300574933
[04]  G12  f 47    171.8 2045999.8  1.0  1.0  5  0 300574930
[05]  G23  f 36   1959.2 2045997.4  1.0  1.0  5  0 300574923
[06]  G25  f 41  -1477.8 2046001.9  1.0  1.0  5  0 300574923
[16]  B05 1f 32   -352.4 4092001.0  0.9  0.0  2  0 300560872
[17]  B08 1f 36   -719.6 4092001.9  1.0  0.9  5  0 300560884
[18]  B12 1f 38  -3060.3 4092008.0  1.0  1.0  5  0 300560925
[19]  B13 1f 36   -760.6 4092001.9  1.0  1.0  5  0 300560881
[20]  B19 1f 38    768.6 4091998.0  1.0  1.0  5  0 300560933
$GNGGA,000000.000,,,,,0,00,,,M,,,,0000*2B
$GNRMC,000000.000,A,,,,,,,000000,,*26
$GPGSA,A,1,,,,,,,,,,,,,,,*1E
$BDGSA,A,1,,,,,,,,,,,,,,,*0F
$GPGSV,2,1,07,02,00,000,41,05,00,000,36,06,00,000,43,09,00,000,35*74
$GPGSV,2,2,07,12,00,000,47,23,00,000,36,25,00,000,41*48
$BDGSV,2,1,05,05,00,000,32,08,00,000,36,12,00,000,38,13,00,000,36*68
$BDGSV,2,2,05,19,00,000,38*5E
$LOGTIM,0,0.000000,0.000000,0.000000,0.000000,0.000*0A
EndT:        0
---00000034--- Acq_st=7 2019-5-22 11:29:18 
[00]  G02  f 40  -1735.3 2046002.3  1.0  1.0  5  0 300575932
[01]  G05  f 35  -2545.0 2046003.3  1.0  1.0  5  0 300575933
[02]  G06  f 43     23.5 2045999.9  1.0  1.0  5  0 300575936
[03]  G09  f 34    408.4 2045999.5  1.0  1.0  5  0 300575933
[04]  G12  f 47    175.4 2045999.8  1.0  1.0  5  0 300575930
[05]  G23  f 38   1961.8 2045997.5  1.0  1.0  5  0 300575923
[06]  G25  f 41  -1474.8 2046001.9  1.0  1.0  5  0 300575923
[16]  B05 1f 31   -349.5 4092000.9  0.9  0.0  2  0 300561872
[17]  B08 1f 36   -716.8 4092001.9  1.0  1.0  5  0 300561884
[18]  B12 1f 38  -3057.9 4092008.0  1.0  1.0  5  0 300561925
[19]  B13 1f 36   -757.7 4092002.0  1.0  1.0  5  0 300561881
[20]  B19 1f 38    770.9 4091998.0  1.0  1.0  5  0 300561933
$GNGGA,000000.000,,,,,0,00,,,M,,,,0000*2B
$GNRMC,000000.000,A,,,,,,,000000,,*26
$GPGSA,A,1,,,,,,,,,,,,,,,*1E
$BDGSA,A,1,,,,,,,,,,,,,,,*0F
$GPGSV,2,1,07,02,00,000,40,05,00,000,35,06,00,000,43,09,00,000,34*77
$GPGSV,2,2,07,12,00,000,47,23,00,000,38,25,00,000,41*46
$BDGSV,2,1,05,05,00,000,31,08,00,000,36,12,00,000,38,13,00,000,36*6B
$BDGSV,2,2,05,19,00,000,38*5E
$LOGTIM,0,0.000000,0.000000,0.000000,0.000000,0.000*0A
EndT:        0
---00000035--- Acq_st=3 2019-5-22 11:29:19 
[00]  G02  f 40  -1736.5 2046002.3  1.0  1.0  5  0 300576932
[01]  G05  f 35  -2546.8 2046003.3  1.0  0.9  5  0 300576933
[02]  G06  f 44     22.1 2046000.0  1.0  1.0  5  0 300576936
[03]  G09  f 34    408.5 2045999.5  1.0  1.0  5  0 300576933
[04]  G12  f 47    174.3 2045999.8  1.0  1.0  5  0 300576930
[05]  G23  f 38   1961.1 2045997.4  1.0  1.0  5  0 300576923
[06]  G25  f 42  -1475.2 2046001.9  1.0  1.0  5  0 300576923
[16]  B05 1f 30   -351.1 4092001.1  0.9  0.0  2  0 300562872
[17]  B08 1f 36   -718.2 4092001.9  1.0  0.9  5  0 300562884
[18]  B12 1f 38  -3058.8 4092008.0  1.0  1.0  5  0 300562925
[19]  B13 1f 36   -759.4 4092002.0  1.0  0.9  5  0 300562881
[20]  B19 1f 38    770.1 4091998.0  1.0  1.0  5  0 300562933
$GNGGA,000000.000,,,,,0,00,,,M,,,,0000*2B
$GNRMC,000000.000,A,,,,,,,000000,,*26
$GPGSA,A,1,,,,,,,,,,,,,,,*1E
$BDGSA,A,1,,,,,,,,,,,,,,,*0F
$GPGSV,2,1,07,02,00,000,40,05,00,000,35,06,00,000,44,09,00,000,34*70
$GPGSV,2,2,07,12,00,000,47,23,00,000,38,25,00,000,42*45
$BDGSV,2,1,05,05,00,000,30,08,00,000,36,12,00,000,38,13,00,000,36*6A
$BDGSV,2,2,05,19,00,000,38*5E
$LOGTIM,0,0.000000,0.000000,0.000000,0.000000,0.000*0A
EndT:        0
---00000036--- Acq_st=3 2019-5-22 11:29:20 
[00]  G02  f 40  -1735.9 2046002.3  1.0  1.0  5  0 300577932
[01]  G05  f 36  -2545.5 2046003.3  1.0  1.0  5  0 300577933
[02]  G06  f 45     22.8 2046000.0  1.0  1.0  5  0 300577936
[03]  G09  f 34    409.3 2045999.5  1.0  0.9  5  0 300577933
[04]  G12  f 47    175.5 2045999.8  1.0  1.0  5  0 300577930
[05]  G23  f 38   1962.7 2045997.4  1.0  1.0  5  0 300577923
[06]  G25  f 41  -1474.1 2046001.9  1.0  1.0  5  0 300577923
[16]  B05 1f 30   -350.4 4092000.9  0.9  0.0  2  0 300563872
[17]  B08 1f 36   -718.3 4092001.8  1.0  0.9  5  0 300563884
[18]  B12 1f 38  -3057.8 4092008.0  1.0  1.0  5  0 300563925
[19]  B13 1f 36   -758.8 4092002.0  1.0  1.0  5  0 300563881
[20]  B19 1f 38    771.2 4091997.9  1.0  1.0  5  0 300563933
$GNGGA,000000.000,,,,,0,00,,,M,,,,0000*2B
$GNRMC,000000.000,A,,,,,,,000000,,*26
$GPGSA,A,1,,,,,,,,,,,,,,,*1E
$BDGSA,A,1,,,,,,,,,,,,,,,*0F
$GPGSV,2,1,07,02,00,000,40,05,00,000,36,06,00,000,45,09,00,000,34*72
$GPGSV,2,2,07,12,00,000,47,23,00,000,38,25,00,000,41*46
$BDGSV,2,1,05,05,00,000,30,08,00,000,36,12,00,000,38,13,00,000,36*6A
$BDGSV,2,2,05,19,00,000,38*5E
$LOGTIM,0,0.000000,0.000000,0.000000,0.000000,0.000*0A
EndT:        0
---00000037--- Acq_st=3 2019-5-22 11:29:21 
[00]  G02  f 41  -1734.8 2046002.2  1.0  1.0  5  0 300578932
[01]  G05  f 36  -2544.0 2046003.3  1.0  1.0  5  0 300578933
[02]  G06  f 44     24.0 2046000.0  1.0  1.0  5  0 300578936
[03]  G09  f 34    411.2 2045999.4  1.0  0.9  5  0 300578933
[04]  G12  f 47    177.0 2045999.8  1.0  1.0  5  0 300578930
[05]  G23  f 38   1963.3 2045997.5  1.0  1.0  5  0 300578923
[06]  G25  f 42  -1473.1 2046001.9  1.0  1.0  5  0 300578923
[16]  B05 1f 31   -349.6 4092000.9  0.9  0.0  2  0 300564872
[17]  B08 1f 35   -717.0 4092001.8  1.0  0.9  5  0 300564884
[18]  B12 1f 38  -3057.4 4092008.0  1.0  1.0  5  0 300564925
[19]  B13 1f 36   -758.4 4092002.0  1.0  0.9  5  0 300564881
[20]  B19 1f 38    772.7 4091997.9  1.0  1.0  5  0 300564933
$GNGGA,000000.000,,,,,0,00,,,M,,,,0000*2B
$GNRMC,000000.000,A,,,,,,,000000,,*26
$GPGSA,A,1,,,,,,,,,,,,,,,*1E
$BDGSA,A,1,,,,,,,,,,,,,,,*0F
$GPGSV,2,1,07,02,00,000,41,05,00,000,36,06,00,000,44,09,00,000,34*72
$GPGSV,2,2,07,12,00,000,47,23,00,000,38,25,00,000,42*45
$BDGSV,2,1,05,05,00,000,31,08,00,000,35,12,00,000,38,13,00,000,36*68
$BDGSV,2,2,05,19,00,000,38*5E
$LOGTIM,0,0.000000,0.000000,0.000000,0.000000,0.000*0A
EndT:        0
---00000038--- Acq_st=3 2019-5-22 11:29:22 
[00]  G02  f 41  -1732.2 2046002.2  1.0  1.0  5  0 300579932
[01]  G05  f 36  -2540.9 2046003.2  1.0  0.9  5  0 300579933
[02]  G06  f 45     26.7 2046000.0  1.0  1.0  5  0 300579936
[03]  G09  f 34    414.4 2045999.5  1.0  1.0  5  0 300579933
[04]  G12  f 47    180.4 2045999.8  1.0  1.0  5  0 300579930
[05]  G23  f 38   1966.7 2045997.5  1.0  1.0  5  0 300579923
[06]  G25  f 42  -1469.4 2046001.9  1.0  1.0  5  0 300579923
[16]  B05 1f 32   -347.4 4092000.9  0.9  0.0  2  0 300565872
[17]  B08 1f 36   -714.4 4092001.9  1.0  1.0  5  0 300565884
[18]  B12 1f 37  -3054.4 4092007.9  1.0  1.0  5  0 300565925
[19]  B13 1f 36   -755.0 4092002.0  1.0  1.0  5  0 300565881
[20]  B19 1f 37    775.7 4091997.9  1.0  1.0  5  0 300565933
$GNGGA,000000.000,,,,,0,00,,,M,,,,0000*2B
$GNRMC,000000.000,A,,,,,,,000000,,*26
$GPGSA,A,1,,,,,,,,,,,,,,,*1E
$BDGSA,A,1,,,,,,,,,,,,,,,*0F
$GPGSV,2,1,07,02,00,000,41,05,00,000,36,06,00,000,45,09,00,000,34*73
$GPGSV,2,2,07,12,00,000,47,23,00,000,38,25,00,000,42*45
$BDGSV,2,1,05,05,00,000,32,08,00,000,36,12,00,000,37,13,00,000,36*67
$BDGSV,2,2,05,19,00,000,37*51
$LOGTIM,0,0.000000,0.000000,0.000000,0.000000,0.000*0A
EndT:        0
---00000039--- Acq_st=3 2019-5-22 11:29:23 
[00]  G02  f 41  -1738.5 2046002.2  1.0  1.0  5  0 300580932
[01]  G05  f 37  -2547.7 2046003.3  1.0  1.0  5  0 300580933
[02]  G06  f 45     20.2 2046000.0  1.0  1.0  5  0 300580936
[03]  G09  f 34    407.9 2045999.4  1.0  1.0  5  0 300580933
[04]  G12  f 47    174.2 2045999.8  1.0  1.0  5  0 300580930
[05]  G23  f 37   1959.9 2045997.5  1.0  0.9  5  0 300580923
[06]  G25  f 42  -1475.7 2046001.9  1.0  1.0  5  0 300580923
[16]  B05 1f 31   -353.2 4092000.9  0.9  0.0  2  0 300566872
[17]  B08 1f 36   -721.0 4092001.9  1.0  1.0  5  0 300566884
[18]  B12 1f 38  -3061.2 4092008.0  1.0  1.0  5  0 300566925
[19]  B13 1f 36   -761.7 4092002.0  1.0  1.0  5  0 300566881
[20]  B19 1f 37    769.3 4091998.0  1.0  1.0  5  0 300566933
$GNGGA,000000.000,,,,,0,00,,,M,,,,0000*2B
$GNRMC,000000.000,A,,,,,,,000000,,*26
$GPGSA,A,1,,,,,,,,,,,,,,,*1E
$BDGSA,A,1,,,,,,,,,,,,,,,*0F
$GPGSV,2,1,07,02,00,000,41,05,00,000,37,06,00,000,45,09,00,000,34*72
$GPGSV,2,2,07,12,00,000,47,23,00,000,37,25,00,000,42*4A
$BDGSV,2,1,05,05,00,000,31,08,00,000,36,12,00,000,38,13,00,000,36*6B
$BDGSV,2,2,05,19,00,000,37*51
$LOGTIM,0,0.000000,0.000000,0.000000,0.000000,0.000*0A
EndT:        0
---00000040--- Acq_st=3 2019-5-22 11:29:24 
[00]  G02  f 41  -1742.3 2046002.2  1.0  1.0  5  0 300581932
[01]  G05  f 36  -2550.8 2046003.3  1.0  0.9  5  0 300581933
[02]  G06  f 44     17.0 2046000.0  1.0  1.0  5  0 300581936
[03]  G09  f 34    405.1 2045999.5  1.0  1.0  5  0 300581933
[04]  G12  f 47    171.4 2045999.8  1.0  1.0  5  0 300581930
[05]  G23  f 38   1957.2 2045997.5  1.0  0.9  5  0 300581923
[06]  G25  f 41  -1478.6 2046001.9  1.0  1.0  5  0 300581923
[16]  B05 1f 32   -356.7 4092001.0  0.9  0.0  2  0 300567872
[17]  B08 1f 35   -724.6 4092001.8  1.0  1.0  5  0 300567884
[18]  B12 1f 38  -3064.3 4092008.0  1.0  1.0  5  0 300567925
[19]  B13 1f 36   -765.5 4092002.0  1.0  1.0  5  0 300567881
[20]  B19 1f 37    767.1 4091998.0  1.0  1.0  5  0 300567933
lsq: nits= 4
$GNGGA,112925.006,3112.7204,N,12136.4274,E,1,06,1.8,37.3,M,,,,0000*21
$GNRMC,112925.006,A,3112.7204,N,12136.4274,E,0.22,0.00,220519,,*18
$GPGSA,A,3,02,05,06,09,12,23,,,,,,,2.8,1.8,2.1*38
$BDGSA,A,3,,,,,,,,,,,,,2.8,1.8,2.1*23
$GPGSV,2,1,07,02,00,000,41,05,00,000,36,06,00,000,44,09,00,000,34*72
$GPGSV,2,2,07,12,00,000,47,23,00,000,38,25,00,000,41*46
$BDGSV,2,1,05,05,00,000,32,08,00,000,35,12,00,000,38,13,00,000,36*6B
$BDGSV,2,2,05,19,00,000,37*51
$LOGTIM,1,8142285.741864,0.000000,0.000000,0.000000,-66.918*1E
EndT:        1
---00000041--- Acq_st=3 2019-5-22 11:29:25 
[00]  G02  f 41  -1745.7 2046002.3  1.0  1.0  5  0 300582932
[01]  G05  f 37  -2553.5 2046003.2  1.0  1.0  5  0 300582933
[02]  G06  f 45     13.7 2046000.0  1.0  1.0  5  0 300582936
[03]  G09  f 33    403.2 2045999.5  1.0  1.0  5  0 300582933
[04]  G12  f 47    168.4 2045999.8  1.0  1.0  5  0 300582930
[05]  G23  f 39   1953.3 2045997.5  1.0  1.0  5  0 300582923
[06]  G25  f 41  -1481.4 2046002.0  1.0  1.0  5  0 300582923
[16]  B05 1f 31   -360.9 4092000.9  0.9  0.0  2  0 300568872
[17]  B08 1f 36   -728.5 4092001.9  1.0  1.0  5  0 300568884
[18]  B12 1f 38  -3067.6 4092008.1  1.0  1.0  5  0 300568925
[19]  B13 1f 36   -769.6 4092002.0  1.0  1.0  5  0 300568881
[20]  B19 1f 37    763.4 4091998.0  1.0  1.0  5  0 300568933
---00000042--- Acq_st=3 2019-5-22 11:29:26 
[00]  G02  f 42  -1748.7 2046002.3  1.0  1.0  5  0 300582932
[01]  G05  f 37  -2556.6 2046003.3  1.0  0.9  5  0 300582933
[02]  G06  f 44     11.0 2046000.0  1.0  1.0  5  0 300582936
[03]  G09  f 33    400.0 2045999.5  1.0  1.0  5  0 300582933
[04]  G12  f 47    166.3 2045999.8  1.0  1.0  5  0 300582930
[05]  G23  f 39   1951.2 2045997.5  1.0  1.0  5  0 300582923
[06]  G25  f 41  -1483.9 2046001.9  1.0  1.0  5  0 300582923
[16]  B05 1f 31   -363.1 4092001.1  0.9  0.0  2  0 300568872
[17]  B08 1f 36   -731.1 4092001.9  1.0  1.0  5  0 300568884
[18]  B12 1f 38  -3070.1 4092008.0  1.0  1.0  5  0 300568925
[19]  B13 1f 36   -772.1 4092002.1  1.0  1.0  5  0 300568881
[20]  B19 1f 36    761.4 4091998.0  1.0  0.9  5  0 300568933
lsq: nits= 2
$GNGGA,112927.000,3112.7291,N,12136.4274,E,1,06,1.8,29.3,M,,,,0000*26
$GNRMC,112927.000,A,3112.7291,N,12136.4274,E,0.32,0.00,220519,,*11
$GPGSA,A,3,02,05,06,09,12,23,,,,,,,2.8,1.8,2.1*38
$BDGSA,A,3,,,,,,,,,,,,,2.8,1.8,2.1*23
$GPGSV,2,1,07,02,00,000,42,05,00,000,37,06,00,000,44,09,00,000,33*77
$GPGSV,2,2,07,12,00,000,47,23,00,000,39,25,00,000,41*47
$BDGSV,2,1,05,05,00,000,31,08,00,000,36,12,00,000,38,13,00,000,36*6B
$BDGSV,2,2,05,19,00,000,36*50
$LOGTIM,1,-133.016384,0.000000,0.000000,0.000000,-67.933*3A
EndT:        2
---00000043--- Acq_st=3 2019-5-22 11:29:27 
[00]  G02  f 42  -1749.5 2046002.3  1.0  1.0  5  0 300584926
[01]  G05  f 37  -2556.3 2046003.3  1.0  1.0  5  0 300584927
[02]  G06  f 44     10.6 2046000.0  1.0  1.0  5  0 300584929
[03]  G09  f 33    400.7 2045999.6  1.0  1.1  5  0 300584926
[04]  G12  f 47    166.1 2045999.8  1.0  1.0  5  0 300584923
[05]  G23  f 39   1950.7 2045997.5  1.0  1.0  5  0 300584917
[06]  G25  f 42  -1484.1 2046001.9  1.0  1.0  5  0 300584916
[16]  B05 1f 31   -364.5 4092000.8  0.9  0.0  2  0 300570866
[17]  B08 1f 36   -732.2 4092001.9  1.0  1.0  5  0 300570878
[18]  B12 1f 38  -3071.2 4092008.0  1.0  1.0  5  0 300570919
[19]  B13 1f 36   -772.3 4092002.0  1.0  1.0  5  0 300570875
[20]  B19 1f 36    760.3 4091998.0  1.0  0.9  5  0 300570927
lsq: nits= 2
$GNGGA,112928.000,3112.7299,N,12136.4272,E,1,06,1.8,31.4,M,,,,0000*29
$GNRMC,112928.000,A,3112.7299,N,12136.4272,E,0.44,0.00,220519,,*11
$GPGSA,A,3,02,05,06,09,12,23,,,,,,,2.8,1.8,2.1*38
$BDGSA,A,3,,,,,,,,,,,,,2.8,1.8,2.1*23
$GPGSV,2,1,07,02,48,322,42,05,40,245,37,06,56,035,44,09,39,070,33*77
$GPGSV,2,2,07,12,27,280,47,23,12,043,39,25,00,000,42*4F
$BDGSV,2,1,05,05,00,000,32,08,00,000,36,12,00,000,38,13,00,000,36*68
$BDGSV,2,2,05,19,00,000,36*50
$LOGTIM,1,-199.158549,0.000000,0.000000,0.000000,-67.945*37
EndT:        2
---00000044--- Acq_st=3 2019-5-22 11:29:29 
[00]  G02  f 42  -1747.2 2046002.3  1.0  1.0  5  0 300585926
[01]  G05  f 37  -2554.3 2046003.3  1.0  0.9  5  0 300585927
[02]  G06  f 44     12.5 2046000.0  1.0  1.0  5  0 300585929
[03]  G09  f 32    402.7 2045999.5  1.0  1.0  5  0 300585926
[04]  G12  f 47    168.6 2045999.8  1.0  1.0  5  0 300585923
[05]  G23  f 38   1953.4 2045997.4  1.0  1.0  5  0 300585917
[06]  G25  f 42  -1481.1 2046001.9  1.0  1.0  5  0 300585916
[16]  B05 1f 31   -362.0 4092001.2  0.9  0.0  2  0 300571866
[17]  B08 1f 35   -730.4 4092001.9  1.0  1.0  5  0 300571878
[18]  B12 1f 38  -3069.4 4092008.0  1.0  1.0  5  0 300571919
[19]  B13 1f 36   -770.9 4092001.9  1.0  0.9  5  0 300571875
[20]  B19 1f 35    763.0 4091998.0  1.0  0.9  5  0 300571927
lsq: nits= 2
$GNGGA,112929.000,3112.7297,N,12136.4272,E,1,06,1.8,33.1,M,,,,0000*21
$GNRMC,112929.000,A,3112.7297,N,12136.4272,E,0.25,0.00,220519,,*19
$GPGSA,A,3,02,05,06,09,12,23,,,,,,,2.8,1.8,2.1*38
$BDGSA,A,3,,,,,,,,,,,,,2.8,1.8,2.1*23
$GPGSV,2,1,07,02,48,322,42,05,40,245,37,06,56,035,44,09,39,070,32*76
$GPGSV,2,2,07,12,27,280,47,23,12,043,38,25,00,000,42*4E
$BDGSV,2,1,05,05,00,000,31,08,00,000,35,12,00,000,38,13,00,000,36*68
$BDGSV,2,2,05,19,00,000,35*53
$LOGTIM,1,-266.231698,0.000000,0.000000,0.000000,-67.752*3F
EndT:        2
---00000045--- Acq_st=3 2019-5-22 11:29:29 
[00]  G02  f 42  -1746.5 2046002.2  1.0  1.0  5  0 300586926
[01]  G05  f 37  -2553.2 2046003.3  1.0  1.0  5  0 300586927
[02]  G06  f 44     13.6 2046000.0  1.0  1.0  5  0 300586929
[03]  G09  f 32    404.0 2045999.6  1.0  0.9  5  0 300586926
[04]  G12  f 47    169.9 2045999.8  1.0  1.0  5  0 300586923
[05]  G23  f 38   1954.2 2045997.5  1.0  1.0  5  0 300586917
[06]  G25  f 42  -1480.6 2046001.9  1.0  1.0  5  0 300586916
[16]  B05 1f 31   -361.6 4092001.0  0.9  0.0  2  0 300572866
[17]  B08 1f 35   -729.4 4092001.9  1.0  1.0  5  0 300572878
[18]  B12 1f 38  -3068.5 4092008.0  1.0  1.0  5  0 300572919
[19]  B13 1f 36   -769.7 4092002.0  1.0  0.9  5  0 300572875
[20]  B19 1f 35    763.6 4091998.1  1.0  1.0  5  0 300572927
lsq: nits= 2
$GNGGA,112930.000,3112.7288,N,12136.4274,E,1,06,1.8,33.9,M,,,,0000*29
$GNRMC,112930.000,A,3112.7288,N,12136.4274,E,0.07,0.00,220519,,*19
$GPGSA,A,3,02,05,06,09,12,23,,,,,,,2.8,1.8,2.1*38
$BDGSA,A,3,,,,,,,,,,,,,2.8,1.8,2.1*23
$GPGSV,2,1,07,02,48,322,42,05,40,245,37,06,56,035,44,09,39,070,32*76
$GPGSV,2,2,07,12,27,280,47,23,12,043,38,25,00,000,42*4E
$BDGSV,2,1,05,05,00,000,31,08,00,000,35,12,00,000,38,13,00,000,36*68
$BDGSV,2,2,05,19,00,000,35*53
$LOGTIM,1,-334.185083,0.000000,0.000000,0.000000,-67.704*3A
EndT:        2
---00000046--- Acq_st=3 2019-5-22 11:29:30 
[00]  G02  f 42  -1745.0 2046002.3  1.0  1.0  5  0 300587926
[01]  G05  f 37  -2551.0 2046003.4  1.0  1.0  5  0 300587927
[02]  G06  f 44     15.3 2046000.0  1.0  1.0  5  0 300587929
[03]  G09  f 32    406.2 2045999.6  1.0  0.9  5  0 300587926
[04]  G12  f 47    171.6 2045999.8  1.0  1.0  5  0 300587923
[05]  G23  f 39   1956.4 2045997.5  1.0  1.0  5  0 300587917
[06]  G25  f 42  -1478.0 2046001.9  1.0  1.0  5  0 300587916
[16]  B05 1f 31   -360.1 4092001.0  0.9  0.0  2  0 300573866
[17]  B08 1f 35   -728.8 4092001.9  1.0  1.0  5  0 300573878
[18]  B12 1f 37  -3067.3 4092008.1  1.0  1.0  5  0 300573919
[19]  B13 1f 36   -770.1 4092002.0  1.0  0.9  5  0 300573875
[20]  B19 1f 34    765.5 4091998.0  1.0  1.0  5  0 300573927
lsq: nits= 2
$GNGGA,112931.000,3112.7171,N,12136.4286,E,1,07,1.6,51.7,M,,,,0000*25
$GNRMC,112931.000,A,3112.7171,N,12136.4286,E,0.24,0.00,220519,,*11
$GPGSA,A,3,02,05,06,09,12,23,25,,,,,,2.4,1.6,1.8*37
$BDGSA,A,3,,,,,,,,,,,,,2.4,1.6,1.8*2B
$GPGSV,2,1,07,02,48,322,42,05,40,245,37,06,56,035,44,09,39,070,32*76
$GPGSV,2,2,07,12,27,280,47,23,12,043,39,25,00,000,42*4F
$BDGSV,2,1,05,05,00,000,31,08,00,000,35,12,00,000,37,13,00,000,36*67
$BDGSV,2,2,05,19,00,000,34*52
$LOGTIM,1,-397.424944,0.000000,0.000000,0.000000,-67.493*32
EndT:        2
---00000047--- Acq_st=3 2019-5-22 11:29:31 
[00]  G02  f 41  -1744.9 2046002.3  1.0  1.0  5  0 300588926
[01]  G05  f 37  -2550.7 2046003.3  1.0  1.0  5  0 300588927
[02]  G06  f 44     15.4 2046000.0  1.0  1.0  5  0 300588929
[03]  G09  f 32    407.6 2045999.6  1.0  1.0  5  0 300588926
[04]  G12  f 47    172.6 2045999.8  1.0  1.0  5  0 300588923
[05]  G23  f 39   1956.5 2045997.4  1.0  0.9  5  0 300588917
[06]  G25  f 43  -1477.6 2046001.9  1.0  1.0  5  0 300588916
[16]  B05 1f 32   -359.8 4092000.9  0.9  0.0  2  0 300574866
[17]  B08 1f 35   -727.7 4092001.9  1.0  1.0  5  0 300574878
[18]  B12 1f 38  -3066.7 4092008.1  1.0  1.0  5  0 300574919
[19]  B13 1f 36   -769.1 4092002.0  1.0  0.9  5  0 300574875
[20]  B19 1f 34    766.4 4091997.9  1.0  0.9  5  0 300574927
lsq: nits= 2
$GNGGA,112932.000,3112.7152,N,12136.4290,E,1,07,1.6,55.5,M,,,,0000*26
$GNRMC,112932.000,A,3112.7152,N,12136.4290,E,0.20,0.00,220519,,*10
$GPGSA,A,3,02,05,06,09,12,23,25,,,,,,2.4,1.6,1.8*37
$BDGSA,A,3,,,,,,,,,,,,,2.4,1.6,1.8*2B
$GPGSV,2,1,07,02,48,322,41,05,40,245,37,06,56,035,44,09,39,070,32*75
$GPGSV,2,2,07,12,27,280,47,23,12,043,39,25,08,312,43*46
$BDGSV,2,1,05,05,00,000,32,08,00,000,35,12,00,000,38,13,00,000,36*6B
$BDGSV,2,2,05,19,00,000,34*52
$LOGTIM,1,-463.870287,0.000000,0.000000,0.000000,-67.384*36
EndT:        2
---00000048--- Acq_st=3 2019-5-22 11:29:32 
[00]  G02  f 41  -1739.7 2046002.3  1.0  1.0  5  0 300589926
[01]  G05  f 37  -2545.7 2046003.4  1.0  1.0  5  0 300589927
[02]  G06  f 44     20.4 2046000.0  1.0  1.0  5  0 300589929
[03]  G09  f 33    413.3 2045999.4  1.0  1.0  5  0 300589926
[04]  G12  f 47    178.0 2045999.8  1.0  1.0  5  0 300589923
[05]  G23  f 39   1961.9 2045997.5  1.0  1.0  5  0 300589917
[06]  G25  f 42  -1471.8 2046001.9  1.0  1.0  5  0 300589916
[16]  B05 1f 31   -354.6 4092000.9  0.9  0.0  2  0 300575866
[17]  B08 1f 36   -723.5 4092001.8  1.0  1.0  5  0 300575878
[18]  B12 1f 38  -3062.0 4092008.0  1.0  1.0  5  0 300575919
[19]  B13 1f 36   -763.8 4092002.0  1.0  1.0  5  0 300575875
[20]  B19 1f 33    772.3 4091998.0  1.0  0.9  5  0 300575927
lsq: nits= 2
$GNGGA,112933.000,3112.7147,N,12136.4289,E,1,07,1.6,57.5,M,,,,0000*29
$GNRMC,112933.000,A,3112.7147,N,12136.4289,E,0.71,0.00,220519,,*19
$GPGSA,A,3,02,05,06,09,12,23,25,,,,,,2.4,1.6,1.8*37
$BDGSA,A,3,,,,,,,,,,,,,2.4,1.6,1.8*2B
$GPGSV,2,1,07,02,48,322,41,05,40,245,37,06,56,035,44,09,39,070,33*74
$GPGSV,2,2,07,12,27,280,47,23,12,043,39,25,08,312,42*47
$BDGSV,2,1,05,05,00,000,31,08,00,000,36,12,00,000,38,13,00,000,36*6B
$BDGSV,2,2,05,19,00,000,33*55
$LOGTIM,1,-529.954499,0.000000,0.000000,0.000000,-66.728*34
EndT:        2
---00000049--- Acq_st=3 2019-5-22 11:29:33 
[00]  G02  f 40  -1737.6 2046002.3  1.0  1.0  5  0 300590926
[01]  G05  f 37  -2543.5 2046003.3  1.0  1.0  5  0 300590927
[02]  G06  f 45     22.3 2046000.0  1.0  1.0  5  0 300590929
[03]  G09  f 32    414.7 2045999.5  1.0  1.0  5  0 300590926
[04]  G12  f 47    180.5 2045999.8  1.0  1.0  5  0 300590923
[05]  G23  f 38   1964.2 2045997.4  1.0  1.0  5  0 300590917
[06]  G25  f 42  -1469.6 2046001.9  1.0  1.0  5  0 300590916
[16]  B05 1f 31   -353.5 4092001.0  0.9  0.0  2  0 300576866
[17]  B08 1f 35   -721.3 4092001.9  1.0  1.0  5  0 300576878
[18]  B12 1f 38  -3059.6 4092008.0  1.0  1.0  5  0 300576919
[19]  B13 1f 37   -762.8 4092002.0  1.0  1.0  5  0 300576875
[20]  B19 1f 32    773.8 4091998.1  1.0  0.9  5  0 300576927
lsq: nits= 2
$GNGGA,112934.000,3112.7136,N,12136.4290,E,1,07,1.6,57.5,M,,,,0000*20
$GNRMC,112934.000,A,3112.7136,N,12136.4290,E,0.78,0.00,220519,,*19
$GPGSA,A,3,02,05,06,09,12,23,25,,,,,,2.4,1.6,1.8*37
$BDGSA,A,3,,,,,,,,,,,,,2.4,1.6,1.8*2B
$GPGSV,2,1,07,02,48,322,40,05,40,245,37,06,56,035,45,09,39,070,32*75
$GPGSV,2,2,07,12,27,280,47,23,12,043,38,25,08,312,42*46
$BDGSV,2,1,05,05,00,000,31,08,00,000,35,12,00,000,38,13,00,000,37*69
$BDGSV,2,2,05,19,00,000,32*54
$LOGTIM,1,-596.665923,0.000000,0.000000,0.000000,-66.466*38
EndT:        2
---00000050--- Acq_st=3 2019-5-22 11:29:34 
[00]  G02  f 40  -1738.6 2046002.3  1.0  1.0  5  0 300591926
[01]  G05  f 37  -2543.5 2046003.3  1.0  1.0  5  0 300591927
[02]  G06  f 45     21.8 2045999.9  1.0  1.0  5  0 300591929
[03]  G09  f 33    415.0 2045999.5  1.0  0.9  5  0 300591926
[04]  G12  f 47    180.5 2045999.8  1.0  1.0  5  0 300591923
[05]  G23  f 38   1963.9 2045997.4  1.0  1.0  5  0 300591917
[06]  G25  f 42  -1469.7 2046001.9  1.0  1.0  5  0 300591916
[16]  B05 1f 31   -354.0 4092001.0  0.9  0.0  2  0 300577866
[17]  B08 1f 35   -721.9 4092001.9  1.0  0.9  5  0 300577878
[18]  B12 1f 38  -3060.4 4092008.0  1.0  1.0  5  0 300577919
[19]  B13 1f 36   -763.5 4092002.0  1.0  0.9  5  0 300577875
[20]  B19 1f 33    773.9 4091998.0  1.0  0.9  5  0 300577927
lsq: nits= 2
$GNGGA,112935.000,3112.7126,N,12136.4290,E,1,07,1.6,57.0,M,,,,0000*25
$GNRMC,112935.000,A,3112.7126,N,12136.4290,E,0.67,0.00,220519,,*17
$GPGSA,A,3,02,05,06,09,12,23,25,,,,,,2.4,1.6,1.8*37
$BDGSA,A,3,,,,,,,,,,,,,2.4,1.6,1.8*2B
$GPGSV,2,1,07,02,48,322,40,05,40,245,37,06,56,035,45,09,39,070,33*74
$GPGSV,2,2,07,12,27,280,47,23,12,043,38,25,08,312,42*46
$BDGSV,2,1,05,05,00,000,31,08,00,000,35,12,00,000,38,13,00,000,36*68
$BDGSV,2,2,05,19,00,000,33*55
$LOGTIM,1,-663.475819,0.000000,0.000000,0.000000,-66.414*3F
EndT:        2
---00000051--- Acq_st=3 2019-5-22 11:29:35 
[00]  G02  f 40  -1739.2 2046002.3  1.0  1.0  5  0 300592926
[01]  G05  f 38  -2544.3 2046003.3  1.0  1.0  5  0 300592927
[02]  G06  f 45     21.6 2046000.0  1.0  1.0  5  0 300592929
[03]  G09  f 32    414.8 2045999.5  1.0  1.0  5  0 300592926
[04]  G12  f 47    180.6 2045999.8  1.0  1.0  5  0 300592923
[05]  G23  f 38   1964.0 2045997.5  1.0  1.0  5  0 300592917
[06]  G25  f 42  -1469.5 2046001.9  1.0  1.0  5  0 300592916
[16]  B05 1f 31   -354.2 4092001.0  0.9  0.0  2  0 300578866
[17]  B08 1f 35   -722.9 4092001.9  1.0  1.0  5  0 300578878
[18]  B12 1f 38  -3060.5 4092008.1  1.0  1.0  5  0 300578919
[19]  B13 1f 36   -762.7 4092002.1  1.0  1.0  5  0 300578875
[20]  B19 1f 33    774.3 4091998.1  1.0  0.9  5  0 300578927
lsq: nits= 2
$GNGGA,112936.000,3112.7118,N,12136.4289,E,1,07,1.6,56.2,M,,,,0000*20
$GNRMC,112936.000,A,3112.7118,N,12136.4289,E,0.50,0.00,220519,,*15
$GPGSA,A,3,02,05,06,09,12,23,25,,,,,,2.4,1.6,1.8*37
$BDGSA,A,3,,,,,,,,,,,,,2.4,1.6,1.8*2B
$GPGSV,2,1,07,02,48,322,40,05,40,245,38,06,56,035,45,09,39,070,32*7A
$GPGSV,2,2,07,12,27,280,47,23,12,043,38,25,08,312,42*46
$BDGSV,2,1,05,05,00,000,31,08,00,000,35,12,00,000,38,13,00,000,36*68
$BDGSV,2,2,05,19,00,000,33*55
$LOGTIM,1,-730.308830,0.000000,0.000000,0.000000,-66.473*3F
EndT:        2
---00000052--- Acq_st=3 2019-5-22 11:29:36 
[00]  G02  f 40  -1736.9 2046002.2  1.0  1.0  5  0 300593926
[01]  G05  f 38  -2541.5 2046003.3  1.0  0.9  5  0 300593927
[02]  G06  f 45     23.9 2046000.0  1.0  1.0  5  0 300593929
[03]  G09  f 32    418.2 2045999.5  1.0  0.9  5  0 300593926
[04]  G12  f 47    183.2 2045999.8  1.0  1.0  5  0 300593923
[05]  G23  f 38   1966.2 2045997.4  1.0  1.0  5  0 300593917
[06]  G25  f 42  -1467.2 2046001.9  1.0  1.0  5  0 300593916
[16]  B05 1f 31   -352.2 4092001.0  0.9  0.0  2  0 300579866
[17]  B08 1f 35   -721.1 4092001.9  1.0  1.0  5  0 300579878
[18]  B12 1f 38  -3058.9 4092008.0  1.0  1.0  5  0 300579919
[19]  B13 1f 36   -761.8 4092002.0  1.0  0.9  5  0 300579875
[20]  B19 1f 32    776.1 4091998.0  1.0  0.9  5  0 300579927
lsq: nits= 2
$GNGGA,112937.000,3112.7113,N,12136.4287,E,1,07,1.6,55.4,M,,,,0000*21
$GNRMC,112937.000,A,3112.7113,N,12136.4287,E,0.62,0.00,220519,,*10
$GPGSA,A,3,02,05,06,09,12,23,25,,,,,,2.4,1.6,1.8*37
$BDGSA,A,3,,,,,,,,,,,,,2.4,1.6,1.8*2B
$GPGSV,2,1,07,02,48,322,40,05,40,245,38,06,56,035,45,09,39,070,32*7A
$GPGSV,2,2,07,12,27,280,47,23,12,043,38,25,08,312,42*46
$BDGSV,2,1,05,05,00,000,31,08,00,000,35,12,00,000,38,13,00,000,36*68
$BDGSV,2,2,05,19,00,000,32*54
$LOGTIM,1,-797.019955,0.000000,0.000000,0.000000,-66.250*34
EndT:        2
---00000053--- Acq_st=3 2019-5-22 11:29:37 
[00]  G02  f 40  -1738.4 2046002.2  1.0  1.0  5  0 300594926
[01]  G05  f 37  -2543.0 2046003.4  1.0  1.0  5  0 300594927
[02]  G06  f 45     22.3 2046000.0  1.0  1.0  5  0 300594929
[03]  G09  f 32    416.7 2045999.5  1.0  1.0  5  0 300594926
[04]  G12  f 47    182.1 2045999.8  1.0  1.0  5  0 300594923
[05]  G23  f 38   1965.1 2045997.4  1.0  1.0  5  0 300594917
[06]  G25  f 42  -1468.2 2046001.9  1.0  1.0  5  0 300594916
[16]  B05 1f 31   -353.3 4092001.0  0.9  0.0  2  0 300580866
[17]  B08 1f 35   -722.9 4092001.9  1.0  0.9  5  0 300580878
[18]  B12 1f 38  -3060.5 4092008.0  1.0  1.0  5  0 300580919
[19]  B13 1f 36   -763.8 4092001.9  1.0  1.0  5  0 300580875
[20]  B19 1f 32    774.7 4091998.0  1.0  1.0  5  0 300580927
lsq: nits= 2
$GNGGA,112938.000,3112.7108,N,12136.4287,E,1,07,1.6,54.5,M,,,,0000*24
$GNRMC,112938.000,A,3112.7108,N,12136.4287,E,0.33,0.00,220519,,*11
$GPGSA,A,3,02,05,06,09,12,23,25,,,,,,2.4,1.6,1.8*37
$BDGSA,A,3,,,,,,,,,,,,,2.4,1.6,1.8*2B
$GPGSV,2,1,07,02,48,322,40,05,40,245,37,06,56,035,45,09,39,070,32*75
$GPGSV,2,2,07,12,27,280,47,23,12,043,38,25,08,312,42*46
$BDGSV,2,1,05,05,00,000,31,08,00,000,35,12,00,000,38,13,00,000,36*68
$BDGSV,2,2,05,19,00,000,32*54
$LOGTIM,1,-863.939601,0.000000,0.000000,0.000000,-66.390*38
EndT:        2
---00000054--- Acq_st=3 2019-5-22 11:29:38 
[00]  G02  f 40  -1737.1 2046002.3  1.0  1.0  5  0 300595926
[01]  G05  f 37  -2541.0 2046003.3  1.0  1.0  5  0 300595927
[02]  G06  f 45     24.2 2045999.9  1.0  1.0  5  0 300595929
[03]  G09  f 32    418.3 2045999.5  1.0  1.0  5  0 300595926
[04]  G12  f 47    184.1 2045999.8  1.0  1.0  5  0 300595923
[05]  G23  f 39   1966.4 2045997.4  1.0  1.0  5  0 300595917
[06]  G25  f 42  -1466.5 2046001.9  1.0  1.0  5  0 300595916
[16]  B05 1f 32   -352.6 4092000.9  0.9  0.0  2  0 300581866
[17]  B08 1f 35   -721.0 4092001.9  1.0  1.0  5  0 300581878
[18]  B12 1f 38  -3058.7 4092008.1  1.0  1.0  5  0 300581919
[19]  B13 1f 36   -762.7 4092001.9  1.0  1.0  5  0 300581875
[20]  B19 1f 33    777.1 4091997.9  1.0  1.0  5  0 300581927
lsq: nits= 2
$GNGGA,112939.000,3112.7100,N,12136.4288,E,1,07,1.6,53.4,M,,,,0000*24
$GNRMC,112939.000,A,3112.7100,N,12136.4288,E,0.53,0.00,220519,,*11
$GPGSA,A,3,02,05,06,09,12,23,25,,,,,,2.4,1.6,1.8*37
$BDGSA,A,3,,,,,,,,,,,,,2.4,1.6,1.8*2B
$GPGSV,2,1,07,02,48,322,40,05,40,245,37,06,56,035,45,09,39,070,32*75
$GPGSV,2,2,07,12,27,280,47,23,12,043,39,25,08,312,42*47
$BDGSV,2,1,05,05,00,000,32,08,00,000,35,12,00,000,38,13,00,000,36*6B
$BDGSV,2,2,05,19,00,000,33*55
$LOGTIM,1,-930.920194,0.000000,0.000000,0.000000,-66.197*39
EndT:        2
---00000055--- Acq_st=3 2019-5-22 11:29:39 
