FlashID=0x1 0x20 0x18
BBram_blkflag1: 1e6f: e190
FW Ver: 1.30  
GPS00 Init Dop:   5000, 40
GPS01 Init Dop:   5000, 40
GPS02 Init Dop:   5000, 40
GPS03 Init Dop:   5000, 40
GPS04 Init Dop:   5000, 40
GPS05 Init Dop:   5000, 40
GPS06 Init Dop:   5000, 40
GPS07 Init Dop:   5000, 40
GPS08 Init Dop:   5000, 40
GPS09 Init Dop:   5000, 40
GPS10 Init Dop:   5000, 40
GPS11 Init Dop:   5000, 40
GPS12 Init Dop:   5000, 40
GPS13 Init Dop:   5000, 40
GPS14 Init Dop:   5000, 40
GPS15 Init Dop:   5000, 40
GPS16 Init Dop:   5000, 40
GPS17 Init Dop:   5000, 40
GPS18 Init Dop:   5000, 40
GPS19 Init Dop:   5000, 40
GPS20 Init Dop:   5000, 40
GPS21 Init Dop:   5000, 40
GPS22 Init Dop:   5000, 40
GPS23 Init Dop:   5000, 40
GPS24 Init Dop:   5000, 40
GPS25 Init Dop:   5000, 40
GPS26 Init Dop:   5000, 40
GPS27 Init Dop:   5000, 40
GPS28 Init Dop:   5000, 40
GPS29 Init Dop:   5000, 40
GPS30 Init Dop:   5000, 40
GPS31 Init Dop:   5000, 40
BDS00 Init Dop:   5000, 40
BDS01 Init Dop:   5000, 40
BDS02 Init Dop:   5000, 40
BDS03 Init Dop:   5000, 40
BDS04 Init Dop:   5000, 40
BDS05 Init Dop:   5000, 40
BDS06 Init Dop:   5000, 40
BDS07 Init Dop:   5000, 40
BDS08 Init Dop:   5000, 40
BDS09 Init Dop:   5000, 40
BDS10 Init Dop:   5000, 40
BDS11 Init Dop:   5000, 40
BDS12 Init Dop:   5000, 40
BDS13 Init Dop:   5000, 40
BDS14 Init Dop:   5000, 40
BDS15 Init Dop:   5000, 40
BDS16 Init Dop:   5000, 40
BDS17 Init Dop:   5000, 40
BDS18 Init Dop:   5000, 40
BDS19 Init Dop:   5000, 40
BDS20 Init Dop:   5000, 40
BDS21 Init Dop:   5000, 40
BDS22 Init Dop:   5000, 40
BDS23 Init Dop:   5000, 40
BDS24 Init Dop:   5000, 40
BDS25 Init Dop:   5000, 40
BDS26 Init Dop:   5000, 40
BDS27 Init Dop:   5000, 40
BDS28 Init Dop:   5000, 40
BDS29 Init Dop:   5000, 40
BDS30 Init Dop:   5000, 40
BDS31 Init Dop:   5000, 40
good luck!
---00000001--- Acq_st=3 2019-5-22 11:33:7 
[00]  G02  1 19  -1727.9 2046004.1 -0.1  0.0  1  0         0
$GNGGA,000000.000,,,,,0,00,,,M,,,,0000*2B
$GNRMC,000000.000,A,,,,,,,000000,,*26
$GPGSA,A,1,,,,,,,,,,,,,,,*1E
$BDGSA,A,1,,,,,,,,,,,,,,,*0F
$LOGTIM,0,0.000000,0.000000,0.000000,0.000000,0.000*0A
EndT:        0
---00000002--- Acq_st=3 2019-5-22 11:33:8 
[00]  G02  7 30  -1717.9 2046002.8  0.2  0.0  5  0         5
$GNGGA,000000.000,,,,,0,00,,,M,,,,0000*2B
$GNRMC,000000.000,A,,,,,,,000000,,*26
$GPGSA,A,1,,,,,,,,,,,,,,,*1E
$BDGSA,A,1,,,,,,,,,,,,,,,*0F
$GPGSV,1,1,01,02,00,000,30*49
$LOGTIM,0,0.000000,0.000000,0.000000,0.000000,0.000*0A
EndT:        0
---00000003--- Acq_st=3 2019-5-22 11:33:9 
[00]  G02  7 40  -1706.2 2046002.2  0.5  1.0  5  0        19
[01]  G06  1 26     81.0 2046000.0  0.1  0.0  1  0         0
$GNGGA,000000.000,,,,,0,00,,,M,,,,0000*2B
$GNRMC,000000.000,A,,,,,,,000000,,*26
$GPGSA,A,1,,,,,,,,,,,,,,,*1E
$BDGSA,A,1,,,,,,,,,,,,,,,*0F
$GPGSV,1,1,01,02,00,000,40*4E
$LOGTIM,0,0.000000,0.000000,0.000000,0.000000,0.000*0A
EndT:        0
---00000004--- Acq_st=3 2019-5-22 11:33:10 
[00]  G02  7 41  -1707.6 2046002.2  1.0  1.0  5  0        19
[01]  G06  7 31     81.9 2045999.9  0.6  1.0  5  0        12
[02]  G09  1 23    570.6 2045999.7 -0.2  0.0  1  0         0
$GNGGA,000000.000,,,,,0,00,,,M,,,,0000*2B
$GNRMC,000000.000,A,,,,,,,000000,,*26
$GPGSA,A,1,,,,,,,,,,,,,,,*1E
$BDGSA,A,1,,,,,,,,,,,,,,,*0F
$GPGSV,1,1,02,02,00,000,41,06,00,000,31*78
$LOGTIM,0,0.000000,0.000000,0.000000,0.000000,0.000*0A
EndT:        0
---00000005--- Acq_st=3 2019-5-22 11:33:11 
[00]  G02  7 40  -1707.1 2046002.2  1.0  1.0  5  0        19
[01]  G06  7 48     83.3 2045999.9  1.0  1.0  5  0         2
[02]  G09  7 29    571.6 2045999.2  0.2  1.0  5  0         3
[03]  G12  1 29    334.0 2046000.1  0.1  0.0  1  0         0
$GNGGA,000000.000,,,,,0,00,,,M,,,,0000*2B
$GNRMC,000000.000,A,,,,,,,000000,,*26
$GPGSA,A,1,,,,,,,,,,,,,,,*1E
$BDGSA,A,1,,,,,,,,,,,,,,,*0F
$GPGSV,1,1,03,02,00,000,40,06,00,000,48,09,00,000,29*44
$LOGTIM,0,0.000000,0.000000,0.000000,0.000000,0.000*0A
EndT:        0
---00000006--- Acq_st=3 2019-5-22 11:33:12 
[00]  G02  7 39  -1708.1 2046002.2  1.0  0.9  5  0        19
[01]  G06  7 47     82.2 2045999.9  1.0  1.0  5  0         2
[02]  G09  7 36    572.2 2045999.2  1.0  1.0  5  0        19
[03]  G12  7 30    330.1 2045999.5  0.7  1.0  5  0        14
$GNGGA,000000.000,,,,,0,00,,,M,,,,0000*2B
$GNRMC,000000.000,A,,,,,,,000000,,*26
$GPGSA,A,1,,,,,,,,,,,,,,,*1E
$BDGSA,A,1,,,,,,,,,,,,,,,*0F
$GPGSV,1,1,04,02,00,000,39,06,00,000,47,09,00,000,36,12,00,000,30*7C
$LOGTIM,0,0.000000,0.000000,0.000000,0.000000,0.000*0A
EndT:        0
---00000007--- Acq_st=3 2019-5-22 11:33:13 
[00]  G02  f 41  -1708.6 2046002.2  1.0  1.0  5  0        19
[01]  G06  f 48     81.7 2045999.9  1.0  1.0  5  0         2
[02]  G09  f 36    572.6 2045999.2  1.0  1.0  5  0        19
[03]  G12  7 48    330.1 2045999.5  1.0  1.0  5  0        16
$GNGGA,000000.000,,,,,0,00,,,M,,,,0000*2B
$GNRMC,000000.000,A,,,,,,,000000,,*26
$GPGSA,A,1,,,,,,,,,,,,,,,*1E
$BDGSA,A,1,,,,,,,,,,,,,,,*0F
$GPGSV,1,1,04,02,00,000,41,06,00,000,48,09,00,000,36,12,00,000,48*73
$LOGTIM,0,0.000000,0.000000,0.000000,0.000000,0.000*0A
EndT:        0
---00000008--- Acq_st=3 2019-5-22 11:33:14 
[00]  G02  f 40  -1719.5 2046002.2  1.0  0.9  5  0 300811619
[01]  G06  f 48     71.0 2045999.9  1.0  1.0  5  0 300811622
[02]  G09  f 36    561.5 2045999.3  1.0  1.0  5  0 300811619
[03]  G12  7 48    319.9 2045999.5  1.0  1.0  5  0        16
[04]  G23  1  7   2216.3 2045999.5  0.0  0.0  1  0         0
$GNGGA,000000.000,,,,,0,00,,,M,,,,0000*2B
$GNRMC,000000.000,A,,,,,,,000000,,*26
$GPGSA,A,1,,,,,,,,,,,,,,,*1E
$BDGSA,A,1,,,,,,,,,,,,,,,*0F
$GPGSV,1,1,04,02,00,000,40,06,00,000,48,09,00,000,36,12,00,000,48*72
$LOGTIM,0,0.000000,0.000000,0.000000,0.000000,0.000*0A
EndT:        0
---00000009--- Acq_st=3 2019-5-22 11:33:15 
[00]  G02  f 40  -1723.4 2046002.2  1.0  1.0  5  0 300812619
[01]  G06  f 47     66.8 2045999.9  1.0  1.0  5  0 300812622
[02]  G09  f 36    557.6 2045999.2  1.0  1.0  5  0 300812619
[03]  G12  7 48    315.7 2045999.5  1.0  1.0  5  0        16
[05]  G25  1  7  -1267.1 2046003.0  0.0  0.0  1  0         0
$GNGGA,000000.000,,,,,0,00,,,M,,,,0000*2B
$GNRMC,000000.000,A,,,,,,,000000,,*26
$GPGSA,A,1,,,,,,,,,,,,,,,*1E
$BDGSA,A,1,,,,,,,,,,,,,,,*0F
$GPGSV,1,1,04,02,00,000,40,06,00,000,47,09,00,000,36,12,00,000,48*7D
$LOGTIM,0,0.000000,0.000000,0.000000,0.000000,0.000*0A
EndT:        0
---00000010--- Acq_st=3 2019-5-22 11:33:16 
[00]  G02  f 40  -1718.4 2046002.2  1.0  1.0  5  0 300813619
[01]  G06  f 48     72.9 2045999.9  1.0  1.0  5  0 300813622
[02]  G09  f 35    564.8 2045999.3  1.0  1.0  5  0 300813619
[03]  G12  7 48    322.2 2045999.6  1.0  1.0  5  0        16
[05]  G25  7 13  -1333.9 2046001.7  0.2  0.0 20  0        12
$GNGGA,000000.000,,,,,0,00,,,M,,,,0000*2B
$GNRMC,000000.000,A,,,,,,,000000,,*26
$GPGSA,A,1,,,,,,,,,,,,,,,*1E
$BDGSA,A,1,,,,,,,,,,,,,,,*0F
$GPGSV,2,1,05,02,00,000,40,06,00,000,48,09,00,000,35,12,00,000,48*73
$GPGSV,2,2,05,25,00,000,13*49
$LOGTIM,0,0.000000,0.000000,0.000000,0.000000,0.000*0A
EndT:        0
---00000011--- Acq_st=3 2019-5-22 11:33:17 
[00]  G02  f 40  -1719.4 2046002.3  1.0  1.0  5  0 300814619
[01]  G06  f 48     71.9 2045999.9  1.0  1.0  5  0 300814622
[02]  G09  f 35    564.4 2045999.2  1.0  1.0  5  0 300814619
[03]  G12  7 48    322.0 2045999.6  1.0  1.0  5  0        16
[05]  G25  7 39  -1333.6 2046001.7  0.4  1.0  5  0         9
$GNGGA,000000.000,,,,,0,00,,,M,,,,0000*2B
$GNRMC,000000.000,A,,,,,,,000000,,*26
$GPGSA,A,1,,,,,,,,,,,,,,,*1E
$BDGSA,A,1,,,,,,,,,,,,,,,*0F
$GPGSV,2,1,05,02,00,000,40,06,00,000,48,09,00,000,35,12,00,000,48*73
$GPGSV,2,2,05,25,00,000,39*41
$LOGTIM,0,0.000000,0.000000,0.000000,0.000000,0.000*0A
EndT:        0
---00000012--- Acq_st=3 2019-5-22 11:33:18 
[00]  G02  f 39  -1720.5 2046002.2  1.0  1.0  5  0 300815619
[01]  G06  f 48     70.6 2045999.9  1.0  1.0  5  0 300815622
[02]  G09  f 36    563.1 2045999.3  1.0  1.0  5  0 300815619
[03]  G12  7 48    320.9 2045999.6  1.0  1.0  5  0        16
[05]  G25  7 39  -1334.9 2046001.7  1.0  1.0  5  0         9
$GNGGA,000000.000,,,,,0,00,,,M,,,,0000*2B
$GNRMC,000000.000,A,,,,,,,000000,,*26
$GPGSA,A,1,,,,,,,,,,,,,,,*1E
$BDGSA,A,1,,,,,,,,,,,,,,,*0F
$GPGSV,2,1,05,02,00,000,39,06,00,000,48,09,00,000,36,12,00,000,48*7E
$GPGSV,2,2,05,25,00,000,39*41
$LOGTIM,0,0.000000,0.000000,0.000000,0.000000,0.000*0A
EndT:        0
---00000013--- Acq_st=3 2019-5-22 11:33:19 
[00]  G02  f 40  -1717.1 2046002.2  1.0  1.0  5  0 300816619
[01]  G06  f 48     74.4 2045999.9  1.0  1.0  5  0 300816622
[02]  G09  f 36    567.5 2045999.3  1.0  1.0  5  0 300816619
[03]  G12  f 48    324.8 2045999.6  1.0  1.0  5  0        16
[05]  G25  f 38  -1330.6 2046001.7  1.0  1.0  5  0         9
$GNGGA,000000.000,,,,,0,00,,,M,,,,0000*2B
$GNRMC,000000.000,A,,,,,,,000000,,*26
$GPGSA,A,1,,,,,,,,,,,,,,,*1E
$BDGSA,A,1,,,,,,,,,,,,,,,*0F
$GPGSV,2,1,05,02,00,000,40,06,00,000,48,09,00,000,36,12,00,000,48*70
$GPGSV,2,2,05,25,00,000,38*40
$LOGTIM,0,0.000000,0.000000,0.000000,0.000000,0.000*0A
EndT:        0
---00000014--- Acq_st=3 2019-5-22 11:33:20 
[00]  G02  f 39  -1719.0 2046002.2  1.0  1.0  5  0 300817619
[01]  G06  f 48     71.9 2045999.9  1.0  1.0  5  0 300817622
[02]  G09  f 36    565.2 2045999.3  1.0  1.0  5  0 300817619
[03]  G12  f 47    322.9 2045999.6  1.0  1.0  5  0 300817616
[05]  G25  f 38  -1332.3 2046001.7  1.0  1.0  5  0 300817609
$GNGGA,000000.000,,,,,0,00,,,M,,,,0000*2B
$GNRMC,000000.000,A,,,,,,,000000,,*26
$GPGSA,A,1,,,,,,,,,,,,,,,*1E
$BDGSA,A,1,,,,,,,,,,,,,,,*0F
$GPGSV,2,1,05,02,00,000,39,06,00,000,48,09,00,000,36,12,00,000,47*71
$GPGSV,2,2,05,25,00,000,38*40
$LOGTIM,0,0.000000,0.000000,0.000000,0.000000,0.000*0A
EndT:        0
---00000015--- Acq_st=3 2019-5-22 11:33:21 
[00]  G02  f 40  -1722.5 2046002.2  1.0  1.0  5  0 300818619
[01]  G06  f 48     69.0 2045999.9  1.0  1.0  5  0 300818622
[02]  G09  f 36    562.2 2045999.3  1.0  1.0  5  0 300818619
[03]  G12  f 47    320.4 2045999.6  1.0  1.0  5  0 300818616
[05]  G25  f 39  -1335.2 2046001.7  1.0  1.0  5  0 300818609
[16]  B05  1 16   -487.3 4092002.9 -0.1  0.0  1  0         0
$GNGGA,000000.000,,,,,0,00,,,M,,,,0000*2B
$GNRMC,000000.000,A,,,,,,,000000,,*26
$GPGSA,A,1,,,,,,,,,,,,,,,*1E
$BDGSA,A,1,,,,,,,,,,,,,,,*0F
$GPGSV,2,1,05,02,00,000,40,06,00,000,48,09,00,000,36,12,00,000,47*7F
$GPGSV,2,2,05,25,00,000,39*41
$LOGTIM,0,0.000000,0.000000,0.000000,0.000000,0.000*0A
EndT:        0
---00000016--- Acq_st=3 2019-5-22 11:33:22 
[00]  G02  f 40  -1726.9 2046002.2  1.0  1.0  5  0 300819619
[01]  G06  f 47     64.4 2045999.9  1.0  1.0  5  0 300819622
[02]  G09  f 35    559.6 2045999.3  1.0  0.9  5  0 300819619
[03]  G12  f 47    316.3 2045999.6  1.0  1.0  5  0 300819616
[05]  G25  f 39  -1339.3 2046001.8  1.0  1.0  5  0 300819609
[16]  B05  1 31   -366.5 4092001.4  0.6  0.0  1  0       259
$GNGGA,000000.000,,,,,0,00,,,M,,,,0000*2B
$GNRMC,000000.000,A,,,,,,,000000,,*26
$GPGSA,A,1,,,,,,,,,,,,,,,*1E
$BDGSA,A,1,,,,,,,,,,,,,,,*0F
$GPGSV,2,1,05,02,00,000,40,06,00,000,47,09,00,000,35,12,00,000,47*73
$GPGSV,2,2,05,25,00,000,39*41
$LOGTIM,0,0.000000,0.000000,0.000000,0.000000,0.000*0A
EndT:        0
---00000017--- Acq_st=3 2019-5-22 11:33:23 
[00]  G02  f 40  -1731.6 2046002.2  1.0  1.0  5  0 300820619
[01]  G06  f 47     60.6 2045999.9  1.0  1.0  5  0 300820622
[02]  G09  f 36    555.2 2045999.3  1.0  1.0  5  0 300820619
[03]  G12  f 47    312.9 2045999.6  1.0  1.0  5  0 300820616
[05]  G25  f 39  -1342.2 2046001.8  1.0  1.0  5  0 300820609
[16]  B05  f 31   -356.1 4092000.9  0.9  0.0  2  0       159
$GNGGA,000000.000,,,,,0,00,,,M,,,,0000*2B
$GNRMC,000000.000,A,,,,,,,000000,,*26
$GPGSA,A,1,,,,,,,,,,,,,,,*1E
$BDGSA,A,1,,,,,,,,,,,,,,,*0F
$GPGSV,2,1,05,02,00,000,40,06,00,000,47,09,00,000,36,12,00,000,47*70
$GPGSV,2,2,05,25,00,000,39*41
$BDGSV,1,1,01,05,00,000,31*5E
$LOGTIM,0,0.000000,0.000000,0.000000,0.000000,0.000*0A
EndT:        0
---00000018--- Acq_st=3 2019-5-22 11:33:24 
[00]  G02  f 41  -1733.7 2046002.2  1.0  1.0  5  0 300821619
[01]  G06  f 47     57.5 2045999.9  1.0  1.0  5  0 300821622
[02]  G09  f 36    553.2 2045999.2  1.0  1.0  5  0 300821619
[03]  G12  f 47    310.2 2045999.6  1.0  1.0  5  0 300821616
[05]  G25  f 39  -1345.7 2046001.7  1.0  1.0  5  0 300821609
[16]  B05 1f 31   -358.5 4092000.9  0.9  0.0  2  0 300808159
$GNGGA,000000.000,,,,,0,00,,,M,,,,0000*2B
$GNRMC,000000.000,A,,,,,,,000000,,*26
$GPGSA,A,1,,,,,,,,,,,,,,,*1E
$BDGSA,A,1,,,,,,,,,,,,,,,*0F
$GPGSV,2,1,05,02,00,000,41,06,00,000,47,09,00,000,36,12,00,000,47*71
$GPGSV,2,2,05,25,00,000,39*41
$BDGSV,1,1,01,05,00,000,31*5E
$LOGTIM,0,0.000000,0.000000,0.000000,0.000000,0.000*0A
EndT:        0
---00000019--- Acq_st=3 2019-5-22 11:33:25 
[00]  G02  f 41  -1735.3 2046002.2  1.0  0.9  5  0 300822619
[01]  G06  f 47     56.8 2045999.9  1.0  1.0  5  0 300822622
[02]  G09  f 35    552.5 2045999.3  1.0  1.0  5  0 300822619
[03]  G12  f 47    309.8 2045999.6  1.0  1.0  5  0 300822616
[05]  G25  f 39  -1345.8 2046001.7  1.0  1.0  5  0 300822609
[16]  B05 1f 33   -360.7 4092001.0  0.9  0.0  2  0 300808559
$GNGGA,000000.000,,,,,0,00,,,M,,,,0000*2B
$GNRMC,000000.000,A,,,,,,,000000,,*26
$GPGSA,A,1,,,,,,,,,,,,,,,*1E
$BDGSA,A,1,,,,,,,,,,,,,,,*0F
$GPGSV,2,1,05,02,00,000,41,06,00,000,47,09,00,000,35,12,00,000,47*72
$GPGSV,2,2,05,25,00,000,39*41
$BDGSV,1,1,01,05,00,000,33*5C
$LOGTIM,0,0.000000,0.000000,0.000000,0.000000,0.000*0A
EndT:        0
---00000020--- Acq_st=3 2019-5-22 11:33:26 
[00]  G02  f 40  -1733.0 2046002.2  1.0  1.0  5  0 300823619
[01]  G06  f 47     58.6 2045999.9  1.0  1.0  5  0 300823622
[02]  G09  f 35    555.3 2045999.3  1.0  1.0  5  0 300823619
[03]  G12  f 47    312.1 2045999.6  1.0  1.0  5  0 300823616
[05]  G25  f 39  -1343.9 2046001.7  1.0  1.0  5  0 300823609
[16]  B05 1f 33   -358.7 4092000.8  0.9  0.0  2  0 300809559
$GNGGA,000000.000,,,,,0,00,,,M,,,,0000*2B
$GNRMC,000000.000,A,,,,,,,000000,,*26
$GPGSA,A,1,,,,,,,,,,,,,,,*1E
$BDGSA,A,1,,,,,,,,,,,,,,,*0F
$GPGSV,2,1,05,02,00,000,40,06,00,000,47,09,00,000,35,12,00,000,47*73
$GPGSV,2,2,05,25,00,000,39*41
$BDGSV,1,1,01,05,00,000,33*5C
$LOGTIM,0,0.000000,0.000000,0.000000,0.000000,0.000*0A
EndT:        0
---00000021--- Acq_st=3 2019-5-22 11:33:27 
[00]  G02  f 40  -1739.6 2046002.3  1.0  1.0  5  0 300824619
[01]  G06  f 47     52.7 2045999.9  1.0  1.0  5  0 300824622
[02]  G09  f 33    549.7 2045999.3  1.0  1.0  5  0 300824619
[03]  G12  f 47    306.5 2045999.6  1.0  1.0  5  0 300824616
[05]  G25  f 39  -1349.5 2046001.8  1.0  1.0  5  0 300824609
[16]  B05 1f 33   -364.2 4092001.0  0.9  0.0  2  0 300810559
[17]  B12  1 10  -3052.0 4092008.0  0.2  0.0  1  0         6
[18]  B13  1  7   -788.7 4092002.8  0.0  0.0  1  0         0
$GNGGA,000000.000,,,,,0,00,,,M,,,,0000*2B
$GNRMC,000000.000,A,,,,,,,000000,,*26
$GPGSA,A,1,,,,,,,,,,,,,,,*1E
$BDGSA,A,1,,,,,,,,,,,,,,,*0F
$GPGSV,2,1,05,02,00,000,40,06,00,000,47,09,00,000,33,12,00,000,47*75
$GPGSV,2,2,05,25,00,000,39*41
$BDGSV,1,1,01,05,00,000,33*5C
$LOGTIM,0,0.000000,0.000000,0.000000,0.000000,0.000*0A
EndT:        0
---00000022--- Acq_st=3 2019-5-22 11:33:28 
[00]  G02  f 40  -1741.8 2046002.3  1.0  1.0  5  0 300825619
[01]  G06  f 47     50.3 2045999.9  1.0  1.0  5  0 300825622
[02]  G09  f 33    547.9 2045999.3  1.0  1.0  5  0 300825619
[03]  G12  f 46    304.5 2045999.6  1.0  1.0  5  0 300825616
[05]  G25  f 39  -1350.9 2046001.7  1.0  1.0  5  0 300825609
[16]  B05 1f 33   -366.4 4092001.0  0.8  0.0  2  0 300811559
[17]  B12  7 30  -3054.6 4092008.0  0.1  1.0  5  0      1006
[18]  B13  1  7   -793.0 4092002.9  0.1  0.0  1  0       256
$GNGGA,000000.000,,,,,0,00,,,M,,,,0000*2B
$GNRMC,000000.000,A,,,,,,,000000,,*26
$GPGSA,A,1,,,,,,,,,,,,,,,*1E
$BDGSA,A,1,,,,,,,,,,,,,,,*0F
$GPGSV,2,1,05,02,00,000,40,06,00,000,47,09,00,000,33,12,00,000,46*74
$GPGSV,2,2,05,25,00,000,39*41
$BDGSV,1,1,02,05,00,000,33,12,00,000,30*6F
$LOGTIM,0,0.000000,0.000000,0.000000,0.000000,0.000*0A
EndT:        0
---00000023--- Acq_st=3 2019-5-22 11:33:29 
[00]  G02  f 41  -1736.8 2046002.2  1.0  1.0  5  0 300826619
[01]  G06  f 47     55.6 2045999.9  1.0  1.0  5  0 300826622
[02]  G09  f 32    553.3 2045999.3  1.0  0.9  5  0 300826619
[03]  G12  f 46    310.3 2045999.6  1.0  1.0  5  0 300826616
[05]  G25  f 39  -1345.5 2046001.8  1.0  1.0  5  0 300826609
[16]  B05 1f 32   -362.4 4092000.9  0.8  0.0  2  0 300812559
[17]  B12  7 37  -3049.8 4092008.0  1.0  1.0  5  0      1992
[18]  B13  7 35   -788.4 4092002.0  0.5  1.0  5  0      1256
$GNGGA,000000.000,,,,,0,00,,,M,,,,0000*2B
$GNRMC,000000.000,A,,,,,,,000000,,*26
$GPGSA,A,1,,,,,,,,,,,,,,,*1E
$BDGSA,A,1,,,,,,,,,,,,,,,*0F
$GPGSV,2,1,05,02,00,000,41,06,00,000,47,09,00,000,32,12,00,000,46*74
$GPGSV,2,2,05,25,00,000,39*41
$BDGSV,1,1,03,05,00,000,32,12,00,000,37,13,00,000,35*5C
$LOGTIM,0,0.000000,0.000000,0.000000,0.000000,0.000*0A
EndT:        0
---00000024--- Acq_st=3 2019-5-22 11:33:30 
[00]  G02  f 41  -1736.0 2046002.3  1.0  1.0  5  0 300827619
[01]  G06  f 47     57.1 2045999.9  1.0  1.0  5  0 300827622
[02]  G09  f 33    554.7 2045999.3  1.0  0.9  5  0 300827619
[03]  G12  f 47    311.9 2045999.6  1.0  1.0  5  0 300827616
[05]  G25  f 38  -1343.3 2046001.8  1.0  1.0  5  0 300827609
[16]  B05 1f 34   -361.3 4092000.7  0.9  0.0  2  0 300813559
[17]  B12  7 37  -3048.2 4092008.1  1.0  0.9  5  0      2992
[18]  B13  7 37   -786.7 4092002.1  1.0  1.0  5  0      2247
$GNGGA,000000.000,,,,,0,00,,,M,,,,0000*2B
$GNRMC,000000.000,A,,,,,,,000000,,*26
$GPGSA,A,1,,,,,,,,,,,,,,,*1E
$BDGSA,A,1,,,,,,,,,,,,,,,*0F
$GPGSV,2,1,05,02,00,000,41,06,00,000,47,09,00,000,33,12,00,000,47*74
$GPGSV,2,2,05,25,00,000,38*40
$BDGSV,1,1,03,05,00,000,34,12,00,000,37,13,00,000,37*58
$LOGTIM,0,0.000000,0.000000,0.000000,0.000000,0.000*0A
EndT:        0
---00000025--- Acq_st=3 2019-5-22 11:33:31 
[00]  G02  f 41  -1736.3 2046002.2  1.0  1.0  5  0 300828619
[01]  G06  f 47     56.5 2045999.9  1.0  1.0  5  0 300828622
[02]  G09  f 34    555.7 2045999.3  1.0  1.0  5  0 300828619
[03]  G12  f 47    312.2 2045999.6  1.0  1.0  5  0 300828616
[05]  G25  f 38  -1343.7 2046001.8  1.0  1.0  5  0 300828609
[16]  B05 1f 31   -361.1 4092001.2  0.9  0.0  2  0 300814559
[17]  B12  7 37  -3048.8 4092008.0  1.0  1.0  5  0      3992
[18]  B13  7 37   -788.1 4092002.0  1.0  1.0  5  0      3247
$GNGGA,000000.000,,,,,0,00,,,M,,,,0000*2B
$GNRMC,000000.000,A,,,,,,,000000,,*26
$GPGSA,A,1,,,,,,,,,,,,,,,*1E
$BDGSA,A,1,,,,,,,,,,,,,,,*0F
$GPGSV,2,1,05,02,00,000,41,06,00,000,47,09,00,000,34,12,00,000,47*73
$GPGSV,2,2,05,25,00,000,38*40
$BDGSV,1,1,03,05,00,000,31,12,00,000,37,13,00,000,37*5D
$LOGTIM,0,0.000000,0.000000,0.000000,0.000000,0.000*0A
EndT:        0
---00000026--- Acq_st=3 2019-5-22 11:33:32 
[00]  G02  f 40  -1736.9 2046002.3  1.0  1.0  5  0 300829619
[01]  G06  f 47     56.3 2045999.9  1.0  1.0  5  0 300829622
[02]  G09  f 34    554.7 2045999.3  1.0  0.9  5  0 300829619
[03]  G12  f 47    312.2 2045999.6  1.0  1.0  5  0 300829616
[05]  G25  f 38  -1343.5 2046001.8  1.0  1.0  5  0 300829609
[16]  B05 1f 32   -362.0 4092001.1  0.8  0.0  2  0 300815559
[17]  B12  7 37  -3049.5 4092008.0  1.0  1.0  5  0      4992
[18]  B13  7 37   -787.9 4092002.0  1.0  1.0  5  0      4247
$GNGGA,000000.000,,,,,0,00,,,M,,,,0000*2B
$GNRMC,000000.000,A,,,,,,,000000,,*26
$GPGSA,A,1,,,,,,,,,,,,,,,*1E
$BDGSA,A,1,,,,,,,,,,,,,,,*0F
$GPGSV,2,1,05,02,00,000,40,06,00,000,47,09,00,000,34,12,00,000,47*72
$GPGSV,2,2,05,25,00,000,38*40
$BDGSV,1,1,03,05,00,000,32,12,00,000,37,13,00,000,37*5E
$LOGTIM,0,0.000000,0.000000,0.000000,0.000000,0.000*0A
EndT:        0
---00000027--- Acq_st=3 2019-5-22 11:33:33 
[00]  G02  f 40  -1734.8 2046002.3  1.0  1.0  5  0 300830619
[01]  G06  f 47     58.1 2045999.9  1.0  1.0  5  0 300830622
[02]  G09  f 35    557.3 2045999.3  1.0  1.0  5  0 300830619
[03]  G12  f 47    314.6 2045999.6  1.0  1.0  5  0 300830616
[05]  G25  f 38  -1341.1 2046001.8  1.0  1.0  5  0 300830609
[16]  B05 1f 34   -360.1 4092000.7  0.9  0.0  2  0 300816559
[17]  B12 1f 37  -3047.0 4092008.0  1.0  1.0  5  0      5992
[18]  B13 1f 37   -787.0 4092002.0  1.0  1.0  5  0      5247
$GNGGA,000000.000,,,,,0,00,,,M,,,,0000*2B
$GNRMC,000000.000,A,,,,,,,000000,,*26
$GPGSA,A,1,,,,,,,,,,,,,,,*1E
$BDGSA,A,1,,,,,,,,,,,,,,,*0F
$GPGSV,2,1,05,02,00,000,40,06,00,000,47,09,00,000,35,12,00,000,47*73
$GPGSV,2,2,05,25,00,000,38*40
$BDGSV,1,1,03,05,00,000,34,12,00,000,37,13,00,000,37*58
$LOGTIM,0,0.000000,0.000000,0.000000,0.000000,0.000*0A
EndT:        0
---00000028--- Acq_st=3 2019-5-22 11:33:34 
[00]  G02  f 40  -1733.6 2046002.3  1.0  0.9  5  0 300831619
[01]  G06  f 47     60.3 2045999.9  1.0  1.0  5  0 300831622
[02]  G09  f 35    559.8 2045999.3  1.0  0.9  5  0 300831619
[03]  G12  f 47    316.9 2045999.6  1.0  1.0  5  0 300831616
[05]  G25  f 38  -1338.9 2046001.7  1.0  1.0  5  0 300831609
[16]  B05 1f 33   -357.6 4092001.0  0.9  0.0  2  0 300817559
[17]  B12 1f 37  -3044.8 4092007.9  1.0  1.0  5  0 300817612
[18]  B13 1f 37   -784.1 4092002.0  1.0  1.0  5  0 300817567
$GNGGA,000000.000,,,,,0,00,,,M,,,,0000*2B
$GNRMC,000000.000,A,,,,,,,000000,,*26
$GPGSA,A,1,,,,,,,,,,,,,,,*1E
$BDGSA,A,1,,,,,,,,,,,,,,,*0F
$GPGSV,2,1,05,02,00,000,40,06,00,000,47,09,00,000,35,12,00,000,47*73
$GPGSV,2,2,05,25,00,000,38*40
$BDGSV,1,1,03,05,00,000,33,12,00,000,37,13,00,000,37*5F
$LOGTIM,0,0.000000,0.000000,0.000000,0.000000,0.000*0A
EndT:        0
$GNGGA,000000.000,,,,,0,00,,,M,,,,0000*2B
$GNRMC,000000.000,A,,,,,,,000000,,*26
$GPGSA,A,1,,,,,,,,,,,,,,,*1E
$BDGSA,A,1,,,,,,,,,,,,,,,*0F
$GPGSV,2,1,05,02,00,000,40,06,00,000,47,09,00,000,34,12,00,000,47*72
$GPGSV,2,2,05,25,00,000,38*40
$BDGSV,1,1,03,05,00,000,33,12,00,000,37,13,00,000,37*5F
$LOGTIM,0,0.000000,0.000000,0.000000,0.000000,0.000*0A
EndT:        0
---00000029--- Acq_st=3 2019-5-22 11:33:35 
[00]  G02  f 40  -1729.3 2046002.2  1.0  1.0  5  0 300833619
[01]  G06  f 47     63.7 2045999.9  1.0  1.0  5  0 300833622
[02]  G09  f 34    563.8 2045999.3  1.0  1.0  5  0 300833619
[03]  G12  f 47    320.8 2045999.6  1.0  1.0  5  0 300833616
[05]  G25  f 38  -1335.0 2046001.8  1.0  1.0  5  0 300833609
[16]  B05 1f 31   -355.3 4092001.0  0.8  0.0  2  0 300819559
[17]  B12 1f 37  -3043.0 4092008.0  1.0  1.0  5  0 300819612
[18]  B13 1f 37   -781.5 4092002.0  1.0  1.0  5  0 300819567
---00000030--- Acq_st=3 2019-5-22 11:33:36 
[00]  G02  f 40  -1729.3 2046002.2  1.0  1.0  5  0 300833619
[01]  G06  f 47     64.0 2045999.9  1.0  1.0  5  0 300833622
[02]  G09  f 35    564.5 2045999.2  1.0  0.9  5  0 300833619
[03]  G12  f 46    321.5 2045999.6  1.0  1.0  5  0 300833616
[05]  G25  f 38  -1334.2 2046001.7  1.0  1.0  5  0 300833609
[16]  B05 1f 31   -354.2 4092001.0  0.9  0.0  2  0 300819559
[17]  B12 1f 37  -3041.7 4092007.9  1.0  1.0  5  0 300819612
[18]  B13 1f 37   -780.8 4092002.1  1.0  1.0  5  0 300819567
$GNGGA,000000.000,,,,,0,00,,,M,,,,0000*2B
$GNRMC,000000.000,A,,,,,,,000000,,*26
$GPGSA,A,1,,,,,,,,,,,,,,,*1E
$BDGSA,A,1,,,,,,,,,,,,,,,*0F
$GPGSV,2,1,05,02,00,000,40,06,00,000,47,09,00,000,35,12,00,000,46*72
$GPGSV,2,2,05,25,00,000,38*40
$BDGSV,1,1,03,05,00,000,31,12,00,000,37,13,00,000,37*5D
$LOGTIM,0,0.000000,0.000000,0.000000,0.000000,0.000*0A
EndT:        0
---00000031--- Acq_st=3 2019-5-22 11:33:37 
[00]  G02  f 40  -1732.9 2046002.3  1.0  1.0  5  0 300834619
[01]  G06  f 48     60.8 2045999.9  1.0  1.0  5  0 300834622
[02]  G09  f 35    561.9 2045999.3  1.0  1.0  5  0 300834619
[03]  G12  f 46    318.9 2045999.6  1.0  1.0  5  0 300834616
[05]  G25  f 38  -1337.4 2046001.8  1.0  0.9  5  0 300834609
[16]  B05 1f 31   -357.7 4092000.8  0.9  0.0  2  0 300820559
[17]  B12 1f 37  -3045.2 4092007.9  1.0  1.0  5  0 300820612
[18]  B13 1f 37   -784.4 4092002.1  1.0  1.0  5  0 300820567
$GNGGA,000000.000,,,,,0,00,,,M,,,,0000*2B
$GNRMC,000000.000,A,,,,,,,000000,,*26
$GPGSA,A,1,,,,,,,,,,,,,,,*1E
$BDGSA,A,1,,,,,,,,,,,,,,,*0F
$GPGSV,2,1,05,02,00,000,40,06,00,000,48,09,00,000,35,12,00,000,46*7D
$GPGSV,2,2,05,25,00,000,38*40
$BDGSV,1,1,03,05,00,000,31,12,00,000,37,13,00,000,37*5D
$LOGTIM,0,0.000000,0.000000,0.000000,0.000000,0.000*0A
EndT:        0
---00000032--- Acq_st=3 2019-5-22 11:33:38 
[00]  G02  f 40  -1734.0 2046002.2  1.0  1.0  5  0 300835619
[01]  G06  f 48     59.7 2045999.9  1.0  1.0  5  0 300835622
[02]  G09  f 36    561.3 2045999.2  1.0  1.0  5  0 300835619
[03]  G12  f 47    318.3 2045999.6  1.0  1.0  5  0 300835616
[05]  G25  f 39  -1337.8 2046001.8  1.0  1.0  5  0 300835609
[16]  B05 1f 32   -359.5 4092000.8  0.9  0.0  2  0 300821559
[17]  B12 1f 37  -3046.8 4092007.9  1.0  1.0  5  0 300821612
[18]  B13 1f 37   -786.0 4092002.1  1.0  1.0  5  0 300821567
$GNGGA,000000.000,,,,,0,00,,,M,,,,0000*2B
$GNRMC,000000.000,A,,,,,,,000000,,*26
$GPGSA,A,1,,,,,,,,,,,,,,,*1E
$BDGSA,A,1,,,,,,,,,,,,,,,*0F
$GPGSV,2,1,05,02,00,000,40,06,00,000,48,09,00,000,36,12,00,000,47*7F
$GPGSV,2,2,05,25,00,000,39*41
$BDGSV,1,1,03,05,00,000,32,12,00,000,37,13,00,000,37*5E
$LOGTIM,0,0.000000,0.000000,0.000000,0.000000,0.000*0A
EndT:        0
---00000033--- Acq_st=3 2019-5-22 11:33:39 
[00]  G02  f 41  -1734.0 2046002.2  1.0  1.0  5  0 300836619
[01]  G06  f 47     59.7 2045999.9  1.0  1.0  5  0 300836622
[02]  G09  f 36    561.3 2045999.3  1.0  1.0  5  0 300836619
[03]  G12  f 46    318.4 2045999.6  1.0  1.0  5  0 300836616
[05]  G25  f 38  -1337.3 2046001.8  1.0  1.0  5  0 300836609
[16]  B05 1f 32   -360.5 4092000.9  0.9  0.0  2  0 300822559
[17]  B12 1f 37  -3046.7 4092007.9  1.0  0.9  5  0 300822612
[18]  B13 1f 37   -786.0 4092002.0  1.0  0.9  5  0 300822567
$GNGGA,000000.000,,,,,0,00,,,M,,,,0000*2B
$GNRMC,000000.000,A,,,,,,,000000,,*26
$GPGSA,A,1,,,,,,,,,,,,,,,*1E
$BDGSA,A,1,,,,,,,,,,,,,,,*0F
$GPGSV,2,1,05,02,00,000,41,06,00,000,47,09,00,000,36,12,00,000,46*70
$GPGSV,2,2,05,25,00,000,38*40
$BDGSV,1,1,03,05,00,000,32,12,00,000,37,13,00,000,37*5E
$LOGTIM,0,0.000000,0.000000,0.000000,0.000000,0.000*0A
EndT:        0
---00000034--- Acq_st=3 2019-5-22 11:33:40 
[00]  G02  f 41  -1730.8 2046002.2  1.0  1.0  5  0 300837619
[01]  G06  f 47     62.9 2045999.9  1.0  1.0  5  0 300837622
[02]  G09  f 36    565.2 2045999.3  1.0  1.0  5  0 300837619
[03]  G12  f 46    322.1 2045999.6  1.0  1.0  5  0 300837616
[05]  G25  f 39  -1334.2 2046001.7  1.0  1.0  5  0 300837609
[16]  B05 1f 32   -356.6 4092000.8  0.9  0.0  2  0 300823559
[17]  B12 1f 37  -3042.9 4092007.9  1.0  0.9  5  0 300823612
[18]  B13 1f 37   -783.4 4092002.0  1.0  1.0  5  0 300823567
$GNGGA,000000.000,,,,,0,00,,,M,,,,0000*2B
$GNRMC,000000.000,A,,,,,,,000000,,*26
$GPGSA,A,1,,,,,,,,,,,,,,,*1E
$BDGSA,A,1,,,,,,,,,,,,,,,*0F
$GPGSV,2,1,05,02,00,000,41,06,00,000,47,09,00,000,36,12,00,000,46*70
$GPGSV,2,2,05,25,00,000,39*41
$BDGSV,1,1,03,05,00,000,32,12,00,000,37,13,00,000,37*5E
$LOGTIM,0,0.000000,0.000000,0.000000,0.000000,0.000*0A
EndT:        0
---00000035--- Acq_st=3 2019-5-22 11:33:41 
[00]  G02  f 42  -1730.9 2046002.2  1.0  1.0  5  0 300838619
[01]  G06  f 48     63.2 2045999.9  1.0  1.0  5  0 300838622
[02]  G09  f 37    565.3 2045999.2  1.0  0.9  5  0 300838619
[03]  G12  f 46    322.7 2045999.6  1.0  1.0  5  0 300838616
[05]  G25  f 39  -1333.4 2046001.7  1.0  1.0  5  0 300838609
[16]  B05 1f 31   -356.6 4092000.9  0.8  0.0  2  0 300824559
[17]  B12 1f 37  -3042.8 4092008.1  1.0  0.9  5  0 300824612
[18]  B13 1f 36   -784.0 4092002.0  1.0  0.9  5  0 300824567
$GNGGA,000000.000,,,,,0,00,,,M,,,,0000*2B
$GNRMC,000000.000,A,,,,,,,000000,,*26
$GPGSA,A,1,,,,,,,,,,,,,,,*1E
$BDGSA,A,1,,,,,,,,,,,,,,,*0F
$GPGSV,2,1,05,02,00,000,42,06,00,000,48,09,00,000,37,12,00,000,46*7D
$GPGSV,2,2,05,25,00,000,39*41
$BDGSV,1,1,03,05,00,000,31,12,00,000,37,13,00,000,36*5C
$LOGTIM,0,0.000000,0.000000,0.000000,0.000000,0.000*0A
EndT:        0
---00000036--- Acq_st=7 2019-5-22 11:33:42 
[00]  G02  f 41  -1732.6 2046002.3  1.0  1.0  5  0 300839619
[01]  G06  f 47     61.5 2045999.9  1.0  1.0  5  0 300839622
[02]  G09  f 37    564.0 2045999.3  1.0  0.9  5  0 300839619
[03]  G12  f 46    321.4 2045999.6  1.0  1.0  5  0 300839616
[05]  G25  f 38  -1334.6 2046001.7  1.0  1.0  5  0 300839609
[16]  B05 1f 31   -358.3 4092000.9  0.9  0.0  2  0 300825559
[17]  B12 1f 37  -3045.0 4092007.9  1.0  1.0  5  0 300825612
[18]  B13 1f 37   -784.9 4092002.0  1.0  1.0  5  0 300825567
$GNGGA,000000.000,,,,,0,00,,,M,,,,0000*2B
$GNRMC,000000.000,A,,,,,,,000000,,*26
$GPGSA,A,1,,,,,,,,,,,,,,,*1E
$BDGSA,A,1,,,,,,,,,,,,,,,*0F
$GPGSV,2,1,05,02,00,000,41,06,00,000,47,09,00,000,37,12,00,000,46*71
$GPGSV,2,2,05,25,00,000,38*40
$BDGSV,1,1,03,05,00,000,31,12,00,000,37,13,00,000,37*5D
$LOGTIM,0,0.000000,0.000000,0.000000,0.000000,0.000*0A
EndT:        0
---00000037--- Acq_st=7 2019-5-22 11:33:43 
[00]  G02  f 41  -1734.2 2046002.3  1.0  1.0  5  0 300840619
[01]  G06  f 47     60.0 2045999.9  1.0  1.0  5  0 300840622
[02]  G09  f 37    564.1 2045999.2  1.0  1.0  5  0 300840619
[03]  G12  f 46    320.8 2045999.6  1.0  1.0  5  0 300840616
[05]  G25  f 39  -1335.9 2046001.8  1.0  1.0  5  0 300840609
[16]  B05 1f 32   -359.9 4092001.0  0.9  0.0  2  0 300826559
[17]  B12 1f 37  -3045.8 4092007.9  1.0  1.0  5  0 300826612
[18]  B13 1f 37   -787.0 4092002.0  1.0  1.0  5  0 300826567
$GNGGA,000000.000,,,,,0,00,,,M,,,,0000*2B
$GNRMC,000000.000,A,,,,,,,000000,,*26
$GPGSA,A,1,,,,,,,,,,,,,,,*1E
$BDGSA,A,1,,,,,,,,,,,,,,,*0F
$GPGSV,2,1,05,02,00,000,41,06,00,000,47,09,00,000,37,12,00,000,46*71
$GPGSV,2,2,05,25,00,000,39*41
$BDGSV,1,1,03,05,00,000,32,12,00,000,37,13,00,000,37*5E
$LOGTIM,0,0.000000,0.000000,0.000000,0.000000,0.000*0A
EndT:        0
---00000038--- Acq_st=3 2019-5-22 11:33:44 
[00]  G02  f 41  -1727.2 2046002.3  1.0  1.0  5  0 300841619
[01]  G06  f 47     67.9 2045999.9  1.0  1.0  5  0 300841622
[02]  G09  f 37    571.8 2045999.3  1.0  1.0  5  0 300841619
[03]  G12  f 46    328.5 2045999.6  1.0  1.0  5  0 300841616
[05]  G25  f 38  -1327.2 2046001.7  1.0  1.0  5  0 300841609
[16]  B05 1f 32   -353.1 4092000.9  0.9  0.0  2  0 300827559
[17]  B12 1f 37  -3039.3 4092007.9  1.0  0.9  5  0 300827612
[18]  B13 1f 36   -779.6 4092002.1  1.0  1.0  5  0 300827567
$GNGGA,000000.000,,,,,0,00,,,M,,,,0000*2B
$GNRMC,000000.000,A,,,,,,,000000,,*26
$GPGSA,A,1,,,,,,,,,,,,,,,*1E
$BDGSA,A,1,,,,,,,,,,,,,,,*0F
$GPGSV,2,1,05,02,00,000,41,06,00,000,47,09,00,000,37,12,00,000,46*71
$GPGSV,2,2,05,25,00,000,38*40
$BDGSV,1,1,03,05,00,000,32,12,00,000,37,13,00,000,36*5F
$LOGTIM,0,0.000000,0.000000,0.000000,0.000000,0.000*0A
EndT:        0
---00000039--- Acq_st=3 2019-5-22 11:33:45 
[00]  G02  f 41  -1727.1 2046002.2  1.0  1.0  5  0 300842619
[01]  G06  f 47     67.5 2045999.9  1.0  1.0  5  0 300842622
[02]  G09  f 37    572.0 2045999.2  1.0  1.0  5  0 300842619
[03]  G12  f 46    328.7 2045999.6  1.0  1.0  5  0 300842616
[04]  G05  1 27  -2445.8 2046004.6 -0.1  0.0  1  0        19
[05]  G25  f 38  -1326.9 2046001.8  1.0  1.0  5  0 300842609
[16]  B05 1f 31   -352.8 4092000.9  0.9  0.0  2  0 300828559
[17]  B12 1f 37  -3038.7 4092008.0  1.0  1.0  5  0 300828612
[18]  B13 1f 37   -779.8 4092002.0  1.0  1.0  5  0 300828567
$GNGGA,000000.000,,,,,0,00,,,M,,,,0000*2B
$GNRMC,000000.000,A,,,,,,,000000,,*26
$GPGSA,A,1,,,,,,,,,,,,,,,*1E
$BDGSA,A,1,,,,,,,,,,,,,,,*0F
$GPGSV,2,1,05,02,00,000,41,06,00,000,47,09,00,000,37,12,00,000,46*71
$GPGSV,2,2,05,25,00,000,38*40
$BDGSV,1,1,03,05,00,000,31,12,00,000,37,13,00,000,37*5D
$LOGTIM,0,0.000000,0.000000,0.000000,0.000000,0.000*0A
EndT:        0
---00000040--- Acq_st=3 2019-5-22 11:33:46 
[00]  G02  f 41  -1729.5 2046002.2  1.0  1.0  5  0 300843619
[01]  G06  f 47     65.3 2045999.9  1.0  1.0  5  0 300843622
[02]  G09  f 37    570.7 2045999.3  1.0  1.0  5  0 300843619
[03]  G12  f 46    326.7 2045999.6  1.0  1.0  5  0 300843616
[04]  G05  7 26  -2448.2 2046003.1  0.3  0.0 20  0         0
[05]  G25  f 38  -1328.8 2046001.7  1.0  1.0  5  0 300843609
[16]  B05 1f 31   -355.6 4092000.9  0.9  0.0  2  0 300829559
[17]  B12 1f 37  -3041.4 4092008.0  1.0  0.9  5  0 300829612
[18]  B13 1f 36   -782.3 4092002.0  1.0  0.9  5  0 300829567
$GNGGA,000000.000,,,,,0,00,,,M,,,,0000*2B
$GNRMC,000000.000,A,,,,,,,000000,,*26
$GPGSA,A,1,,,,,,,,,,,,,,,*1E
$BDGSA,A,1,,,,,,,,,,,,,,,*0F
$GPGSV,2,1,06,02,00,000,41,06,00,000,47,09,00,000,37,12,00,000,46*72
$GPGSV,2,2,06,05,00,000,25,25,00,000,38*71
$BDGSV,1,1,03,05,00,000,31,12,00,000,37,13,00,000,36*5C
$LOGTIM,0,0.000000,0.000000,0.000000,0.000000,0.000*0A
EndT:        0
---00000041--- Acq_st=3 2019-5-22 11:33:47 
[00]  G02  f 42  -1730.6 2046002.3  1.0  1.0  5  0 300844619
[01]  G06  f 47     64.5 2045999.9  1.0  1.0  5  0 300844622
[02]  G09  f 37    570.0 2045999.3  1.0  1.0  5  0 300844619
[03]  G12  f 45    326.1 2045999.6  1.0  1.0  5  0 300844616
[04]  G05  7 41  -2449.2 2046003.1  1.0  1.0  5  0         0
[05]  G25  f 39  -1329.6 2046001.7  1.0  1.0  5  0 300844609
[16]  B05 1f 32   -356.9 4092000.8  0.9  0.0  2  0 300830559
[17]  B12 1f 37  -3042.2 4092007.9  1.0  1.0  5  0 300830612
[18]  B13 1f 36   -784.0 4092002.1  1.0  1.0  5  0 300830567
$GNGGA,000000.000,,,,,0,00,,,M,,,,0000*2B
$GNRMC,000000.000,A,,,,,,,000000,,*26
$GPGSA,A,1,,,,,,,,,,,,,,,*1E
$BDGSA,A,1,,,,,,,,,,,,,,,*0F
$GPGSV,2,1,06,02,00,000,42,06,00,000,47,09,00,000,37,12,00,000,45*72
$GPGSV,2,2,06,05,00,000,41,25,00,000,39*72
$BDGSV,1,1,03,05,00,000,32,12,00,000,37,13,00,000,36*5F
$LOGTIM,0,0.000000,0.000000,0.000000,0.000000,0.000*0A
EndT:        0
---00000042--- Acq_st=3 2019-5-22 11:33:48 
[00]  G02  f 41  -1731.2 2046002.3  1.0  1.0  5  0 300845619
[01]  G06  f 47     64.1 2045999.9  1.0  1.0  5  0 300845622
[02]  G09  f 37    569.4 2045999.3  1.0  1.0  5  0 300845619
[03]  G12  f 45    326.2 2045999.6  1.0  1.0  5  0 300845616
[04]  G05  7 41  -2449.7 2046003.1  1.0  1.0  5  0         0
[05]  G25  f 39  -1330.0 2046001.7  1.0  1.0  5  0 300845609
[16]  B05 1f 33   -357.2 4092001.1  0.9  0.0  2  0 300831559
[17]  B12 1f 37  -3043.0 4092007.9  1.0  1.0  5  0 300831612
[18]  B13 1f 36   -783.8 4092002.0  1.0  1.0  5  0 300831567
lsq: nits= 4
$GNGGA,113348.693,3112.7093,N,12136.4296,E,1,05,2.7,51.5,M,,,,0000*22
$GNRMC,113348.693,A,3112.7093,N,12136.4296,E,0.26,0.00,220519,,*16
$GPGSA,A,3,02,06,09,12,25,,,,,,,,3.6,2.7,2.4*3D
$BDGSA,A,3,,,,,,,,,,,,,3.6,2.7,2.4*25
$GPGSV,2,1,06,02,00,000,41,06,00,000,47,09,00,000,37,12,00,000,45*71
$GPGSV,2,2,06,05,00,000,41,25,00,000,39*72
$BDGSV,1,1,03,05,00,000,33,12,00,000,37,13,00,000,36*5E
$LOGTIM,1,8956615.398100,0.000000,0.000000,0.000000,-66.987*13
EndT:        1
---00000043--- Acq_st=3 2019-5-22 11:33:49 
[00]  G02  f 41  -1732.1 2046002.2  1.0  1.0  5  0 300846619
[01]  G06  f 46     63.7 2045999.9  1.0  1.0  5  0 300846622
[02]  G09  f 37    570.3 2045999.2  1.0  1.0  5  0 300846619
[03]  G12  f 45    326.3 2045999.6  1.0  1.0  5  0 300846616
[04]  G05  f 41  -2449.7 2046003.2  1.0  1.0  5  0         0
[05]  G25  f 39  -1329.6 2046001.7  1.0  1.0  5  0 300846609
[16]  B05 1f 33   -358.2 4092001.1  0.9  0.0  2  0 300832559
[17]  B12 1f 37  -3043.8 4092008.0  1.0  1.0  5  0 300832612
[18]  B13 1f 36   -785.2 4092002.0  1.0  1.0  5  0 300832567
lsq: nits= 2
$GNGGA,113350.000,3112.7056,N,12136.4309,E,1,05,2.7,57.6,M,,,,0000*2C
$GNRMC,113350.000,A,3112.7056,N,12136.4309,E,0.01,0.00,220519,,*18
$GPGSA,A,3,02,06,09,12,25,,,,,,,,3.6,2.7,2.4*3D
$BDGSA,A,3,,,,,,,,,,,,,3.6,2.7,2.4*25
$GPGSV,2,1,06,02,00,000,41,06,00,000,46,09,00,000,37,12,00,000,45*70
$GPGSV,2,2,06,05,00,000,41,25,00,000,39*72
$BDGSV,1,1,03,05,00,000,33,12,00,000,37,13,00,000,36*5E
$LOGTIM,1,-88.662136,0.000000,0.000000,0.000000,-67.216*09
EndT:        2
---00000044--- Acq_st=3 2019-5-22 11:33:50 
[00]  G02  f 41  -1731.6 2046002.3  1.0  1.0  5  0 300847926
[01]  G06  f 47     63.6 2045999.9  1.0  1.0  5  0 300847929
[02]  G09  f 37    569.9 2045999.3  1.0  1.0  5  0 300847926
[03]  G12  f 45    326.8 2045999.6  1.0  1.0  5  0 300847923
[04]  G05  f 40  -2449.5 2046003.2  1.0  1.0  5  0 300847927
[05]  G25  f 38  -1329.1 2046001.8  1.0  0.9  5  0 300847916
[06]  G23  1 21   2041.5 2045999.1 -0.1  0.0  1  0         0
[16]  B05 1f 33   -357.4 4092000.9  0.9  0.0  2  0 300833866
[17]  B12 1f 37  -3043.4 4092007.9  1.0  1.0  5  0 300833919
[18]  B13 1f 37   -785.6 4092002.1  1.0  1.0  5  0 300833875
lsq: nits= 2
$GNGGA,113351.000,3112.7077,N,12136.4308,E,1,05,2.7,55.6,M,,,,0000*2D
$GNRMC,113351.000,A,3112.7077,N,12136.4308,E,0.13,0.00,220519,,*18
$GPGSA,A,3,02,06,09,12,25,,,,,,,,3.6,2.7,2.4*3D
$BDGSA,A,3,,,,,,,,,,,,,3.6,2.7,2.4*25
$GPGSV,2,1,06,02,49,324,41,06,56,038,47,09,38,067,37,12,27,278,45*73
$GPGSV,2,2,06,05,00,000,40,25,09,311,38*78
$BDGSV,1,1,03,05,00,000,33,12,00,000,37,13,00,000,37*5F
$LOGTIM,1,-156.027837,0.000000,0.000000,0.000000,-67.140*34
EndT:        2
---00000045--- Acq_st=3 2019-5-22 11:33:51 
[00]  G02  f 41  -1731.5 2046002.3  1.0  1.0  5  0 300848926
[01]  G06  f 47     64.1 2045999.9  1.0  1.0  5  0 300848929
[02]  G09  f 37    571.1 2045999.3  1.0  1.0  5  0 300848926
[03]  G12  f 46    327.9 2045999.6  1.0  1.0  5  0 300848923
[04]  G05  f 40  -2448.7 2046003.2  1.0  1.0  5  0 300848927
[05]  G25  f 39  -1328.3 2046001.7  1.0  1.0  5  0 300848916
[16]  B05 1f 33   -357.7 4092000.9  0.9  0.0  2  0 300834866
[17]  B12 1f 38  -3043.2 4092008.0  1.0  0.9  5  0 300834919
[18]  B13 1f 37   -784.8 4092002.0  1.0  0.9  5  0 300834875
lsq: nits= 2
$GNGGA,113352.000,3112.7096,N,12136.4306,E,1,05,2.7,54.0,M,,,,0000*28
$GNRMC,113352.000,A,3112.7096,N,12136.4306,E,0.16,0.00,220519,,*1F
$GPGSA,A,3,02,06,09,12,25,,,,,,,,3.6,2.7,2.4*3D
$BDGSA,A,3,,,,,,,,,,,,,3.6,2.7,2.4*25
$GPGSV,2,1,06,02,49,324,41,06,55,039,47,09,38,067,37,12,27,278,46*72
$GPGSV,2,2,06,05,00,000,40,25,09,311,39*79
$BDGSV,1,1,04,05,00,000,33,12,00,000,38,13,00,000,37,20,15,042,00*67
$LOGTIM,1,-222.943753,0.000000,0.000000,0.000000,-67.028*3D
EndT:        2
---00000046--- Acq_st=3 2019-5-22 11:33:52 
[00]  G02  f 41  -1728.2 2046002.3  1.0  1.0  5  0 300849926
[01]  G06  f 47     67.8 2045999.9  1.0  1.0  5  0 300849929
[02]  G09  f 37    574.8 2045999.2  1.0  1.0  5  0 300849926
[03]  G12  f 46    331.5 2045999.5  1.0  1.0  5  0 300849923
[04]  G05  f 40  -2444.8 2046003.2  1.0  1.0  5  0 300849927
[05]  G25  f 39  -1324.5 2046001.7  1.0  1.0  5  0 300849916
[16]  B05 1f 32   -353.9 4092000.8  0.9  0.0  2  0 300835866
[17]  B12 1f 37  -3039.5 4092008.0  1.0  1.0  5  0 300835919
[18]  B13 1f 37   -781.3 4092002.0  1.0  1.0  5  0 300835875
lsq: nits= 2
$GNGGA,113353.000,3112.7114,N,12136.4304,E,1,05,2.7,53.6,M,,,,0000*21
$GNRMC,113353.000,A,3112.7114,N,12136.4304,E,0.24,0.00,220519,,*16
$GPGSA,A,3,02,06,09,12,25,,,,,,,,3.6,2.7,2.4*3D
$BDGSA,A,3,,,,,,,,,,,,,3.6,2.7,2.4*25
$GPGSV,2,1,06,02,49,324,41,06,55,039,47,09,38,067,37,12,27,278,46*72
$GPGSV,2,2,06,05,00,000,40,25,09,311,39*79
$BDGSV,1,1,04,05,00,000,33,12,00,000,37,13,00,000,37,20,15,042,00*68
$LOGTIM,1,-288.475387,0.000000,0.000000,0.000000,-66.448*3B
EndT:        2
---00000047--- Acq_st=3 2019-5-22 11:33:53 
[00]  G02  f 41  -1726.9 2046002.3  1.0  1.0  5  0 300850926
[01]  G06  f 46     68.9 2045999.9  1.0  1.0  5  0 300850929
[02]  G09  f 37    576.7 2045999.3  1.0  1.0  5  0 300850926
[03]  G12  f 46    333.0 2045999.6  1.0  1.0  5  0 300850923
[04]  G05  f 40  -2443.4 2046003.2  1.0  1.0  5  0 300850927
[05]  G25  f 39  -1323.2 2046001.7  1.0  1.0  5  0 300850916
[16]  B05 1f 31   -353.3 4092000.8  0.9  0.0  2  0 300836866
[17]  B12 1f 38  -3038.8 4092007.9  1.0  1.0  5  0 300836919
[18]  B13 1f 36   -781.1 4092002.0  1.0  1.0  5  0 300836875
lsq: nits= 2
$GNGGA,113354.000,3112.7126,N,12136.4302,E,1,06,2.7,53.7,M,,,,0000*23
$GNRMC,113354.000,A,3112.7126,N,12136.4302,E,0.10,0.00,220519,,*11
$GPGSA,A,3,02,06,09,12,25,,,,,,,,3.6,2.7,2.4*3D
$BDGSA,A,3,05,,,,,,,,,,,,3.6,2.7,2.4*20
$GPGSV,2,1,06,02,49,324,41,06,55,039,46,09,38,067,37,12,27,278,46*73
$GPGSV,2,2,06,05,00,000,40,25,09,311,39*79
$BDGSV,1,1,04,05,00,000,31,12,00,000,38,13,00,000,36,20,15,042,00*64
$LOGTIM,3,-353.844399,-495.919897,0.000000,0.000000,-66.508*18
EndT:        2
---00000048--- Acq_st=3 2019-5-22 11:33:54 
[00]  G02  f 41  -1732.0 2046002.3  1.0  1.0  5  0 300851926
[01]  G06  f 46     64.0 2045999.9  1.0  1.0  5  0 300851929
[02]  G09  f 37    572.5 2045999.2  1.0  1.0  5  0 300851926
[03]  G12  f 46    328.6 2045999.6  1.0  1.0  5  0 300851923
[04]  G05  f 40  -2448.4 2046003.2  1.0  1.0  5  0 300851927
[05]  G25  f 38  -1327.5 2046001.7  1.0  1.0  5  0 300851916
[16]  B05 1f 30   -358.7 4092000.9  0.9  0.0  2  0 300837866
[17]  B12 1f 38  -3043.6 4092008.0  1.0  1.0  5  0 300837919
[18]  B13 1f 36   -785.8 4092002.1  1.0  1.0  5  0 300837875
lsq: nits= 2
$GNGGA,113355.000,3112.7128,N,12136.4302,E,1,06,2.5,53.7,M,,,,0000*2E
$GNRMC,113355.000,A,3112.7128,N,12136.4302,E,0.32,0.00,220519,,*1E
$GPGSA,A,3,02,06,09,12,25,,,,,,,,3.2,2.5,1.9*35
$BDGSA,A,3,05,,,,,,,,,,,,3.2,2.5,1.9*28
$GPGSV,2,1,06,02,49,324,41,06,55,039,46,09,38,067,37,12,27,278,46*73
$GPGSV,2,2,06,05,00,000,40,25,09,311,38*78
$BDGSV,1,1,04,05,15,255,30,12,00,000,38,13,00,000,36,20,15,042,00*63
$LOGTIM,3,-420.405167,-562.934738,0.000000,0.000000,-66.834*1F
EndT:        2
---00000049--- Acq_st=3 2019-5-22 11:33:55 
[00]  G02  f 41  -1730.1 2046002.2  1.0  1.0  5  0 300852926
[01]  G06  f 46     65.8 2045999.9  1.0  1.0  5  0 300852929
[02]  G09  f 37    575.0 2045999.3  1.0  1.0  5  0 300852926
[03]  G12  f 46    330.7 2045999.6  1.0  1.0  5  0 300852923
[04]  G05  f 40  -2446.1 2046003.2  1.0  1.0  5  0 300852927
[05]  G25  f 39  -1324.9 2046001.7  1.0  1.0  5  0 300852916
[16]  B05 1f 31   -356.6 4092000.8  0.9  0.0  2  0 300838866
[17]  B12 1f 38  -3041.4 4092007.9  1.0  1.0  5  0 300838919
[18]  B13 1f 36   -784.6 4092002.2  1.0  1.0  5  0 300838875
lsq: nits= 2
$GNGGA,113356.000,3112.7128,N,12136.4302,E,1,06,2.5,53.8,M,,,,0000*22
$GNRMC,113356.000,A,3112.7128,N,12136.4302,E,0.12,0.00,220519,,*1F
$GPGSA,A,3,02,06,09,12,25,,,,,,,,3.2,2.5,1.9*35
$BDGSA,A,3,05,,,,,,,,,,,,3.2,2.5,1.9*28
$GPGSV,2,1,06,02,49,324,41,06,55,039,46,09,38,067,37,12,27,278,46*73
$GPGSV,2,2,06,05,00,000,40,25,09,311,39*79
$BDGSV,1,1,04,05,15,255,31,12,00,000,38,13,00,000,36,20,15,042,00*62
$LOGTIM,3,-486.960276,-629.788954,0.000000,0.000000,-66.705*12
EndT:        2
---00000050--- Acq_st=3 2019-5-22 11:33:56 
[00]  G02  f 41  -1728.0 2046002.3  1.0  1.0  5  0 300853926
[01]  G06  f 46     68.2 2045999.9  1.0  1.0  5  0 300853929
[02]  G09  f 36    577.3 2045999.2  1.0  1.0  5  0 300853926
[03]  G12  f 46    333.6 2045999.6  1.0  1.0  5  0 300853923
[04]  G05  f 40  -2443.6 2046003.2  1.0  1.0  5  0 300853927
[05]  G25  f 39  -1322.5 2046001.7  1.0  1.0  5  0 300853916
[16]  B05 1f 33   -354.3 4092000.9  0.9  0.0  2  0 300839866
[17]  B12 1f 38  -3039.3 4092007.9  1.0  1.0  5  0 300839919
[18]  B13 1f 36   -782.2 4092002.1  1.0  1.0  5  0 300839875
lsq: nits= 2
$GNGGA,113357.000,3112.7127,N,12136.4303,E,1,06,2.5,53.7,M,,,,0000*22
$GNRMC,113357.000,A,3112.7127,N,12136.4303,E,0.20,0.00,220519,,*11
$GPGSA,A,3,02,06,09,12,25,,,,,,,,3.2,2.5,1.9*35
$BDGSA,A,3,05,,,,,,,,,,,,3.2,2.5,1.9*28
$GPGSV,2,1,06,02,49,324,41,06,55,039,46,09,38,067,36,12,27,278,46*72
$GPGSV,2,2,06,05,00,000,40,25,09,311,39*79
$BDGSV,1,1,04,05,15,255,32,12,00,000,38,13,00,000,36,20,15,042,00*61
$LOGTIM,3,-553.442744,-696.501338,0.000000,0.000000,-66.416*14
EndT:        2
---00000051--- Acq_st=3 2019-5-22 11:33:57 
[00]  G02  f 41  -1724.1 2046002.3  1.0  1.0  5  0 300854926
[01]  G06  f 46     72.1 2045999.9  1.0  1.0  5  0 300854929
[02]  G09  f 36    582.0 2045999.3  1.0  1.0  5  0 300854926
[03]  G12  f 46    338.0 2045999.6  1.0  1.0  5  0 300854923
[04]  G05  f 39  -2439.4 2046003.2  1.0  1.0  5  0 300854927
[05]  G25  f 38  -1317.9 2046001.7  1.0  1.0  5  0 300854916
[16]  B05 1f 31   -350.8 4092000.9  0.9  0.0  2  0 300840866
[17]  B12 1f 39  -3035.8 4092007.9  1.0  1.0  5  0 300840919
[18]  B13 1f 36   -778.8 4092002.0  1.0  0.9  5  0 300840875
lsq: nits= 2
$GNGGA,113358.000,3112.7128,N,12136.4303,E,1,06,2.5,54.0,M,,,,0000*22
$GNRMC,113358.000,A,3112.7128,N,12136.4303,E,0.58,0.00,220519,,*1E
$GPGSA,A,3,02,06,09,12,25,,,,,,,,3.2,2.5,1.9*35
$BDGSA,A,3,05,,,,,,,,,,,,3.2,2.5,1.9*28
$GPGSV,2,1,06,02,49,324,41,06,55,039,46,09,38,067,36,12,27,278,46*72
$GPGSV,2,2,06,05,00,000,39,25,09,311,38*76
$BDGSV,1,1,04,05,15,255,31,12,00,000,39,13,00,000,36,20,15,042,00*63
$LOGTIM,3,-619.072856,-762.348687,0.000000,0.000000,-65.846*18
EndT:        2
---00000052--- Acq_st=3 2019-5-22 11:33:58 
[00]  G02  f 41  -1722.1 2046002.3  1.0  1.0  5  0 300855926
[01]  G06  f 46     74.5 2045999.9  1.0  1.0  5  0 300855929
[02]  G09  f 36    584.2 2045999.3  1.0  1.0  5  0 300855926
[03]  G12  f 46    341.0 2045999.6  1.0  1.0  5  0 300855923
[04]  G05  f 39  -2437.1 2046003.2  1.0  1.0  5  0 300855927
[05]  G25  f 39  -1315.1 2046001.7  1.0  1.0  5  0 300855916
[16]  B05 1f 32   -348.9 4092000.9  0.9  0.0  2  0 300841866
[17]  B12 1f 38  -3033.3 4092007.9  1.0  1.0  5  0 300841919
[18]  B13 1f 36   -776.6 4092002.0  1.0  1.0  5  0 300841875
[19]  B08  1  7   -737.4 4092002.9  0.1  0.0  1  0         0
lsq: nits= 2
$GNGGA,113359.000,3112.7130,N,12136.4302,E,1,06,2.5,54.3,M,,,,0000*28
$GNRMC,113359.000,A,3112.7130,N,12136.4302,E,0.48,0.00,220519,,*16
$GPGSA,A,3,02,06,09,12,25,,,,,,,,3.2,2.5,1.9*35
$BDGSA,A,3,05,,,,,,,,,,,,3.2,2.5,1.9*28
$GPGSV,2,1,06,02,49,324,41,06,55,039,46,09,38,067,36,12,27,278,46*72
$GPGSV,2,2,06,05,00,000,39,25,09,311,39*77
$BDGSV,1,1,04,05,15,255,32,12,00,000,38,13,00,000,36,20,15,042,00*61
$LOGTIM,3,-684.470617,-827.921671,0.000000,0.000000,-65.720*1C
EndT:        2
---00000053--- Acq_st=3 2019-5-22 11:33:59 
[00]  G02  f 40  -1724.0 2046002.2  1.0  1.0  5  0 300856926
[01]  G06  f 45     72.7 2045999.9  1.0  1.0  5  0 300856929
[02]  G09  f 35    583.0 2045999.3  1.0  1.0  5  0 300856926
[03]  G12  f 46    339.3 2045999.6  1.0  1.0  5  0 300856923
[04]  G05  f 39  -2438.2 2046003.2  1.0  1.0  5  0 300856927
[05]  G25  f 38  -1316.8 2046001.8  1.0  1.0  5  0 300856916
[16]  B05 1f 32   -350.5 4092000.9  0.9  0.0  2  0 300842866
[17]  B12 1f 38  -3035.7 4092008.0  1.0  1.0  5  0 300842919
[18]  B13 1f 36   -778.5 4092002.0  1.0  1.0  5  0 300842875
[19]  B08  7 18   -732.6 4092002.1  0.2  0.0 20  0       842
lsq: nits= 2
$GNGGA,113400.000,3112.7128,N,12136.4302,E,1,06,2.5,54.9,M,,,,0000*20
$GNRMC,113400.000,A,3112.7128,N,12136.4302,E,0.29,0.00,220519,,*13
$GPGSA,A,3,02,06,09,12,25,,,,,,,,3.2,2.5,1.9*35
$BDGSA,A,3,05,,,,,,,,,,,,3.2,2.5,1.9*28
$GPGSV,2,1,06,02,49,324,40,06,55,039,45,09,38,067,35,12,27,278,46*73
$GPGSV,2,2,06,05,00,000,39,25,09,311,38*76
$BDGSV,2,1,05,05,15,255,32,12,00,000,38,13,00,000,36,08,00,000,18*62
$BDGSV,2,2,05,20,15,042,00*5D
$LOGTIM,3,-750.315032,-895.125079,0.000000,0.000000,-65.945*17
EndT:        2
---00000054--- Acq_st=3 2019-5-22 11:34:0 
[00]  G02  f 41  -1723.2 2046002.2  1.0  1.0  5  0 300857926
[01]  G06  f 46     73.6 2045999.9  1.0  1.0  5  0 300857929
[02]  G09  f 35    584.4 2045999.3  1.0  1.0  5  0 300857926
[03]  G12  f 46    340.5 2045999.6  1.0  1.0  5  0 300857923
[04]  G05  f 38  -2438.0 2046003.2  1.0  1.0  5  0 300857927
[05]  G25  f 38  -1315.4 2046001.7  1.0  1.0  5  0 300857916
[16]  B05 1f 32   -349.5 4092000.9  0.9  0.0  2  0 300843866
[17]  B12 1f 38  -3034.7 4092008.0  1.0  0.9  5  0 300843919
[18]  B13 1f 36   -777.4 4092002.1  1.0  1.0  5  0 300843875
[19]  B08  7 36   -732.5 4092002.1  0.5  1.0  5  0      1838
lsq: nits= 2
$GNGGA,113401.000,3112.7129,N,12136.4300,E,1,06,2.5,55.8,M,,,,0000*22
$GNRMC,113401.000,A,3112.7129,N,12136.4300,E,0.73,0.00,220519,,*1E
$GPGSA,A,3,02,06,09,12,25,,,,,,,,3.2,2.5,1.9*35
$BDGSA,A,3,05,,,,,,,,,,,,3.2,2.5,1.9*28
$GPGSV,2,1,06,02,49,324,41,06,55,039,46,09,38,067,35,12,27,278,46*71
$GPGSV,2,2,06,05,00,000,38,25,09,311,38*77
$BDGSV,2,1,05,05,15,255,32,12,00,000,38,13,00,000,36,08,00,000,36*6E
$BDGSV,2,2,05,20,15,042,00*5D
$LOGTIM,3,-815.401241,-961.487312,0.000000,0.000000,-65.402*1A
EndT:        2
---00000055--- Acq_st=3 2019-5-22 11:34:1 
[00]  G02  f 40  -1718.7 2046002.3  1.0  1.0  5  0 300858926
[01]  G06  f 45     78.0 2045999.9  1.0  1.0  5  0 300858929
[02]  G09  f 36    589.6 2045999.2  1.0  1.0  5  0 300858926
[03]  G12  f 46    345.4 2045999.6  1.0  1.0  5  0 300858923
[04]  G05  f 38  -2432.6 2046003.2  1.0  1.0  5  0 300858927
[05]  G25  f 39  -1310.1 2046001.7  1.0  1.0  5  0 300858916
[16]  B05 1f 31   -345.6 4092000.9  0.9  0.0  2  0 300844866
[17]  B12 1f 38  -3030.2 4092008.0  1.0  1.0  5  0 300844919
[18]  B13 1f 36   -773.9 4092002.0  1.0  1.0  5  0 300844875
[19]  B08  7 37   -728.4 4092002.0  1.0  0.9  5  0      2838
lsq: nits= 2
$GNGGA,113402.000,3112.7128,N,12136.4300,E,1,06,2.5,56.4,M,,,,0000*2F
$GNRMC,113402.000,A,3112.7128,N,12136.4300,E,0.65,0.00,220519,,*1B
$GPGSA,A,3,02,06,09,12,25,,,,,,,,3.2,2.5,1.9*35
$BDGSA,A,3,05,,,,,,,,,,,,3.2,2.5,1.9*28
$GPGSV,2,1,06,02,49,324,40,06,55,039,45,09,38,067,36,12,27,278,46*70
$GPGSV,2,2,06,05,00,000,38,25,09,311,39*76
$BDGSV,2,1,05,05,15,255,31,12,00,000,38,13,00,000,36,08,00,000,37*6C
$BDGSV,2,2,05,20,15,042,00*5D
$LOGTIM,3,-880.890725,-1027.872322,0.000000,0.000000,-65.365*2C
EndT:        2
---00000056--- Acq_st=3 2019-5-22 11:34:2 
[00]  G02  f 40  -1722.3 2046002.2  1.0  1.0  5  0 300859926
[01]  G06  f 46     75.0 2045999.9  1.0  1.0  5  0 300859929
[02]  G09  f 36    587.0 2045999.3  1.0  1.0  5  0 300859926
[03]  G12  f 47    342.7 2045999.5  1.0  1.0  5  0 300859923
[04]  G05  f 39  -2436.0 2046003.1  1.0  1.0  5  0 300859927
[05]  G25  f 39  -1313.3 2046001.7  1.0  1.0  5  0 300859916
[16]  B05 1f 32   -349.0 4092001.0  0.9  0.0  2  0 300845866
[17]  B12 1f 38  -3033.5 4092007.8  1.0  1.0  5  0 300845919
[18]  B13 1f 36   -777.1 4092002.0  1.0  1.0  5  0 300845875
[19]  B08  7 37   -731.7 4092002.0  1.0  0.9  5  0      3838
lsq: nits= 2
$GNGGA,113403.000,3112.7129,N,12136.4300,E,1,06,2.5,56.6,M,,,,0000*2D
$GNRMC,113403.000,A,3112.7129,N,12136.4300,E,0.36,0.00,220519,,*1D
$GPGSA,A,3,02,06,09,12,25,,,,,,,,3.2,2.5,1.9*35
$BDGSA,A,3,05,,,,,,,,,,,,3.2,2.5,1.9*28
$GPGSV,2,1,06,02,49,324,40,06,55,039,46,09,38,067,36,12,27,278,47*72
$GPGSV,2,2,06,05,00,000,39,25,09,311,39*77
$BDGSV,2,1,05,05,15,255,32,12,00,000,38,13,00,000,36,08,00,000,37*6F
$BDGSV,2,2,05,20,15,042,00*5D
$LOGTIM,3,-946.558717,-1093.422665,0.000000,0.000000,-65.532*2B
EndT:        2
---00000057--- Acq_st=3 2019-5-22 11:34:3 
[00]  G02  f 40  -1722.3 2046002.2  1.0  1.0  5  0 300860926
[01]  G06  f 46     74.5 2045999.9  1.0  1.0  5  0 300860929
[02]  G09  f 35    587.2 2045999.3  1.0  1.0  5  0 300860926
[03]  G12  f 47    342.8 2045999.5  1.0  1.0  5  0 300860923
[04]  G05  f 38  -2435.9 2046003.1  1.0  1.0  5  0 300860927
[05]  G25  f 39  -1313.1 2046001.7  1.0  1.0  5  0 300860916
[16]  B05 1f 31   -349.0 4092001.0  0.9  0.0  2  0 300846866
[17]  B12 1f 39  -3033.5 4092007.9  1.0  1.0  5  0 300846919
[18]  B13 1f 36   -777.8 4092002.0  1.0  1.0  5  0 300846875
[19]  B08 1f 37   -732.2 4092001.9  1.0  1.0  5  0      4838
lsq: nits= 2
$GNGGA,113404.000,3112.7132,N,12136.4303,E,1,06,2.5,57.3,M,,,,0000*27
$GNRMC,113404.000,A,3112.7132,N,12136.4303,E,0.12,0.00,220519,,*15
$GPGSA,A,3,02,06,09,12,25,,,,,,,,3.2,2.5,1.9*35
$BDGSA,A,3,05,,,,,,,,,,,,3.2,2.5,1.9*28
$GPGSV,2,1,06,02,49,324,40,06,55,039,46,09,38,067,35,12,27,278,47*71
$GPGSV,2,2,06,05,00,000,38,25,09,311,39*76
$BDGSV,2,1,05,05,15,255,31,12,00,000,39,13,00,000,36,08,00,000,37*6D
$BDGSV,2,2,05,20,15,042,00*5D
$LOGTIM,3,-1012.334590,-1159.124452,0.000000,0.000000,-65.689*12
EndT:        2
---00000058--- Acq_st=3 2019-5-22 11:34:4 
[00]  G02  f 40  -1724.7 2046002.2  1.0  1.0  5  0 300861926
[01]  G06  f 46     72.7 2045999.9  1.0  1.0  5  0 300861929
[02]  G09  f 36    585.8 2045999.2  1.0  0.9  5  0 300861926
[03]  G12  f 47    341.4 2045999.6  1.0  1.0  5  0 300861923
[04]  G05  f 38  -2437.5 2046003.2  1.0  1.0  5  0 300861927
[05]  G25  f 41  -1315.1 2046001.7  1.0  1.0  5  0 300861916
[16]  B05 1f 32   -351.0 4092000.9  0.9  0.0  2  0 300847866
[17]  B12 1f 39  -3035.2 4092007.9  1.0  1.0  5  0 300847919
[18]  B13 1f 36   -779.3 4092002.0  1.0  1.0  5  0 300847875
[19]  B08 1f 37   -734.4 4092002.0  1.0  1.0  5  0 300847878
lsq: nits= 2
$GNGGA,113405.000,3112.7136,N,12136.4308,E,1,06,2.5,57.4,M,,,,0000*2E
$GNRMC,113405.000,A,3112.7136,N,12136.4308,E,0.18,0.00,220519,,*11
$GPGSA,A,3,02,06,09,12,25,,,,,,,,3.2,2.5,1.9*35
$BDGSA,A,3,05,,,,,,,,,,,,3.2,2.5,1.9*28
$GPGSV,2,1,06,02,49,324,40,06,55,039,46,09,38,067,36,12,27,278,47*72
$GPGSV,2,2,06,05,00,000,38,25,09,311,41*79
$BDGSV,2,1,05,05,15,255,32,12,00,000,39,13,00,000,36,08,00,000,37*6E
$BDGSV,2,2,05,20,15,042,00*5D
$LOGTIM,3,-1078.921283,-1225.607176,0.000000,0.000000,-66.041*19
EndT:        2
---00000059--- Acq_st=3 2019-5-22 11:34:5 
[00]  G02  f 40  -1728.4 2046002.3  1.0  1.0  5  0 300862926
[01]  G06  f 46     69.3 2045999.9  1.0  1.0  5  0 300862929
[02]  G09  f 35    581.9 2045999.3  1.0  0.9  5  0 300862926
[03]  G12  f 47    338.2 2045999.5  1.0  1.0  5  0 300862923
[04]  G05  f 38  -2441.4 2046003.3  1.0  1.0  5  0 300862927
[05]  G25  f 41  -1318.2 2046001.7  1.0  1.0  5  0 300862916
[16]  B05 1f 33   -355.0 4092001.0  0.9  0.0  2  0 300848866
[17]  B12 1f 39  -3040.1 4092008.0  1.0  0.9  5  0 300848919
[18]  B13 1f 36   -783.4 4092002.1  1.0  0.9  5  0 300848875
[19]  B08 1f 37   -738.2 4092002.0  1.0  1.0  5  0 300848878
[20]  B19  1  7    880.9 4091997.5  0.0  0.0  1  0        89
lsq: nits= 2
$GNGGA,113406.000,3112.7134,N,12136.4316,E,1,06,2.5,58.5,M,,,,0000*2E
$GNRMC,113406.000,A,3112.7134,N,12136.4316,E,0.53,0.00,220519,,*10
$GPGSA,A,3,02,06,09,12,25,,,,,,,,3.2,2.5,1.9*35
$BDGSA,A,3,05,,,,,,,,,,,,3.2,2.5,1.9*28
$GPGSV,2,1,06,02,49,324,40,06,55,039,46,09,38,067,35,12,27,278,47*71
$GPGSV,2,2,06,05,00,000,38,25,09,311,41*79
$BDGSV,2,1,05,05,15,255,33,12,00,000,39,13,00,000,36,08,00,000,37*6F
$BDGSV,2,2,05,20,15,042,00*5D
$LOGTIM,3,-1145.804368,-1292.615558,0.000000,0.000000,-66.628*1A
EndT:        2
---00000060--- Acq_st=3 2019-5-22 11:34:6 
[00]  G02  f 40  -1730.3 2046002.2  1.0  1.0  5  0 300863926
[01]  G06  f 45     66.9 2045999.9  1.0  1.0  5  0 300863929
[02]  G09  f 35    580.3 2045999.2  1.0  1.0  5  0 300863926
[03]  G12  f 47    336.3 2045999.6  1.0  1.0  5  0 300863923
[04]  G05  f 37  -2442.8 2046003.2  1.0  1.0  5  0 300863927
[05]  G25  f 41  -1320.1 2046001.7  1.0  1.0  5  0 300863916
[16]  B05 1f 33   -357.4 4092001.0  0.9  0.0  2  0 300849866
[17]  B12 1f 38  -3042.0 4092007.9  1.0  1.0  5  0 300849919
[18]  B13 1f 36   -786.2 4092002.1  1.0  0.9  5  0 300849875
[19]  B08 1f 37   -741.3 4092001.9  1.0  1.0  5  0 300849878
[20]  B19  7 25    875.3 4091997.6  0.0  0.0 20  0      1089
lsq: nits= 2
$GNGGA,113407.000,3112.7134,N,12136.4324,E,1,06,2.5,59.8,M,,,,0000*22
$GNRMC,113407.000,A,3112.7134,N,12136.4324,E,0.35,0.00,220519,,*10
$GPGSA,A,3,02,06,09,12,25,,,,,,,,3.2,2.5,1.9*35
$BDGSA,A,3,05,,,,,,,,,,,,3.2,2.5,1.9*28
$GPGSV,2,1,06,02,49,324,40,06,55,039,45,09,38,067,35,12,27,278,47*72
$GPGSV,2,2,06,05,00,000,37,25,09,311,41*76
$BDGSV,2,1,06,05,15,255,33,12,00,000,38,13,00,000,36,08,00,000,37*6D
$BDGSV,2,2,06,19,00,000,25,20,15,042,00*61
$LOGTIM,3,-1212.694239,-1359.670269,0.000000,0.000000,-66.671*15
EndT:        2
---00000061--- Acq_st=3 2019-5-22 11:34:7 
[00]  G02  f 40  -1727.3 2046002.3  1.0  1.0  5  0 300864926
[01]  G06  f 46     70.5 2045999.9  1.0  1.0  5  0 300864929
[02]  G09  f 35    584.5 2045999.2  1.0  1.0  5  0 300864926
[03]  G12  f 47    340.2 2045999.6  1.0  1.0  5  0 300864923
[04]  G05  f 37  -2439.0 2046003.2  1.0  1.0  5  0 300864927
[05]  G25  f 42  -1315.6 2046001.7  1.0  1.0  5  0 300864916
[16]  B05 1f 33   -354.3 4092001.0  0.9  0.0  2  0 300850866
[17]  B12 1f 39  -3038.6 4092007.9  1.0  1.0  5  0 300850919
[18]  B13 1f 36   -783.0 4092002.1  1.0  1.0  5  0 300850875
[19]  B08 1f 37   -737.4 4092002.0  1.0  1.0  5  0 300850878
[20]  B19  7 37    882.8 4091997.6  0.9  0.9  5  0      2086
lsq: nits= 2
$GNGGA,113408.000,3112.7130,N,12136.4331,E,1,06,2.5,59.5,M,,,,0000*20
$GNRMC,113408.000,A,3112.7130,N,12136.4331,E,0.05,0.00,220519,,*1C
$GPGSA,A,3,02,06,09,12,25,,,,,,,,3.2,2.5,1.9*35
$BDGSA,A,3,05,,,,,,,,,,,,3.2,2.5,1.9*28
$GPGSV,2,1,06,02,49,324,40,06,55,039,46,09,38,067,35,12,27,278,47*71
$GPGSV,2,2,06,05,00,000,37,25,09,311,42*75
$BDGSV,2,1,06,05,15,255,33,12,00,000,39,13,00,000,36,08,00,000,37*6C
$BDGSV,2,2,06,19,00,000,37,20,15,042,00*62
$LOGTIM,3,-1279.789137,-1426.800509,0.000000,0.000000,-66.472*1E
EndT:        2
---00000062--- Acq_st=3 2019-5-22 11:34:8 
[00]  G02  f 40  -1728.0 2046002.3  1.0  1.0  5  0 300865926
[01]  G06  f 45     69.8 2045999.9  1.0  1.0  5  0 300865929
[02]  G09  f 35    584.7 2045999.3  1.0  1.0  5  0 300865926
[03]  G12  f 47    340.1 2045999.6  1.0  1.0  5  0 300865923
[04]  G05  f 37  -2439.7 2046003.2  1.0  1.0  5  0 300865927
[05]  G25  f 42  -1316.5 2046001.7  1.0  1.0  5  0 300865916
[16]  B05 1f 32   -355.3 4092000.7  0.9  0.0  2  0 300851866
[17]  B12 1f 39  -3038.9 4092008.0  1.0  1.0  5  0 300851919
[18]  B13 1f 35   -783.3 4092002.0  1.0  0.9  5  0 300851875
[19]  B08 1f 36   -738.3 4092001.9  1.0  1.0  5  0 300851878
[20]  B19  7 37    882.7 4091997.6  1.0  1.0  5  0      3086
lsq: nits= 2
$GNGGA,113409.000,3112.7128,N,12136.4335,E,1,06,2.5,59.7,M,,,,0000*2E
$GNRMC,113409.000,A,3112.7128,N,12136.4335,E,0.11,0.00,220519,,*15
$GPGSA,A,3,02,06,09,12,25,,,,,,,,3.2,2.5,1.9*35
$BDGSA,A,3,05,,,,,,,,,,,,3.2,2.5,1.9*28
$GPGSV,2,1,06,02,49,324,40,06,55,039,45,09,38,067,35,12,27,278,47*72
$GPGSV,2,2,06,05,00,000,37,25,09,311,42*75
$BDGSV,2,1,06,05,15,255,32,12,00,000,39,13,00,000,35,08,00,000,36*6F
$BDGSV,2,2,06,19,00,000,37,20,15,042,00*62
$LOGTIM,3,-1346.364314,-1493.577702,0.000000,0.000000,-66.554*18
EndT:        3
---00000063--- Acq_st=3 2019-5-22 11:34:9 
[00]  G02  f 40  -1725.6 2046002.3  1.0  1.0  5  0 300866926
[01]  G06  f 45     72.8 2045999.9  1.0  1.0  5  0 300866929
[02]  G09  f 36    587.9 2045999.2  1.0  0.9  5  0 300866926
[03]  G12  f 47    343.8 2045999.6  1.0  1.0  5  0 300866923
[04]  G05  f 37  -2436.0 2046003.2  1.0  1.0  5  0 300866927
[05]  G25  f 42  -1312.6 2046001.7  1.0  1.0  5  0 300866916
[16]  B05 1f 33   -352.4 4092001.0  0.9  0.0  2  0 300852866
[17]  B12 1f 39  -3036.0 4092007.9  1.0  1.0  5  0 300852919
[18]  B13 1f 36   -780.6 4092002.1  1.0  1.0  5  0 300852875
[19]  B08 1f 37   -735.6 4092001.9  1.0  1.0  5  0 300852878
[20]  B19 1f 37    886.2 4091997.7  1.0  1.0  5  0      4086
lsq: nits= 2
$GNGGA,113410.000,3112.7124,N,12136.4337,E,1,06,2.5,59.8,M,,,,0000*27
$GNRMC,113410.000,A,3112.7124,N,12136.4337,E,0.52,0.00,220519,,*14
$GPGSA,A,3,02,06,09,12,25,,,,,,,,3.2,2.5,1.9*35
$BDGSA,A,3,05,,,,,,,,,,,,3.2,2.5,1.9*28
$GPGSV,2,1,06,02,49,324,40,06,55,039,45,09,38,067,36,12,27,278,47*71
$GPGSV,2,2,06,05,00,000,37,25,09,311,42*75
$BDGSV,2,1,06,05,15,255,33,12,00,000,39,13,00,000,36,08,00,000,37*6C
$BDGSV,2,2,06,19,00,000,37,20,15,042,00*62
$LOGTIM,3,-1412.294533,-1559.682592,0.000000,0.000000,-65.985*15
