FlashID=0x1 0x20 0x18
BBram_blkflag1: 14a5: eb5a
FW Ver: 1.30  
GPS00 Init Dop:   5000, 40
GPS01 Init Dop:   5000, 40
GPS02 Init Dop:   5000, 40
GPS03 Init Dop:   5000, 40
GPS04 Init Dop:   5000, 40
GPS05 Init Dop:   5000, 40
GPS06 Init Dop:   5000, 40
GPS07 Init Dop:   5000, 40
GPS08 Init Dop:   5000, 40
GPS09 Init Dop:   5000, 40
GPS10 Init Dop:   5000, 40
GPS11 Init Dop:   5000, 40
GPS12 Init Dop:   5000, 40
GPS13 Init Dop:   5000, 40
GPS14 Init Dop:   5000, 40
GPS15 Init Dop:   5000, 40
GPS16 Init Dop:   5000, 40
GPS17 Init Dop:   5000, 40
GPS18 Init Dop:   5000, 40
GPS19 Init Dop:   5000, 40
GPS20 Init Dop:   5000, 40
GPS21 Init Dop:   5000, 40
GPS22 Init Dop:   5000, 40
GPS23 Init Dop:   5000, 40
GPS24 Init Dop:   5000, 40
GPS25 Init Dop:   5000, 40
GPS26 Init Dop:   5000, 40
GPS27 Init Dop:   5000, 40
GPS28 Init Dop:   5000, 40
GPS29 Init Dop:   5000, 40
GPS30 Init Dop:   5000, 40
GPS31 Init Dop:   5000, 40
BDS00 Init Dop:   5000, 40
BDS01 Init Dop:   5000, 40
BDS02 Init Dop:   5000, 40
BDS03 Init Dop:   5000, 40
BDS04 Init Dop:   5000, 40
BDS05 Init Dop:   5000, 40
BDS06 Init Dop:   5000, 40
BDS07 Init Dop:   5000, 40
BDS08 Init Dop:   5000, 40
BDS09 Init Dop:   5000, 40
BDS10 Init Dop:   5000, 40
BDS11 Init Dop:   5000, 40
BDS12 Init Dop:   5000, 40
BDS13 Init Dop:   5000, 40
BDS14 Init Dop:   5000, 40
BDS15 Init Dop:   5000, 40
BDS16 Init Dop:   5000, 40
BDS17 Init Dop:   5000, 40
BDS18 Init Dop:   5000, 40
BDS19 Init Dop:   5000, 40
BDS20 Init Dop:   5000, 40
BDS21 Init Dop:   5000, 40
BDS22 Init Dop:   5000, 40
BDS23 Init Dop:   5000, 40
BDS24 Init Dop:   5000, 40
BDS25 Init Dop:   5000, 40
BDS26 Init Dop:   5000, 40
BDS27 Init Dop:   5000, 40
BDS28 Init Dop:   5000, 40
BDS29 Init Dop:   5000, 40
BDS30 Init Dop:   5000, 40
BDS31 Init Dop:   5000, 40
good luck!
---00000001--- Acq_st=3 2019-5-22 11:35:36 
[00]  G02  1 15  -1729.8 2046003.7 -0.0  0.0  1  0         0
$GNGGA,000000.000,,,,,0,00,,,M,,,,0000*2B
$GNRMC,000000.000,A,,,,,,,000000,,*26
$GPGSA,A,1,,,,,,,,,,,,,,,*1E
$BDGSA,A,1,,,,,,,,,,,,,,,*0F
$LOGTIM,0,0.000000,0.000000,0.000000,0.000000,0.000*0A
EndT:        0
---00000002--- Acq_st=3 2019-5-22 11:35:37 
[00]  G02  1 32  -1721.8 2046002.5  0.2  0.0  1  0        15
[01]  G05  1  7  -2461.4 2046005.1 -0.1  0.0  1  0         0
$GNGGA,000000.000,,,,,0,00,,,M,,,,0000*2B
$GNRMC,000000.000,A,,,,,,,000000,,*26
$GPGSA,A,1,,,,,,,,,,,,,,,*1E
$BDGSA,A,1,,,,,,,,,,,,,,,*0F
$LOGTIM,0,0.000000,0.000000,0.000000,0.000000,0.000*0A
EndT:        0
---00000003--- Acq_st=3 2019-5-22 11:35:38 
[00]  G02  7 38  -1727.3 2046002.2  0.5  1.0  5  0        15
[01]  G05  1 32  -2408.8 2046003.7 -0.1  0.0  1  0        10
[02]  G06  1 26     80.6 2046000.4 -0.1  0.0  1  0         0
$GNGGA,000000.000,,,,,0,00,,,M,,,,0000*2B
$GNRMC,000000.000,A,,,,,,,000000,,*26
$GPGSA,A,1,,,,,,,,,,,,,,,*1E
$BDGSA,A,1,,,,,,,,,,,,,,,*0F
$GPGSV,1,1,01,02,00,000,38*41
$LOGTIM,0,0.000000,0.000000,0.000000,0.000000,0.000*0A
EndT:        0
---00000004--- Acq_st=3 2019-5-22 11:35:39 
[00]  G02  7 40  -1723.7 2046002.2  1.0  1.0  5  0        11
[01]  G05  7 37  -2405.0 2046003.0  0.9  1.0  5  0        10
[02]  G06  7 30     88.1 2045999.8  0.1  1.0  5  0         3
[03]  G09  1 21    656.4 2046000.3 -0.1  0.0  1  0         0
$GNGGA,000000.000,,,,,0,00,,,M,,,,0000*2B
$GNRMC,000000.000,A,,,,,,,000000,,*26
$GPGSA,A,1,,,,,,,,,,,,,,,*1E
$BDGSA,A,1,,,,,,,,,,,,,,,*0F
$GPGSV,1,1,03,02,00,000,40,05,00,000,37,06,00,000,30*48
$LOGTIM,0,0.000000,0.000000,0.000000,0.000000,0.000*0A
EndT:        0
---00000005--- Acq_st=3 2019-5-22 11:35:40 
[00]  G02  7 40  -1717.1 2046002.2  1.0  1.0  5  0        11
[01]  G05  7 42  -2398.1 2046003.1  1.0  1.0  5  0        12
[02]  G06  7 45     93.0 2045999.8  1.0  1.0  5  0        15
[03]  G09  7 28    646.9 2045999.0  0.4  1.0 10  0        18
[04]  G12  1 25    400.3 2046000.0 -0.1  0.0  1  0         0
$GNGGA,000000.000,,,,,0,00,,,M,,,,0000*2B
$GNRMC,000000.000,A,,,,,,,000000,,*26
$GPGSA,A,1,,,,,,,,,,,,,,,*1E
$BDGSA,A,1,,,,,,,,,,,,,,,*0F
$GPGSV,1,1,04,02,00,000,40,05,00,000,42,06,00,000,45,09,00,000,28*7C
$LOGTIM,0,0.000000,0.000000,0.000000,0.000000,0.000*0A
EndT:        0
---00000006--- Acq_st=3 2019-5-22 11:35:41 
[00]  G02  7 39  -1715.6 2046002.2  1.0  1.0  5  0        11
[01]  G05  7 42  -2396.0 2046003.1  1.0  1.0  5  0        12
[02]  G06  7 45     94.7 2045999.8  1.0  1.0  5  0        15
[03]  G09  7 36    649.3 2045999.1  0.9  1.0  5  0        11
[04]  G12  7 29    401.8 2045999.4  0.2  1.0 10  0        13
$GNGGA,000000.000,,,,,0,00,,,M,,,,0000*2B
$GNRMC,000000.000,A,,,,,,,000000,,*26
$GPGSA,A,1,,,,,,,,,,,,,,,*1E
$BDGSA,A,1,,,,,,,,,,,,,,,*0F
$GPGSV,2,1,05,02,00,000,39,05,00,000,42,06,00,000,45,09,00,000,36*7F
$GPGSV,2,2,05,12,00,000,29*44
$LOGTIM,0,0.000000,0.000000,0.000000,0.000000,0.000*0A
EndT:        1
---00000007--- Acq_st=3 2019-5-22 11:35:42 
[00]  G02  7 39  -1716.3 2046002.2  1.0  1.0  5  0        11
[01]  G05  7 42  -2396.6 2046003.1  1.0  1.0  5  0        12
[02]  G06  7 45     94.2 2045999.8  1.0  1.0  5  0        15
[03]  G09  7 36    649.1 2045999.1  1.0  1.0  5  0        11
[04]  G12  7 47    400.8 2045999.4  0.9  1.0  5  0         8
$GNGGA,000000.000,,,,,0,00,,,M,,,,0000*2B
$GNRMC,000000.000,A,,,,,,,000000,,*26
$GPGSA,A,1,,,,,,,,,,,,,,,*1E
$BDGSA,A,1,,,,,,,,,,,,,,,*0F
$GPGSV,2,1,05,02,00,000,39,05,00,000,42,06,00,000,45,09,00,000,36*7F
$GPGSV,2,2,05,12,00,000,47*4C
$LOGTIM,0,0.000000,0.000000,0.000000,0.000000,0.000*0A
EndT:        0
---00000008--- Acq_st=3 2019-5-22 11:35:43 
[00]  G02  7 39  -1713.2 2046002.2  1.0  1.0  5  0        11
[01]  G05  7 42  -2393.3 2046003.1  1.0  1.0  5  0        12
[02]  G06  7 45     97.2 2045999.9  1.0  1.0  5  0        15
[03]  G09  7 35    652.4 2045999.1  1.0  1.0  5  0        11
[04]  G12  7 47    404.3 2045999.4  1.0  1.0  5  0         8
$GNGGA,000000.000,,,,,0,00,,,M,,,,0000*2B
$GNRMC,000000.000,A,,,,,,,000000,,*26
$GPGSA,A,1,,,,,,,,,,,,,,,*1E
$BDGSA,A,1,,,,,,,,,,,,,,,*0F
$GPGSV,2,1,05,02,00,000,39,05,00,000,42,06,00,000,45,09,00,000,35*7C
$GPGSV,2,2,05,12,00,000,47*4C
$LOGTIM,0,0.000000,0.000000,0.000000,0.000000,0.000*0A
EndT:        0
---00000009--- Acq_st=3 2019-5-22 11:35:44 
[00]  G02  7 39  -1714.7 2046002.2  1.0  1.0  5  0        11
[01]  G05  7 42  -2394.4 2046003.1  1.0  1.0  5  0        12
[02]  G06  7 46     95.9 2045999.9  1.0  1.0  5  0        15
[03]  G09  7 35    652.0 2045999.1  1.0  1.0  5  0        11
[04]  G12  7 47    403.2 2045999.5  1.0  1.0  5  0         8
[05]  G23  1 28   2111.0 2045996.9 -0.2  0.0  1  0         0
[06]  G25  1 19  -1253.4 2046003.2 -0.0  0.0  1  0         0
$GNGGA,000000.000,,,,,0,00,,,M,,,,0000*2B
$GNRMC,000000.000,A,,,,,,,000000,,*26
$GPGSA,A,1,,,,,,,,,,,,,,,*1E
$BDGSA,A,1,,,,,,,,,,,,,,,*0F
$GPGSV,2,1,05,02,00,000,39,05,00,000,42,06,00,000,46,09,00,000,35*7F
$GPGSV,2,2,05,12,00,000,47*4C
$LOGTIM,0,0.000000,0.000000,0.000000,0.000000,0.000*0A
EndT:        0
---00000010--- Acq_st=3 2019-5-22 11:35:45 
[00]  G02  f 40  -1722.0 2046002.2  1.0  1.0  5  0        11
[01]  G05  f 42  -2400.8 2046003.1  1.0  1.0  5  0        12
[02]  G06  f 46     88.7 2045999.9  1.0  1.0  5  0        15
[03]  G09  f 36    644.9 2045999.1  1.0  1.0  5  0        11
[04]  G12  f 47    396.5 2045999.5  1.0  1.0  5  0         8
[06]  G25  1 32  -1260.3 2046001.9  0.3  0.0  1  0         8
$GNGGA,000000.000,,,,,0,00,,,M,,,,0000*2B
$GNRMC,000000.000,A,,,,,,,000000,,*26
$GPGSA,A,1,,,,,,,,,,,,,,,*1E
$BDGSA,A,1,,,,,,,,,,,,,,,*0F
$GPGSV,2,1,05,02,00,000,40,05,00,000,42,06,00,000,46,09,00,000,36*72
$GPGSV,2,2,05,12,00,000,47*4C
$LOGTIM,0,0.000000,0.000000,0.000000,0.000000,0.000*0A
EndT:        0
---00000011--- Acq_st=3 2019-5-22 11:35:46 
[00]  G02  f 40  -1723.8 2046002.2  1.0  1.0  5  0 300961991
[01]  G05  f 42  -2402.6 2046003.1  1.0  1.0  5  0 300961992
[02]  G06  f 46     87.0 2045999.9  1.0  1.0  5  0 300961995
[03]  G09  f 36    643.7 2045999.0  1.0  1.0  5  0 300961991
[04]  G12  f 47    395.3 2045999.5  1.0  1.0  5  0 300961988
[06]  G25  1 31  -1261.9 2046001.6  1.0  0.0  1  0         8
$GNGGA,000000.000,,,,,0,00,,,M,,,,0000*2B
$GNRMC,000000.000,A,,,,,,,000000,,*26
$GPGSA,A,1,,,,,,,,,,,,,,,*1E
$BDGSA,A,1,,,,,,,,,,,,,,,*0F
$GPGSV,2,1,05,02,00,000,40,05,00,000,42,06,00,000,46,09,00,000,36*72
$GPGSV,2,2,05,12,00,000,47*4C
$LOGTIM,0,0.000000,0.000000,0.000000,0.000000,0.000*0A
EndT:        0
---00000012--- Acq_st=3 2019-5-22 11:35:47 
[00]  G02  f 41  -1724.6 2046002.2  1.0  0.9  5  0 300962991
[01]  G05  f 42  -2403.1 2046003.1  1.0  1.0  5  0 300962992
[02]  G06  f 46     86.7 2045999.9  1.0  1.0  5  0 300962995
[03]  G09  f 36    643.6 2045999.1  1.0  1.0  5  0 300962991
[04]  G12  f 47    395.3 2045999.5  1.0  1.0  5  0 300962988
[06]  G25  7 38  -1261.6 2046001.6  1.0  1.0  5  0         8
$GNGGA,000000.000,,,,,0,00,,,M,,,,0000*2B
$GNRMC,000000.000,A,,,,,,,000000,,*26
$GPGSA,A,1,,,,,,,,,,,,,,,*1E
$BDGSA,A,1,,,,,,,,,,,,,,,*0F
$GPGSV,2,1,06,02,00,000,41,05,00,000,42,06,00,000,46,09,00,000,36*70
$GPGSV,2,2,06,12,00,000,47,25,00,000,38*73
$LOGTIM,0,0.000000,0.000000,0.000000,0.000000,0.000*0A
EndT:        0
---00000013--- Acq_st=3 2019-5-22 11:35:48 
[00]  G02  f 41  -1719.9 2046002.2  1.0  1.0  5  0 300963991
[01]  G05  f 42  -2398.2 2046003.1  1.0  1.0  5  0 300963992
[02]  G06  f 46     91.4 2045999.9  1.0  1.0  5  0 300963995
[03]  G09  f 36    648.8 2045999.1  1.0  1.0  5  0 300963991
[04]  G12  f 47    400.2 2045999.5  1.0  1.0  5  0 300963988
[06]  G25  7 39  -1256.5 2046001.6  1.0  1.0  5  0         2
$GNGGA,000000.000,,,,,0,00,,,M,,,,0000*2B
$GNRMC,000000.000,A,,,,,,,000000,,*26
$GPGSA,A,1,,,,,,,,,,,,,,,*1E
$BDGSA,A,1,,,,,,,,,,,,,,,*0F
$GPGSV,2,1,06,02,00,000,41,05,00,000,42,06,00,000,46,09,00,000,36*70
$GPGSV,2,2,06,12,00,000,47,25,00,000,39*72
$LOGTIM,0,0.000000,0.000000,0.000000,0.000000,0.000*0A
EndT:        0
---00000014--- Acq_st=3 2019-5-22 11:35:49 
[00]  G02  f 41  -1719.5 2046002.2  1.0  1.0  5  0 300964991
[01]  G05  f 41  -2397.2 2046003.1  1.0  1.0  5  0 300964992
[02]  G06  f 46     91.6 2045999.9  1.0  1.0  5  0 300964995
[03]  G09  f 36    649.4 2045999.1  1.0  1.0  5  0 300964991
[04]  G12  f 47    400.9 2045999.5  1.0  1.0  5  0 300964988
[06]  G25  7 39  -1255.7 2046001.6  1.0  1.0  5  0         2
$GNGGA,000000.000,,,,,0,00,,,M,,,,0000*2B
$GNRMC,000000.000,A,,,,,,,000000,,*26
$GPGSA,A,1,,,,,,,,,,,,,,,*1E
$BDGSA,A,1,,,,,,,,,,,,,,,*0F
$GPGSV,2,1,06,02,00,000,41,05,00,000,41,06,00,000,46,09,00,000,36*73
$GPGSV,2,2,06,12,00,000,47,25,00,000,39*72
$LOGTIM,0,0.000000,0.000000,0.000000,0.000000,0.000*0A
EndT:        0
---00000015--- Acq_st=3 2019-5-22 11:35:50 
[00]  G02  f 41  -1723.7 2046002.2  1.0  1.0  5  0 300965991
[01]  G05  f 42  -2400.6 2046003.1  1.0  1.0  5  0 300965992
[02]  G06  f 46     88.3 2045999.9  1.0  1.0  5  0 300965995
[03]  G09  f 37    645.7 2045999.1  1.0  1.0  5  0 300965991
[04]  G12  f 48    397.9 2045999.5  1.0  1.0  5  0 300965988
[06]  G25  7 40  -1259.4 2046001.6  1.0  1.0  5  0         2
[16]  B05  1 10   1080.1 4092001.9 -0.0  0.0  1  0         0
$GNGGA,000000.000,,,,,0,00,,,M,,,,0000*2B
$GNRMC,000000.000,A,,,,,,,000000,,*26
$GPGSA,A,1,,,,,,,,,,,,,,,*1E
$BDGSA,A,1,,,,,,,,,,,,,,,*0F
$GPGSV,2,1,06,02,00,000,41,05,00,000,42,06,00,000,46,09,00,000,37*71
$GPGSV,2,2,06,12,00,000,48,25,00,000,40*73
$LOGTIM,0,0.000000,0.000000,0.000000,0.000000,0.000*0A
EndT:        0
---00000016--- Acq_st=3 2019-5-22 11:35:51 
[00]  G02  f 41  -1718.4 2046002.2  1.0  1.0  5  0 300966992
[01]  G05  f 42  -2395.5 2046003.1  1.0  1.0  5  0 300966992
[02]  G06  f 46     93.1 2045999.9  1.0  1.0  5  0 300966995
[03]  G09  f 37    651.5 2045999.2  1.0  1.0  5  0 300966991
[04]  G12  f 48    403.2 2045999.5  1.0  1.0  5  0 300966988
[06]  G25  f 40  -1253.6 2046001.6  1.0  1.0  5  0         2
[16]  B05  1 32   -348.4 4092002.1 -0.2  0.0  1  0        73
$GNGGA,000000.000,,,,,0,00,,,M,,,,0000*2B
$GNRMC,000000.000,A,,,,,,,000000,,*26
$GPGSA,A,1,,,,,,,,,,,,,,,*1E
$BDGSA,A,1,,,,,,,,,,,,,,,*0F
$GPGSV,2,1,06,02,00,000,41,05,00,000,42,06,00,000,46,09,00,000,37*71
$GPGSV,2,2,06,12,00,000,48,25,00,000,40*73
$LOGTIM,0,0.000000,0.000000,0.000000,0.000000,0.000*0A
EndT:        0
---00000017--- Acq_st=3 2019-5-22 11:35:52 
[00]  G02  f 41  -1712.5 2046002.2  1.0  1.0  5  0 300967992
[01]  G05  f 42  -2389.0 2046003.1  1.0  1.0  5  0 300967992
[02]  G06  f 47     99.4 2045999.9  1.0  1.0  5  0 300967995
[03]  G09  f 37    658.1 2045999.1  1.0  1.0  5  0 300967991
[04]  G12  f 47    410.0 2045999.5  1.0  1.0  5  0 300967988
[06]  G25  f 40  -1247.1 2046001.6  1.0  1.0  5  0 300967982
[16]  B05  f 31   -332.2 4092000.8 -0.0  0.0  2  0      1073
$GNGGA,000000.000,,,,,0,00,,,M,,,,0000*2B
$GNRMC,000000.000,A,,,,,,,000000,,*26
$GPGSA,A,1,,,,,,,,,,,,,,,*1E
$BDGSA,A,1,,,,,,,,,,,,,,,*0F
$GPGSV,2,1,06,02,00,000,41,05,00,000,42,06,00,000,47,09,00,000,37*70
$GPGSV,2,2,06,12,00,000,47,25,00,000,40*7C
$BDGSV,1,1,01,05,00,000,31*5E
$LOGTIM,0,0.000000,0.000000,0.000000,0.000000,0.000*0A
EndT:        0
---00000018--- Acq_st=3 2019-5-22 11:35:53 
[00]  G02  f 41  -1721.1 2046002.2  1.0  1.0  5  0 300968992
[01]  G05  f 42  -2397.6 2046003.1  1.0  1.0  5  0 300968992
[02]  G06  f 45     90.5 2045999.9  1.0  1.0  5  0 300968995
[03]  G09  f 37    650.5 2045999.2  1.0  1.0  5  0 300968991
[04]  G12  f 48    401.2 2045999.5  1.0  1.0  5  0 300968988
[06]  G25  f 40  -1255.2 2046001.6  1.0  1.0  5  0 300968982
[16]  B05  f 30   -353.5 4092000.9  0.9  0.0  2  0 300955531
$GNGGA,000000.000,,,,,0,00,,,M,,,,0000*2B
$GNRMC,000000.000,A,,,,,,,000000,,*26
$GPGSA,A,1,,,,,,,,,,,,,,,*1E
$BDGSA,A,1,,,,,,,,,,,,,,,*0F
$GPGSV,2,1,06,02,00,000,41,05,00,000,42,06,00,000,45,09,00,000,37*72
$GPGSV,2,2,06,12,00,000,48,25,00,000,40*73
$BDGSV,1,1,01,05,00,000,30*5F
$LOGTIM,0,0.000000,0.000000,0.000000,0.000000,0.000*0A
EndT:        0
---00000019--- Acq_st=3 2019-5-22 11:35:54 
[00]  G02  f 40  -1724.8 2046002.3  1.0  1.0  5  0 300969992
[01]  G05  f 42  -2400.8 2046003.1  1.0  1.0  5  0 300969992
[02]  G06  f 45     87.2 2045999.9  1.0  1.0  5  0 300969995
[03]  G09  f 37    646.9 2045999.2  1.0  1.1  5  0 300969991
[04]  G12  f 47    398.5 2045999.5  1.0  1.0  5  0 300969988
[06]  G25  f 39  -1258.8 2046001.6  1.0  0.9  5  0 300969982
[16]  B05  f 32   -357.0 4092000.9  0.9  0.0  2  0 300956531
$GNGGA,000000.000,,,,,0,00,,,M,,,,0000*2B
$GNRMC,000000.000,A,,,,,,,000000,,*26
$GPGSA,A,1,,,,,,,,,,,,,,,*1E
$BDGSA,A,1,,,,,,,,,,,,,,,*0F
$GPGSV,2,1,06,02,00,000,40,05,00,000,42,06,00,000,45,09,00,000,37*73
$GPGSV,2,2,06,12,00,000,47,25,00,000,39*72
$BDGSV,1,1,01,05,00,000,32*5D
$LOGTIM,0,0.000000,0.000000,0.000000,0.000000,0.000*0A
EndT:        0
---00000020--- Acq_st=3 2019-5-22 11:35:55 
[00]  G02  f 40  -1725.9 2046002.3  1.0  1.0  5  0 300970992
[01]  G05  f 42  -2401.9 2046003.1  1.0  1.0  5  0 300970992
[02]  G06  f 45     86.2 2045999.9  1.0  1.0  5  0 300970995
[03]  G09  f 36    646.4 2045999.1  1.0  1.0  5  0 300970991
[04]  G12  f 47    398.1 2045999.5  1.0  1.0  5  0 300970988
[06]  G25  f 40  -1258.8 2046001.6  1.0  1.0  5  0 300970982
[16]  B05 1f 32   -357.9 4092000.9  0.9  0.0  2  0 300957531
$GNGGA,000000.000,,,,,0,00,,,M,,,,0000*2B
$GNRMC,000000.000,A,,,,,,,000000,,*26
$GPGSA,A,1,,,,,,,,,,,,,,,*1E
$BDGSA,A,1,,,,,,,,,,,,,,,*0F
$GPGSV,2,1,06,02,00,000,40,05,00,000,42,06,00,000,45,09,00,000,36*72
$GPGSV,2,2,06,12,00,000,47,25,00,000,40*7C
$BDGSV,1,1,01,05,00,000,32*5D
$LOGTIM,0,0.000000,0.000000,0.000000,0.000000,0.000*0A
EndT:        0
---00000021--- Acq_st=3 2019-5-22 11:35:56 
[00]  G02  f 40  -1721.4 2046002.3  1.0  1.0  5  0 300971992
[01]  G05  f 42  -2396.9 2046003.1  1.0  1.0  5  0 300971992
[02]  G06  f 46     90.7 2045999.9  1.0  1.0  5  0 300971995
[03]  G09  f 37    651.9 2045999.1  1.0  1.0  5  0 300971991
[04]  G12  f 47    402.7 2045999.5  1.0  1.0  5  0 300971988
[06]  G25  f 40  -1253.9 2046001.6  1.0  1.0  5  0 300971982
[16]  B05 1f 30   -353.9 4092000.9  0.8  0.0  2  0 300957931
[17]  B12  1  7  -3019.9 4092009.2 -0.2  0.0  1  0         0
$GNGGA,000000.000,,,,,0,00,,,M,,,,0000*2B
$GNRMC,000000.000,A,,,,,,,000000,,*26
$GPGSA,A,1,,,,,,,,,,,,,,,*1E
$BDGSA,A,1,,,,,,,,,,,,,,,*0F
$GPGSV,2,1,06,02,00,000,40,05,00,000,42,06,00,000,46,09,00,000,37*70
$GPGSV,2,2,06,12,00,000,47,25,00,000,40*7C
$BDGSV,1,1,01,05,00,000,30*5F
$LOGTIM,0,0.000000,0.000000,0.000000,0.000000,0.000*0A
EndT:        0
---00000022--- Acq_st=3 2019-5-22 11:35:57 
[00]  G02  f 40  -1715.6 2046002.2  1.0  1.0  5  0 300972992
[01]  G05  f 41  -2390.8 2046003.1  1.0  1.0  5  0 300972992
[02]  G06  f 45     96.9 2045999.9  1.0  1.0  5  0 300972995
[03]  G09  f 37    657.3 2045999.1  1.0  0.9  5  0 300972991
[04]  G12  f 47    409.3 2045999.5  1.0  1.0  5  0 300972988
[06]  G25  f 40  -1247.9 2046001.6  1.0  1.0  5  0 300972982
[16]  B05 1f 32   -348.3 4092000.8  0.9  0.0  2  0 300958931
[17]  B12  1  7  -3021.6 4092008.2 -0.0  0.0  1  0       787
$GNGGA,000000.000,,,,,0,00,,,M,,,,0000*2B
$GNRMC,000000.000,A,,,,,,,000000,,*26
$GPGSA,A,1,,,,,,,,,,,,,,,*1E
$BDGSA,A,1,,,,,,,,,,,,,,,*0F
$GPGSV,2,1,06,02,00,000,40,05,00,000,41,06,00,000,45,09,00,000,37*70
$GPGSV,2,2,06,12,00,000,47,25,00,000,40*7C
$BDGSV,1,1,01,05,00,000,32*5D
$LOGTIM,0,0.000000,0.000000,0.000000,0.000000,0.000*0A
EndT:        0
---00000023--- Acq_st=3 2019-5-22 11:35:58 
[00]  G02  f 41  -1712.8 2046002.2  1.0  1.0  5  0 300973992
[01]  G05  f 40  -2387.3 2046003.2  1.0  1.0  5  0 300973992
[02]  G06  f 45    100.0 2045999.9  1.0  1.0  5  0 300973995
[03]  G09  f 37    661.7 2045999.1  1.0  0.9  5  0 300973991
[04]  G12  f 47    412.9 2045999.4  1.0  1.0  5  0 300973988
[06]  G25  f 40  -1244.1 2046001.6  1.0  1.0  5  0 300973982
[16]  B05 1f 31   -344.8 4092001.0  0.8  0.0  2  0 300959931
[17]  B12  1  7  -3018.1 4092007.6  0.0  0.0  1  0      1787
$GNGGA,000000.000,,,,,0,00,,,M,,,,0000*2B
$GNRMC,000000.000,A,,,,,,,000000,,*26
$GPGSA,A,1,,,,,,,,,,,,,,,*1E
$BDGSA,A,1,,,,,,,,,,,,,,,*0F
$GPGSV,2,1,06,02,00,000,41,05,00,000,40,06,00,000,45,09,00,000,37*70
$GPGSV,2,2,06,12,00,000,47,25,00,000,40*7C
$BDGSV,1,1,01,05,00,000,31*5E
$LOGTIM,0,0.000000,0.000000,0.000000,0.000000,0.000*0A
EndT:        0
---00000024--- Acq_st=3 2019-5-22 11:35:59 
[00]  G02  f 41  -1714.7 2046002.2  1.0  1.0  5  0 300974992
[01]  G05  f 40  -2388.8 2046003.1  1.0  1.0  5  0 300974992
[02]  G06  f 45     98.1 2045999.9  1.0  1.0  5  0 300974995
[03]  G09  f 37    660.1 2045999.1  1.0  1.0  5  0 300974991
[04]  G12  f 47    411.3 2045999.5  1.0  1.0  5  0 300974988
[06]  G25  f 39  -1245.7 2046001.7  1.0  1.0  5  0 300974982
[16]  B05 1f 31   -347.9 4092001.0  0.8  0.0  2  0 300960931
[17]  B12  7 27  -3017.3 4092007.8 -0.1  0.0 20  0      2787
$GNGGA,000000.000,,,,,0,00,,,M,,,,0000*2B
$GNRMC,000000.000,A,,,,,,,000000,,*26
$GPGSA,A,1,,,,,,,,,,,,,,,*1E
$BDGSA,A,1,,,,,,,,,,,,,,,*0F
$GPGSV,2,1,06,02,00,000,41,05,00,000,40,06,00,000,45,09,00,000,37*70
$GPGSV,2,2,06,12,00,000,47,25,00,000,39*72
$BDGSV,1,1,02,05,00,000,31,12,00,000,27*6B
$LOGTIM,0,0.000000,0.000000,0.000000,0.000000,0.000*0A
EndT:        0
---00000025--- Acq_st=3 2019-5-22 11:36:0 
[00]  G02  f 41  -1718.3 2046002.2  1.0  1.0  5  0 300975992
[01]  G05  f 40  -2392.5 2046003.1  1.0  1.0  5  0 300975992
[02]  G06  f 45     94.4 2045999.9  1.0  1.0  5  0 300975995
[03]  G09  f 38    657.1 2045999.1  1.0  1.0  5  0 300975991
[04]  G12  f 47    408.4 2045999.5  1.0  1.0  5  0 300975988
[06]  G25  f 40  -1248.9 2046001.6  1.0  1.0  5  0 300975982
[16]  B05 1f 30   -350.8 4092001.0  0.8  0.0  2  0 300961931
[17]  B12  7 37  -3023.8 4092007.9  1.0  1.0  5  0      3785
$GNGGA,000000.000,,,,,0,00,,,M,,,,0000*2B
$GNRMC,000000.000,A,,,,,,,000000,,*26
$GPGSA,A,1,,,,,,,,,,,,,,,*1E
$BDGSA,A,1,,,,,,,,,,,,,,,*0F
$GPGSV,2,1,06,02,00,000,41,05,00,000,40,06,00,000,45,09,00,000,38*7F
$GPGSV,2,2,06,12,00,000,47,25,00,000,40*7C
$BDGSV,1,1,02,05,00,000,30,12,00,000,37*6B
$LOGTIM,0,0.000000,0.000000,0.000000,0.000000,0.000*0A
EndT:        0
---00000026--- Acq_st=3 2019-5-22 11:36:1 
[00]  G02  f 41  -1721.9 2046002.2  1.0  1.0  5  0 300976992
[01]  G05  f 40  -2394.9 2046003.1  1.0  1.0  5  0 300976992
[02]  G06  f 45     91.5 2045999.9  1.0  1.0  5  0 300976995
[03]  G09  f 38    654.9 2045999.1  1.0  0.9  5  0 300976991
[04]  G12  f 46    405.7 2045999.5  1.0  1.0  5  0 300976988
[06]  G25  f 40  -1251.6 2046001.6  1.0  1.0  5  0 300976982
[16]  B05 1f 30   -354.0 4092000.6  0.8  0.0  2  0 300962931
[17]  B12  7 37  -3027.9 4092008.0  1.0  1.0  5  0      4785
$GNGGA,000000.000,,,,,0,00,,,M,,,,0000*2B
$GNRMC,000000.000,A,,,,,,,000000,,*26
$GPGSA,A,1,,,,,,,,,,,,,,,*1E
$BDGSA,A,1,,,,,,,,,,,,,,,*0F
$GPGSV,2,1,06,02,00,000,41,05,00,000,40,06,00,000,45,09,00,000,38*7F
$GPGSV,2,2,06,12,00,000,46,25,00,000,40*7D
$BDGSV,1,1,02,05,00,000,30,12,00,000,37*6B
$LOGTIM,0,0.000000,0.000000,0.000000,0.000000,0.000*0A
EndT:        0
---00000027--- Acq_st=3 2019-5-22 11:36:2 
[00]  G02  f 41  -1716.9 2046002.2  1.0  1.0  5  0 300977992
[01]  G05  f 40  -2390.2 2046003.1  1.0  1.0  5  0 300977992
[02]  G06  f 46     96.3 2045999.9  1.0  1.0  5  0 300977995
[03]  G09  f 37    660.1 2045999.1  1.0  1.0  5  0 300977991
[04]  G12  f 47    410.6 2045999.5  1.0  1.0  5  0 300977988
[06]  G25  f 40  -1246.4 2046001.6  1.0  1.0  5  0 300977982
[16]  B05 1f 31   -349.2 4092001.0  0.8  0.0  2  0 300963931
[17]  B12  7 37  -3022.5 4092007.9  1.0  1.0  5  0      5785
lsq: nits= 4
$GNGGA,113601.065,3112.7052,N,12136.4295,E,1,05,2.1,68.6,M,,,,0000*24
$GNRMC,113601.065,A,3112.7052,N,12136.4295,E,0.13,0.00,220519,,*19
$GPGSA,A,3,02,05,06,09,12,,,,,,,,4.5,2.1,4.0*3F
$BDGSA,A,3,,,,,,,,,,,,,4.5,2.1,4.0*25
$GPGSV,2,1,06,02,00,000,41,05,00,000,40,06,00,000,46,09,00,000,37*73
$GPGSV,2,2,06,12,00,000,47,25,00,000,40*7C
$BDGSV,1,1,02,05,00,000,31,12,00,000,37*6A
$LOGTIM,1,8945729.099431,0.000000,0.000000,0.000000,-65.510*1B
EndT:        1
---00000028--- Acq_st=3 2019-5-22 11:36:1 
[00]  G02  f 41  -1715.8 2046002.2  1.0  1.0  5  0 300978992
[01]  G05  f 40  -2389.1 2046003.1  1.0  1.0  5  0 300978992
[02]  G06  f 46     97.0 2045999.9  1.0  1.0  5  0 300978995
[03]  G09  f 38    660.9 2045999.2  1.0  1.0  5  0 300978991
[04]  G12  f 46    411.7 2045999.5  1.0  1.0  5  0 300978988
[06]  G25  f 39  -1245.0 2046001.6  1.0  1.0  5  0 300978982
[16]  B05 1f 31   -348.5 4092000.8  0.8  0.0  2  0 300964931
[17]  B12  7 37  -3021.5 4092007.9  1.0  0.9  5  0      6785
lsq: nits= 2
$GNGGA,113603.000,3112.7051,N,12136.4280,E,1,05,2.1,67.6,M,,,,0000*2D
$GNRMC,113603.000,A,3112.7051,N,12136.4280,E,0.28,0.00,220519,,*17
$GPGSA,A,3,02,05,06,09,12,,,,,,,,4.5,2.1,4.0*3F
$BDGSA,A,3,,,,,,,,,,,,,4.5,2.1,4.0*25
$GPGSV,2,1,06,02,00,000,41,05,00,000,40,06,00,000,46,09,00,000,38*7C
$GPGSV,2,2,06,12,00,000,46,25,00,000,39*73
$BDGSV,1,1,02,05,00,000,31,12,00,000,37*6A
$LOGTIM,1,-126.811751,0.000000,0.000000,0.000000,-65.578*3C
EndT:        2
---00000029--- Acq_st=3 2019-5-22 11:36:3 
[00]  G02  f 41  -1716.0 2046002.2  1.0  1.0  5  0 300980926
[01]  G05  f 39  -2388.7 2046003.1  1.0  1.0  5  0 300980927
[02]  G06  f 46     97.3 2045999.9  1.0  1.0  5  0 300980929
[03]  G09  f 37    661.1 2045999.1  1.0  1.0  5  0 300980926
[04]  G12  f 46    412.4 2045999.5  1.0  1.0  5  0 300980923
[06]  G25  f 40  -1244.7 2046001.6  1.0  1.0  5  0 300980916
[16]  B05 1f 31   -348.6 4092001.0  0.8  0.0  2  0 300966866
[17]  B12  7 37  -3021.9 4092007.9  1.0  1.0  5  0      8720
lsq: nits= 2
$GNGGA,113604.000,3112.7045,N,12136.4284,E,1,05,2.1,67.7,M,,,,0000*2A
$GNRMC,113604.000,A,3112.7045,N,12136.4284,E,0.16,0.00,220519,,*1C
$GPGSA,A,3,02,05,06,09,12,,,,,,,,4.5,2.1,4.0*3F
$BDGSA,A,3,,,,,,,,,,,,,4.5,2.1,4.0*25
$GPGSV,2,1,06,02,50,325,41,05,43,248,39,06,55,040,46,09,38,066,37*7A
$GPGSV,2,2,06,12,27,277,46,25,00,000,40*7A
$BDGSV,1,1,02,05,00,000,32,12,00,000,37*69
$LOGTIM,1,-192.558944,0.000000,0.000000,0.000000,-65.540*32
EndT:        2
---00000030--- Acq_st=3 2019-5-22 11:36:4 
[00]  G02  f 42  -1715.7 2046002.2  1.0  1.0  5  0 300981926
[01]  G05  f 40  -2387.8 2046003.1  1.0  1.0  5  0 300981927
[02]  G06  f 46     97.9 2045999.9  1.0  1.0  5  0 300981929
[03]  G09  f 37    662.8 2045999.2  1.0  0.9  5  0 300981926
[04]  G12  f 47    413.5 2045999.5  1.0  1.0  5  0 300981923
[06]  G25  f 40  -1243.7 2046001.6  1.0  1.0  5  0 300981916
[16]  B05 1f 32   -348.6 4092001.0  0.8  0.0  2  0 300967866
[17]  B12 1f 37  -3021.5 4092007.9  1.0  1.0  5  0 300967920
lsq: nits= 2
$GNGGA,113605.000,3112.7039,N,12136.4285,E,1,05,2.1,67.3,M,,,,0000*25
$GNRMC,113605.000,A,3112.7039,N,12136.4285,E,0.32,0.00,220519,,*11
$GPGSA,A,3,02,05,06,09,12,,,,,,,,4.5,2.1,4.0*3F
$BDGSA,A,3,,,,,,,,,,,,,4.5,2.1,4.0*25
$GPGSV,2,1,06,02,50,325,42,05,43,248,40,06,55,040,46,09,38,066,37*77
$GPGSV,2,2,06,12,27,277,47,25,00,000,40*7B
$BDGSV,1,1,02,05,00,000,32,12,00,000,37*69
$LOGTIM,1,-258.602139,0.000000,0.000000,0.000000,-65.245*3B
EndT:        2
---00000031--- Acq_st=3 2019-5-22 11:36:5 
[00]  G02  f 41  -1713.5 2046002.2  1.0  1.0  5  0 300982926
[01]  G05  f 40  -2385.1 2046003.1  1.0  1.0  5  0 300982927
[02]  G06  f 46    100.5 2045999.9  1.0  1.0  5  0 300982929
[03]  G09  f 37    665.7 2045999.1  1.0  1.0  5  0 300982926
[04]  G12  f 46    416.7 2045999.5  1.0  1.0  5  0 300982923
[06]  G25  f 39  -1240.6 2046001.6  1.0  1.0  5  0 300982916
[16]  B05 1f 31   -345.0 4092001.0  0.8  0.0  2  0 300968866
[17]  B12 1f 37  -3018.7 4092007.9  1.0  1.0  5  0 300968920
lsq: nits= 2
$GNGGA,113606.000,3112.7032,N,12136.4289,E,1,05,2.1,66.6,M,,,,0000*25
$GNRMC,113606.000,A,3112.7032,N,12136.4289,E,0.27,0.00,220519,,*11
$GPGSA,A,3,02,05,06,09,12,,,,,,,,4.5,2.1,4.0*3F
$BDGSA,A,3,,,,,,,,,,,,,4.5,2.1,4.0*25
$GPGSV,2,1,06,02,50,325,41,05,43,248,40,06,55,040,46,09,38,066,37*74
$GPGSV,2,2,06,12,27,277,46,25,00,000,39*74
$BDGSV,1,1,02,05,00,000,31,12,00,000,37*6A
$LOGTIM,1,-324.955907,0.000000,0.000000,0.000000,-65.183*30
EndT:        2
---00000032--- Acq_st=3 2019-5-22 11:36:6 
[00]  G02  f 42  -1713.3 2046002.2  1.0  1.0  5  0 300983926
[01]  G05  f 40  -2384.8 2046003.1  1.0  0.9  5  0 300983927
[02]  G06  f 46    100.5 2045999.9  1.0  1.0  5  0 300983929
[03]  G09  f 37    665.9 2045999.1  1.0  1.0  5  0 300983926
[04]  G12  f 46    416.6 2045999.5  1.0  1.0  5  0 300983923
[06]  G25  f 39  -1240.5 2046001.7  1.0  1.0  5  0 300983916
[16]  B05 1f 31   -345.7 4092000.9  0.9  0.0  2  0 300969866
[17]  B12 1f 38  -3018.3 4092007.9  1.0  1.0  5  0 300969920
lsq: nits= 2
$GNGGA,113607.000,3112.7029,N,12136.4292,E,1,05,2.1,65.9,M,,,,0000*28
$GNRMC,113607.000,A,3112.7029,N,12136.4292,E,0.40,0.00,220519,,*11
$GPGSA,A,3,02,05,06,09,12,,,,,,,,4.5,2.1,4.0*3F
$BDGSA,A,3,,,,,,,,,,,,,4.5,2.1,4.0*25
$GPGSV,2,1,06,02,50,325,42,05,43,248,40,06,55,040,46,09,38,066,37*77
$GPGSV,2,2,06,12,27,277,46,25,00,000,39*74
$BDGSV,1,1,02,05,00,000,31,12,00,000,38*65
$LOGTIM,1,-391.204367,0.000000,0.000000,0.000000,-64.920*3D
EndT:        2
---00000033--- Acq_st=3 2019-5-22 11:36:7 
[00]  G02  f 41  -1710.3 2046002.2  1.0  1.0  5  0 300984926
[01]  G05  f 39  -2382.2 2046003.1  1.0  1.0  5  0 300984927
[02]  G06  f 46    103.1 2045999.9  1.0  1.0  5  0 300984929
[03]  G09  f 38    669.4 2045999.1  1.0  0.9  5  0 300984926
[04]  G12  f 46    419.9 2045999.5  1.0  1.0  5  0 300984923
[06]  G25  f 40  -1237.4 2046001.6  1.0  1.0  5  0 300984916
[16]  B05 1f 30   -343.6 4092001.0  0.8  0.0  2  0 300970866
[17]  B12 1f 38  -3016.2 4092007.9  1.0  1.0  5  0 300970920
lsq: nits= 2
$GNGGA,113608.000,3112.7032,N,12136.4297,E,1,05,2.1,65.0,M,,,,0000*21
$GNRMC,113608.000,A,3112.7032,N,12136.4297,E,0.38,0.00,220519,,*1E
$GPGSA,A,3,02,05,06,09,12,,,,,,,,4.5,2.1,4.0*3F
$BDGSA,A,3,,,,,,,,,,,,,4.5,2.1,4.0*25
$GPGSV,2,1,06,02,50,325,41,05,43,248,39,06,55,040,46,09,38,066,38*75
$GPGSV,2,2,06,12,27,277,46,25,00,000,40*7A
$BDGSV,1,1,02,05,00,000,30,12,00,000,38*64
$LOGTIM,1,-457.062194,0.000000,0.000000,0.000000,-64.877*3F
EndT:        2
---00000034--- Acq_st=3 2019-5-22 11:36:8 
[00]  G02  f 41  -1711.0 2046002.3  1.0  1.0  5  0 300985926
[01]  G05  f 40  -2381.5 2046003.1  1.0  1.0  5  0 300985927
[02]  G06  f 46    103.2 2045999.9  1.0  1.0  5  0 300985929
[03]  G09  f 38    670.0 2045999.1  1.0  1.0  5  0 300985926
[04]  G12  f 46    420.4 2045999.4  1.0  1.0  5  0 300985923
[06]  G25  f 40  -1236.8 2046001.6  1.0  1.0  5  0 300985916
[16]  B05 1f 32   -343.2 4092001.0  0.8  0.0  2  0 300971866
[17]  B12 1f 38  -3016.4 4092008.0  1.0  1.0  5  0 300971920
lsq: nits= 2
$GNGGA,113609.000,3112.7036,N,12136.4299,E,1,05,2.1,64.6,M,,,,0000*2D
$GNRMC,113609.000,A,3112.7036,N,12136.4299,E,0.30,0.00,220519,,*1D
$GPGSA,A,3,02,05,06,09,12,,,,,,,,4.5,2.1,4.0*3F
$BDGSA,A,3,,,,,,,,,,,,,4.5,2.1,4.0*25
$GPGSV,2,1,06,02,50,325,41,05,43,248,40,06,55,040,46,09,38,066,38*7B
$GPGSV,2,2,06,12,27,277,46,25,00,000,40*7A
$BDGSV,1,1,02,05,00,000,32,12,00,000,38*66
$LOGTIM,1,-522.470008,0.000000,0.000000,0.000000,-64.854*3E
EndT:        2
---00000035--- Acq_st=3 2019-5-22 11:36:9 
[00]  G02  f 42  -1711.2 2046002.2  1.0  1.0  5  0 300986926
[01]  G05  f 39  -2381.9 2046003.1  1.0  1.0  5  0 300986927
[02]  G06  f 46    102.7 2045999.9  1.0  1.0  5  0 300986929
[03]  G09  f 38    669.9 2045999.1  1.0  0.9  5  0 300986926
[04]  G12  f 46    420.1 2045999.5  1.0  1.0  5  0 300986923
[06]  G25  f 40  -1236.5 2046001.6  1.0  1.0  5  0 300986916
[16]  B05 1f 31   -343.9 4092000.9  0.9  0.0  2  0 300972866
[17]  B12 1f 38  -3016.7 4092007.9  1.0  1.0  5  0 300972920
lsq: nits= 2
$GNGGA,113610.000,3112.7040,N,12136.4299,E,1,05,2.1,63.8,M,,,,0000*2D
$GNRMC,113610.000,A,3112.7040,N,12136.4299,E,0.24,0.00,220519,,*11
$GPGSA,A,3,02,05,06,09,12,,,,,,,,4.5,2.1,4.0*3F
$BDGSA,A,3,,,,,,,,,,,,,4.5,2.1,4.0*25
$GPGSV,2,1,06,02,50,325,42,05,43,248,39,06,55,040,46,09,38,066,38*76
$GPGSV,2,2,06,12,27,277,46,25,00,000,40*7A
$BDGSV,1,1,02,05,00,000,32,12,00,000,38*66
$LOGTIM,1,-588.076609,0.000000,0.000000,0.000000,-64.975*39
EndT:        2
---00000036--- Acq_st=7 2019-5-22 11:36:10 
[00]  G02  f 41  -1711.6 2046002.2  1.0  1.0  5  0 300987926
[01]  G05  f 39  -2382.7 2046003.1  1.0  1.0  5  0 300987927
[02]  G06  f 46    102.4 2045999.9  1.0  1.0  5  0 300987929
[03]  G09  f 38    669.8 2045999.1  1.0  1.0  5  0 300987926
[04]  G12  f 46    420.1 2045999.5  1.0  1.0  5  0 300987923
[06]  G25  f 40  -1237.1 2046001.6  1.0  1.0  5  0 300987916
[16]  B05 1f 34   -345.0 4092000.9  0.9  0.0  2  0 300973866
[17]  B12 1f 39  -3017.4 4092007.9  1.0  1.0  5  0 300973920
lsq: nits= 2
$GNGGA,113611.000,3112.7045,N,12136.4288,E,1,05,2.1,62.7,M,,,,0000*27
$GNRMC,113611.000,A,3112.7045,N,12136.4288,E,0.32,0.00,220519,,*12
$GPGSA,A,3,02,05,06,09,12,,,,,,,,4.5,2.1,4.0*3F
$BDGSA,A,3,,,,,,,,,,,,,4.5,2.1,4.0*25
$GPGSV,2,1,06,02,50,325,41,05,43,248,39,06,55,040,46,09,38,066,38*75
$GPGSV,2,2,06,12,27,277,46,25,00,000,40*7A
$BDGSV,1,1,02,05,00,000,34,12,00,000,39*61
$LOGTIM,1,-654.151504,0.000000,0.000000,0.000000,-65.421*3C
EndT:        2
---00000037--- Acq_st=7 2019-5-22 11:36:11 
[00]  G02  f 41  -1715.9 2046002.2  1.0  1.0  5  0 300988926
[01]  G05  f 38  -2386.3 2046003.1  1.0  1.0  5  0 300988927
[02]  G06  f 46     98.4 2045999.9  1.0  1.0  5  0 300988929
[03]  G09  f 38    666.0 2045999.1  1.0  1.0  5  0 300988926
[04]  G12  f 45    416.8 2045999.5  1.0  1.0  5  0 300988923
[06]  G25  f 40  -1240.1 2046001.6  1.0  1.0  5  0 300988916
[16]  B05 1f 34   -348.6 4092000.9  0.9  0.0  2  0 300974866
[17]  B12 1f 40  -3021.1 4092007.9  1.0  1.0  5  0 300974920
lsq: nits= 2
$GNGGA,113612.000,3112.7054,N,12136.4276,E,1,05,2.1,61.8,M,,,,0000*29
$GNRMC,113612.000,A,3112.7054,N,12136.4276,E,0.39,0.00,220519,,*1B
$GPGSA,A,3,02,05,06,09,12,,,,,,,,4.5,2.1,4.0*3F
$BDGSA,A,3,,,,,,,,,,,,,4.5,2.1,4.0*25
$GPGSV,2,1,06,02,50,325,41,05,43,248,38,06,55,040,46,09,38,066,38*74
$GPGSV,2,2,06,12,27,277,45,25,00,000,40*79
$BDGSV,1,1,02,05,00,000,34,12,00,000,40*6F
$LOGTIM,1,-720.006781,0.000000,0.000000,0.000000,-65.523*31
EndT:        2
---00000038--- Acq_st=3 2019-5-22 11:36:12 
[00]  G02  f 41  -1715.5 2046002.2  1.0  1.0  5  0 300989926
[01]  G05  f 38  -2385.4 2046003.1  1.0  1.0  5  0 300989927
[02]  G06  f 46     99.3 2045999.8  1.0  1.0  5  0 300989929
[03]  G09  f 38    668.0 2045999.1  1.0  1.0  5  0 300989926
[04]  G12  f 45    417.8 2045999.5  1.0  1.0  5  0 300989923
[06]  G25  f 40  -1239.5 2046001.6  1.0  1.0  5  0 300989916
[16]  B05 1f 35   -348.7 4092000.8  0.9  0.0  2  0 300975866
[17]  B12 1f 40  -3020.2 4092007.9  1.0  1.0  5  0 300975920
lsq: nits= 2
$GNGGA,113613.000,3112.7062,N,12136.4261,E,1,05,2.1,60.1,M,,,,0000*23
$GNRMC,113613.000,A,3112.7062,N,12136.4261,E,0.37,0.00,220519,,*17
$GPGSA,A,3,02,05,06,09,12,,,,,,,,4.5,2.1,4.0*3F
$BDGSA,A,3,,,,,,,,,,,,,4.5,2.1,4.0*25
$GPGSV,2,1,06,02,50,325,41,05,43,248,38,06,55,040,46,09,38,066,38*74
$GPGSV,2,2,06,12,27,277,45,25,00,000,40*79
$BDGSV,1,1,02,05,00,000,34,12,00,000,40*6F
$LOGTIM,1,-785.920328,0.000000,0.000000,0.000000,-65.462*30
EndT:        2
---00000039--- Acq_st=3 2019-5-22 11:36:13 
[00]  G02  f 41  -1714.2 2046002.2  1.0  1.0  5  0 300990926
[01]  G05  f 38  -2383.5 2046003.1  1.0  1.0  5  0 300990927
[02]  G06  f 47    100.4 2045999.9  1.0  1.0  5  0 300990929
[03]  G09  f 39    669.3 2045999.2  1.0  1.0  5  0 300990926
[04]  G12  f 45    419.3 2045999.5  1.0  1.0  5  0 300990923
[06]  G25  f 41  -1237.3 2046001.6  1.0  1.0  5  0 300990916
[16]  B05 1f 34   -346.8 4092000.9  0.9  0.0  2  0 300976866
[17]  B12 1f 40  -3019.3 4092007.9  1.0  1.0  5  0 300976920
lsq: nits= 2
$GNGGA,113614.000,3112.7065,N,12136.4250,E,1,05,2.1,58.2,M,,,,0000*29
$GNRMC,113614.000,A,3112.7065,N,12136.4250,E,0.22,0.00,220519,,*11
$GPGSA,A,3,02,05,06,09,12,,,,,,,,4.5,2.1,4.0*3F
$BDGSA,A,3,,,,,,,,,,,,,4.5,2.1,4.0*25
$GPGSV,2,1,06,02,50,325,41,05,43,248,38,06,55,040,47,09,38,066,39*74
$GPGSV,2,2,06,12,27,277,45,25,00,000,41*78
$BDGSV,1,1,02,05,00,000,34,12,00,000,40*6F
$LOGTIM,1,-851.513710,0.000000,0.000000,0.000000,-65.243*30
EndT:        2
---00000040--- Acq_st=3 2019-5-22 11:36:14 
[00]  G02  f 41  -1712.3 2046002.2  1.0  1.0  5  0 300991926
[01]  G05  f 37  -2381.5 2046003.1  1.0  1.0  5  0 300991927
[02]  G06  f 47    102.4 2045999.9  1.0  1.0  5  0 300991929
[03]  G09  f 39    670.9 2045999.1  1.0  1.0  5  0 300991926
[04]  G12  f 45    421.5 2045999.4  1.0  1.0  5  0 300991923
[06]  G25  f 41  -1235.3 2046001.6  1.0  1.0  5  0 300991916
[16]  B05 1f 35   -345.4 4092001.1  0.9  0.0  2  0 300977866
[17]  B12 1f 40  -3017.8 4092007.9  1.0  1.0  5  0 300977920
lsq: nits= 2
$GNGGA,113615.000,3112.7064,N,12136.4245,E,1,05,2.1,56.7,M,,,,0000*26
$GNRMC,113615.000,A,3112.7064,N,12136.4245,E,0.31,0.00,220519,,*17
$GPGSA,A,3,02,05,06,09,12,,,,,,,,4.5,2.1,4.0*3F
$BDGSA,A,3,,,,,,,,,,,,,4.5,2.1,4.0*25
$GPGSV,2,1,06,02,50,325,42,05,43,248,37,06,55,040,47,09,38,066,39*78
$GPGSV,2,2,06,12,27,277,45,25,00,000,41*78
$BDGSV,1,1,02,05,00,000,35,12,00,000,40*6E
$LOGTIM,1,-916.688727,0.000000,0.000000,0.000000,-65.272*35
EndT:        2
---00000041--- Acq_st=3 2019-5-22 11:36:15 
[00]  G02  f 41  -1713.1 2046002.2  1.0  1.0  5  0 300992926
[01]  G05  f 37  -2382.1 2046003.1  1.0  1.0  5  0 300992927
[02]  G06  f 47    101.4 2045999.9  1.0  1.0  5  0 300992929
[03]  G09  f 38    671.4 2045999.1  1.0  1.0  5  0 300992926
[04]  G12  f 45    421.2 2045999.5  1.0  1.0  5  0 300992923
[06]  G25  f 40  -1235.6 2046001.6  1.0  1.0  5  0 300992917
[16]  B05 1f 35   -346.9 4092000.7  0.9  0.0  2  0 300978866
[17]  B12 1f 40  -3018.4 4092007.9  1.0  1.0  5  0 300978920
lsq: nits= 2
$GNGGA,113616.000,3112.7062,N,12136.4245,E,1,05,2.1,56.2,M,,,,0000*26
$GNRMC,113616.000,A,3112.7062,N,12136.4245,E,0.56,0.00,220519,,*13
$GPGSA,A,3,02,05,06,09,12,,,,,,,,4.5,2.1,4.0*3F
$BDGSA,A,3,,,,,,,,,,,,,4.5,2.1,4.0*25
$GPGSV,2,1,06,02,50,325,41,05,43,248,37,06,55,040,47,09,38,066,38*7A
$GPGSV,2,2,06,12,27,277,45,25,00,000,40*79
$BDGSV,1,1,02,05,00,000,35,12,00,000,40*6E
$LOGTIM,1,-981.777001,0.000000,0.000000,0.000000,-65.621*3B
EndT:        2
---00000042--- Acq_st=3 2019-5-22 11:36:16 
[00]  G02  f 42  -1717.1 2046002.2  1.0  1.0  5  0 300993926
[01]  G05  f 36  -2385.3 2046003.1  1.0  1.0  5  0 300993927
[02]  G06  f 47     98.4 2045999.9  1.0  1.0  5  0 300993929
[03]  G09  f 37    668.4 2045999.2  1.0  1.0  5  0 300993926
[04]  G12  f 46    418.3 2045999.4  1.0  1.0  5  0 300993923
[06]  G25  f 41  -1238.6 2046001.6  1.0  1.0  5  0 300993917
[16]  B05 1f 34   -350.2 4092000.7  0.9  0.0  2  0 300979866
[17]  B12 1f 40  -3021.3 4092007.9  1.0  1.0  5  0 300979920
---00000043--- Acq_st=3 2019-5-22 11:36:16 
[00]  G02  f 41  -1715.8 2046002.2  1.0  1.0  5  0 300993926
[01]  G05  f 36  -2384.0 2046003.2  1.0  1.0  5  0 300993927
[02]  G06  f 47     99.6 2045999.9  1.0  1.0  5  0 300993929
[03]  G09  f 38    669.8 2045999.2  1.0  1.0  5  0 300993926
[04]  G12  f 46    420.0 2045999.5  1.0  1.0  5  0 300993923
[06]  G25  f 40  -1236.6 2046001.6  1.0  1.0  5  0 300993917
[16]  B05 1f 34   -349.2 4092001.0  0.9  0.0  2  0 300979866
[17]  B12 1f 40  -3020.9 4092007.9  1.0  1.0  5  0 300979920
lsq: nits= 2
$GNGGA,113617.000,3112.7059,N,12136.4247,E,1,05,2.1,56.8,M,,,,0000*27
$GNRMC,113617.000,A,3112.7059,N,12136.4247,E,0.38,0.00,220519,,*10
$GPGSA,A,3,02,05,06,09,12,,,,,,,,4.5,2.1,4.0*3F
$BDGSA,A,3,,,,,,,,,,,,,4.5,2.1,4.0*25
$GPGSV,2,1,06,02,50,325,41,05,43,248,36,06,55,040,47,09,38,066,38*7B
$GPGSV,2,2,06,12,27,277,46,25,00,000,40*7A
$BDGSV,1,1,02,05,00,000,34,12,00,000,40*6F
$LOGTIM,1,-1046.617383,0.000000,0.000000,0.000000,-65.569*09
EndT:        2
---00000044--- Acq_st=3 2019-5-22 11:36:17 
[00]  G02  f 42  -1713.0 2046002.2  1.0  1.0  5  0 300994926
[01]  G05  f 36  -2381.0 2046003.1  1.0  1.0  5  0 300994927
[02]  G06  f 47    102.4 2045999.9  1.0  1.0  5  0 300994929
[03]  G09  f 38    673.1 2045999.1  1.0  1.0  5  0 300994926
[04]  G12  f 46    423.4 2045999.4  1.0  1.0  5  0 300994923
[05]  G23  1 23   2117.0 2045998.1  0.1  0.0  1  0         4
[06]  G25  f 41  -1233.9 2046001.6  1.0  1.0  5  0 300994917
[16]  B05 1f 35   -345.8 4092000.8  0.9  0.0  2  0 300980866
[17]  B12 1f 40  -3018.0 4092007.9  1.0  1.0  5  0 300980920
lsq: nits= 2
$GNGGA,113618.000,3112.7057,N,12136.4249,E,1,05,2.1,58.8,M,,,,0000*26
$GNRMC,113618.000,A,3112.7057,N,12136.4249,E,0.13,0.00,220519,,*16
$GPGSA,A,3,02,05,06,09,12,,,,,,,,4.5,2.1,4.0*3F
$BDGSA,A,3,,,,,,,,,,,,,4.5,2.1,4.0*25
$GPGSV,2,1,06,02,50,325,42,05,43,248,36,06,55,040,47,09,38,066,38*78
$GPGSV,2,2,06,12,27,277,46,25,00,000,41*7B
$BDGSV,1,1,02,05,00,000,35,12,00,000,40*6E
$LOGTIM,1,-1110.405488,0.000000,0.000000,0.000000,-65.201*0F
EndT:        2
---00000045--- Acq_st=3 2019-5-22 11:36:18 
[00]  G02  f 41  -1712.5 2046002.2  1.0  1.0  5  0 300995926
[01]  G05  f 36  -2379.5 2046003.1  1.0  1.0  5  0 300995927
[02]  G06  f 47    103.3 2045999.9  1.0  1.0  5  0 300995929
[03]  G09  f 38    674.4 2045999.1  1.0  1.0  5  0 300995926
[04]  G12  f 46    424.7 2045999.5  1.0  1.0  5  0 300995923
[06]  G25  f 41  -1232.5 2046001.6  1.0  1.0  5  0 300995917
[16]  B05 1f 34   -346.4 4092000.8  0.9  0.0  2  0 300981866
[17]  B12 1f 40  -3017.2 4092007.8  1.0  1.0  5  0 300981920
lsq: nits= 2
$GNGGA,113619.000,3112.7060,N,12136.4252,E,1,06,1.8,59.8,M,,,,0000*21
$GNRMC,113619.000,A,3112.7060,N,12136.4252,E,0.17,0.00,220519,,*1D
$GPGSA,A,3,02,05,06,09,12,25,,,,,,,3.0,1.8,2.4*32
$BDGSA,A,3,,,,,,,,,,,,,3.0,1.8,2.4*2F
$GPGSV,2,1,06,02,50,325,41,05,43,248,36,06,55,040,47,09,38,066,38*7B
$GPGSV,2,2,06,12,27,277,46,25,00,000,41*7B
$BDGSV,1,1,02,05,00,000,34,12,00,000,40*6F
$LOGTIM,1,-1174.850130,0.000000,0.000000,0.000000,-64.993*06
EndT:        2
---00000046--- Acq_st=3 2019-5-22 11:36:19 
[00]  G02  f 42  -1713.8 2046002.3  1.0  1.0  5  0 300996926
[01]  G05  f 36  -2380.7 2046003.1  1.0  1.0  5  0 300996927
[02]  G06  f 46    101.9 2045999.9  1.0  1.0  5  0 300996929
[03]  G09  f 38    673.6 2045999.1  1.0  1.0  5  0 300996926
[04]  G12  f 46    423.9 2045999.5  1.0  1.0  5  0 300996923
[06]  G25  f 40  -1233.3 2046001.6  1.0  1.0  5  0 300996917
[16]  B05 1f 34   -347.4 4092000.7  0.9  0.0  2  0 300982866
[17]  B12 1f 40  -3018.5 4092007.9  1.0  1.0  5  0 300982920
lsq: nits= 2
$GNGGA,113620.000,3112.7063,N,12136.4256,E,1,06,1.8,61.9,M,,,,0000*26
$GNRMC,113620.000,A,3112.7063,N,12136.4256,E,0.09,0.00,220519,,*1F
$GPGSA,A,3,02,05,06,09,12,25,,,,,,,3.0,1.8,2.4*32
$BDGSA,A,3,,,,,,,,,,,,,3.0,1.8,2.4*2F
$GPGSV,2,1,06,02,50,325,42,05,43,248,36,06,55,040,46,09,38,066,38*79
$GPGSV,2,2,06,12,27,277,46,25,09,310,40*71
$BDGSV,1,1,02,05,00,000,34,12,00,000,40*6F
$LOGTIM,1,-1239.255850,0.000000,0.000000,0.000000,-65.090*07
EndT:        2
---00000047--- Acq_st=3 2019-5-22 11:36:20 
[00]  G02  f 41  -1712.2 2046002.2  1.0  1.0  5  0 300997926
[01]  G05  f 36  -2378.2 2046003.1  1.0  1.0  5  0 300997927
[02]  G06  f 47    104.0 2045999.9  1.0  1.0  5  0 300997929
[03]  G09  f 38    676.4 2045999.2  1.0  1.0  5  0 300997926
[04]  G12  f 46    426.0 2045999.4  1.0  1.0  5  0 300997923
[06]  G25  f 41  -1230.8 2046001.6  1.0  1.0  5  0 300997917
[16]  B05 1f 34   -345.1 4092001.0  0.9  0.0  2  0 300983866
[17]  B12 1f 40  -3016.7 4092007.9  1.0  1.0  5  0 300983920
lsq: nits= 2
$GNGGA,113621.000,3112.7067,N,12136.4260,E,1,06,1.8,63.2,M,,,,0000*2F
$GNRMC,113621.000,A,3112.7067,N,12136.4260,E,0.12,0.00,220519,,*15
$GPGSA,A,3,02,05,06,09,12,25,,,,,,,3.0,1.8,2.4*32
$BDGSA,A,3,,,,,,,,,,,,,3.0,1.8,2.4*2F
$GPGSV,2,1,06,02,50,325,41,05,43,248,36,06,55,040,47,09,38,066,38*7B
$GPGSV,2,2,06,12,27,277,46,25,09,310,41*70
$BDGSV,1,1,02,05,00,000,34,12,00,000,40*6F
$LOGTIM,1,-1304.138167,0.000000,0.000000,0.000000,-64.884*01
EndT:        2
---00000048--- Acq_st=3 2019-5-22 11:36:21 
[00]  G02  f 41  -1714.2 2046002.2  1.0  1.0  5  0 300998926
[01]  G05  f 37  -2380.4 2046003.2  1.0  1.0  5  0 300998927
[02]  G06  f 46    102.1 2045999.9  1.0  1.0  5  0 300998929
[03]  G09  f 38    674.8 2045999.1  1.0  1.0  5  0 300998926
[04]  G12  f 46    424.4 2045999.4  1.0  1.0  5  0 300998923
[06]  G25  f 41  -1232.5 2046001.6  1.0  1.0  5  0 300998917
[16]  B05 1f 34   -347.4 4092000.9  0.9  0.0  2  0 300984866
[17]  B12 1f 40  -3018.7 4092007.9  1.0  1.0  5  0 300984920
lsq: nits= 2
$GNGGA,113622.000,3112.7069,N,12136.4265,E,1,06,1.8,64.6,M,,,,0000*24
$GNRMC,113622.000,A,3112.7069,N,12136.4265,E,0.05,0.00,220519,,*1B
$GPGSA,A,3,02,05,06,09,12,25,,,,,,,3.0,1.8,2.4*32
$BDGSA,A,3,,,,,,,,,,,,,3.0,1.8,2.4*2F
$GPGSV,2,1,06,02,50,325,41,05,43,248,37,06,55,040,46,09,38,066,38*7B
$GPGSV,2,2,06,12,27,277,46,25,09,310,41*70
$BDGSV,1,1,03,05,00,000,34,12,00,000,40,01,48,147,00*51
$LOGTIM,1,-1369.034365,0.000000,0.000000,0.000000,-65.065*01
EndT:        2
---00000049--- Acq_st=3 2019-5-22 11:36:22 
[00]  G02  f 42  -1714.2 2046002.2  1.0  1.0  5  0 300999926
[01]  G05  f 36  -2380.3 2046003.1  1.0  1.0  5  0 300999927
[02]  G06  f 46    101.8 2045999.9  1.0  1.0  5  0 300999929
[03]  G09  f 38    674.8 2045999.1  1.0  1.0  5  0 300999926
[04]  G12  f 46    424.9 2045999.4  1.0  1.0  5  0 300999923
[06]  G25  f 41  -1232.4 2046001.6  1.0  1.0  5  0 300999917
[16]  B05 1f 33   -347.7 4092001.0  0.9  0.0  2  0 300985866
[17]  B12 1f 40  -3018.5 4092007.9  1.0  1.0  5  0 300985920
lsq: nits= 2
$GNGGA,113623.000,3112.7069,N,12136.4271,E,1,06,1.8,64.5,M,,,,0000*23
$GNRMC,113623.000,A,3112.7069,N,12136.4271,E,0.11,0.00,220519,,*1A
$GPGSA,A,3,02,05,06,09,12,25,,,,,,,3.0,1.8,2.4*32
$BDGSA,A,3,,,,,,,,,,,,,3.0,1.8,2.4*2F
$GPGSV,2,1,06,02,50,325,42,05,43,248,36,06,55,041,46,09,38,066,38*78
$GPGSV,2,2,06,12,27,276,46,25,09,310,41*71
$BDGSV,1,1,03,05,00,000,33,12,00,000,40,01,48,147,00*56
$LOGTIM,1,-1434.724871,0.000000,0.000000,0.000000,-65.186*0A
EndT:        2
---00000050--- Acq_st=3 2019-5-22 11:36:23 
[00]  G02  f 42  -1713.6 2046002.2  1.0  1.0  5  0 301000926
[01]  G05  f 37  -2379.6 2046003.1  1.0  1.0  5  0 301000927
[02]  G06  f 47    102.5 2045999.8  1.0  1.0  5  0 301000929
[03]  G09  f 37    675.6 2045999.1  1.0  1.0  5  0 301000926
[04]  G12  f 47    425.5 2045999.5  1.0  1.0  5  0 301000923
[06]  G25  f 41  -1231.5 2046001.6  1.0  1.0  5  0 301000917
[16]  B05 1f 35   -347.6 4092000.8  0.9  0.0  2  0 300986866
[17]  B12 1f 40  -3018.8 4092007.9  1.0  1.0  5  0 300986920
lsq: nits= 2
$GNGGA,113624.000,3112.7070,N,12136.4276,E,1,06,1.8,63.3,M,,,,0000*2A
$GNRMC,113624.000,A,3112.7070,N,12136.4276,E,0.08,0.00,220519,,*1A
$GPGSA,A,3,02,05,06,09,12,25,,,,,,,3.0,1.8,2.4*32
$BDGSA,A,3,,,,,,,,,,,,,3.0,1.8,2.4*2F
$GPGSV,2,1,06,02,50,325,42,05,43,248,37,06,55,041,47,09,38,066,37*77
$GPGSV,2,2,06,12,27,276,47,25,09,310,41*70
$BDGSV,1,1,03,05,00,000,35,12,00,000,40,01,48,147,00*50
$LOGTIM,1,-1500.604536,0.000000,0.000000,0.000000,-65.197*01
EndT:        2
---00000051--- Acq_st=3 2019-5-22 11:36:24 
[00]  G02  f 42  -1719.8 2046002.3  1.0  1.0  5  0 301001926
[01]  G05  f 37  -2384.8 2046003.0  1.0  1.0  5  0 301001927
[02]  G06  f 47     96.7 2045999.9  1.0  1.0  5  0 301001929
[03]  G09  f 37    670.4 2045999.1  1.0  1.0  5  0 301001926
[04]  G12  f 46    420.2 2045999.5  1.0  1.0  5  0 301001923
[06]  G25  f 41  -1236.9 2046001.6  1.0  1.0  5  0 301001917
[16]  B05 1f 34   -353.0 4092000.9  0.9  0.0  2  0 300987866
[17]  B12 1f 40  -3024.5 4092007.9  1.0  1.0  5  0 300987920
lsq: nits= 2
$GNGGA,113625.000,3112.7074,N,12136.4281,E,1,06,1.8,61.3,M,,,,0000*25
$GNRMC,113625.000,A,3112.7074,N,12136.4281,E,0.56,0.00,220519,,*1C
$GPGSA,A,3,02,05,06,09,12,25,,,,,,,3.0,1.8,2.4*32
$BDGSA,A,3,,,,,,,,,,,,,3.0,1.8,2.4*2F
$GPGSV,2,1,06,02,50,325,42,05,43,248,37,06,55,041,47,09,38,066,37*77
$GPGSV,2,2,06,12,27,276,46,25,09,310,41*71
$BDGSV,1,1,03,05,00,000,34,12,00,000,40,01,48,147,00*51
$LOGTIM,1,-1567.230090,0.000000,0.000000,0.000000,-65.895*01
EndT:        2
---00000052--- Acq_st=3 2019-5-22 11:36:25 
[00]  G02  f 41  -1721.7 2046002.3  1.0  1.0  5  0 301002926
[01]  G05  f 38  -2386.1 2046003.1  1.0  1.0  5  0 301002927
[02]  G06  f 47     94.9 2045999.9  1.0  1.0  5  0 301002929
[03]  G09  f 36    669.1 2045999.1  1.0  1.0  5  0 301002926
[04]  G12  f 47    419.3 2045999.4  1.0  1.0  5  0 301002923
[06]  G25  f 40  -1238.3 2046001.6  1.0  1.0  5  0 301002917
[16]  B05 1f 34   -355.0 4092000.9  0.9  0.0  2  0 300988866
[17]  B12 1f 40  -3025.8 4092007.9  1.0  1.0  5  0 300988920
lsq: nits= 2
$GNGGA,113626.000,3112.7074,N,12136.4286,E,1,06,1.8,60.9,M,,,,0000*2A
$GNRMC,113626.000,A,3112.7074,N,12136.4286,E,0.64,0.00,220519,,*19
$GPGSA,A,3,02,05,06,09,12,25,,,,,,,3.0,1.8,2.4*32
$BDGSA,A,3,,,,,,,,,,,,,3.0,1.8,2.4*2F
$GPGSV,2,1,06,02,50,325,41,05,43,248,38,06,55,041,47,09,38,066,36*7A
$GPGSV,2,2,06,12,27,276,47,25,09,310,40*71
$BDGSV,1,1,03,05,00,000,34,12,00,000,40,01,48,147,00*51
$LOGTIM,1,-1633.591523,0.000000,0.000000,0.000000,-66.260*01
EndT:        2
---00000053--- Acq_st=3 2019-5-22 11:36:26 
[00]  G02  f 41  -1716.3 2046002.3  1.0  1.0  5  0 301003926
[01]  G05  f 37  -2380.3 2046003.1  1.0  1.0  5  0 301003927
[02]  G06  f 47    100.7 2045999.9  1.0  1.0  5  0 301003929
[03]  G09  f 36    675.8 2045999.2  1.0  1.0  5  0 301003926
[04]  G12  f 47    425.0 2045999.4  1.0  1.0  5  0 301003923
[06]  G25  f 41  -1231.8 2046001.6  1.0  1.0  5  0 301003917
[16]  B05 1f 35   -349.3 4092000.8  0.9  0.0  2  0 300989866
[17]  B12 1f 39  -3020.8 4092007.9  1.0  1.0  5  0 300989920
lsq: nits= 2
$GNGGA,113627.000,3112.7084,N,12136.4288,E,1,06,1.8,59.8,M,,,,0000*21
$GNRMC,113627.000,A,3112.7084,N,12136.4288,E,0.21,0.00,220519,,*18
$GPGSA,A,3,02,05,06,09,12,25,,,,,,,3.0,1.8,2.4*32
$BDGSA,A,3,,,,,,,,,,,,,3.0,1.8,2.4*2F
$GPGSV,2,1,06,02,50,325,41,05,43,248,37,06,55,041,47,09,38,066,36*75
$GPGSV,2,2,06,12,27,276,47,25,09,310,41*70
$BDGSV,1,1,03,05,00,000,34,12,00,000,39,01,48,147,00*5F
$LOGTIM,1,-1699.685024,0.000000,0.000000,0.000000,-65.759*09
EndT:        2
---00000054--- Acq_st=3 2019-5-22 11:36:27 
[00]  G02  f 42  -1716.3 2046002.2  1.0  1.0  5  0 301004926
[01]  G05  f 37  -2380.4 2046003.1  1.0  1.0  5  0 301004927
[02]  G06  f 47    100.3 2045999.8  1.0  1.0  5  0 301004929
[03]  G09  f 36    675.4 2045999.2  1.0  1.0  5  0 301004926
[04]  G12  f 47    425.3 2045999.4  1.0  1.0  5  0 301004923
[06]  G25  f 41  -1232.0 2046001.6  1.0  1.0  5  0 301004917
[16]  B05 1f 36   -350.3 4092000.9  0.9  0.0  2  0 300990866
[17]  B12 1f 39  -3020.9 4092007.9  1.0  1.0  5  0 300990920
lsq: nits= 2
$GNGGA,113628.000,3112.7097,N,12136.4289,E,1,06,1.8,59.2,M,,,,0000*27
$GNRMC,113628.000,A,3112.7097,N,12136.4289,E,0.27,0.00,220519,,*12
$GPGSA,A,3,02,05,06,09,12,25,,,,,,,3.0,1.8,2.4*32
$BDGSA,A,3,,,,,,,,,,,,,3.0,1.8,2.4*2F
$GPGSV,2,1,06,02,50,325,42,05,43,248,37,06,55,041,47,09,38,066,36*76
$GPGSV,2,2,06,12,27,276,47,25,09,310,41*70
$BDGSV,1,1,03,05,00,000,36,12,00,000,39,01,48,147,00*5D
$LOGTIM,1,-1764.923033,0.000000,0.000000,0.000000,-65.645*03
EndT:        2
---00000055--- Acq_st=3 2019-5-22 11:36:28 
[00]  G02  f 42  -1719.0 2046002.2  1.0  1.0  5  0 301005926
[01]  G05  f 37  -2382.6 2046003.1  1.0  1.0  5  0 301005927
[02]  G06  f 46     98.0 2045999.9  1.0  1.0  5  0 301005929
[03]  G09  f 36    673.8 2045999.2  1.0  1.0  5  0 301005926
[04]  G12  f 47    423.1 2045999.4  1.0  1.0  5  0 301005923
[06]  G25  f 40  -1234.0 2046001.6  1.0  1.0  5  0 301005917
[16]  B05 1f 33   -352.7 4092000.8  0.9  0.0  2  0 300991866
[17]  B12 1f 39  -3023.2 4092008.0  1.0  1.0  5  0 300991920
[18]  B13  1 20   -835.0 4092003.1 -0.1  0.0  1  0         0
lsq: nits= 2
$GNGGA,113629.000,3112.7104,N,12136.4292,E,1,06,1.8,59.6,M,,,,0000*23
$GNRMC,113629.000,A,3112.7104,N,12136.4292,E,0.49,0.00,220519,,*1A
$GPGSA,A,3,02,05,06,09,12,25,,,,,,,3.0,1.8,2.4*32
$BDGSA,A,3,,,,,,,,,,,,,3.0,1.8,2.4*2F
$GPGSV,2,1,06,02,50,325,42,05,43,248,37,06,55,041,46,09,38,066,36*77
$GPGSV,2,2,06,12,27,276,47,25,09,310,40*71
$BDGSV,1,1,03,05,00,000,33,12,00,000,39,01,48,147,00*58
$LOGTIM,1,-1829.925518,0.000000,0.000000,0.000000,-65.897*0E
EndT:        2
---00000056--- Acq_st=3 2019-5-22 11:36:29 
[00]  G02  f 42  -1721.6 2046002.2  1.0  1.0  5  0 301006926
[01]  G05  f 37  -2384.5 2046003.1  1.0  1.0  5  0 301006927
[02]  G06  f 46     95.4 2045999.9  1.0  1.0  5  0 301006929
[03]  G09  f 35    671.4 2045999.2  1.0  0.9  5  0 301006926
[04]  G12  f 47    421.1 2045999.5  1.0  1.0  5  0 301006923
[06]  G25  f 40  -1236.0 2046001.6  1.0  1.0  5  0 301006917
[16]  B05 1f 34   -355.2 4092000.7  0.9  0.0  2  0 300992866
[17]  B12 1f 38  -3025.0 4092008.0  1.0  1.0  5  0 300992920
[18]  B13  7 23   -793.5 4092002.1  0.4  0.0 20  0       615
lsq: nits= 2
$GNGGA,113630.000,3112.7109,N,12136.4294,E,1,06,1.8,59.9,M,,,,0000*2F
$GNRMC,113630.000,A,3112.7109,N,12136.4294,E,0.67,0.00,220519,,*15
$GPGSA,A,3,02,05,06,09,12,25,,,,,,,3.0,1.8,2.4*32
$BDGSA,A,3,,,,,,,,,,,,,3.0,1.8,2.4*2F
$GPGSV,2,1,06,02,50,325,42,05,43,248,37,06,55,041,46,09,38,066,35*74
$GPGSV,2,2,06,12,27,276,47,25,09,310,40*71
$BDGSV,1,1,04,05,00,000,34,12,00,000,38,13,00,000,23,01,48,147,00*6A
$LOGTIM,1,-1895.754162,0.000000,0.000000,0.000000,-66.220*0D
EndT:        3
---00000057--- Acq_st=3 2019-5-22 11:36:30 
[00]  G02  f 42  -1717.4 2046002.2  1.0  1.0  5  0 301007926
[01]  G05  f 38  -2380.4 2046003.0  1.0  1.0  5  0 301007927
[02]  G06  f 46    100.1 2045999.9  1.0  1.0  5  0 301007929
[03]  G09  f 36    676.3 2045999.1  1.0  0.9  5  0 301007926
[04]  G12  f 47    425.9 2045999.5  1.0  1.0  5  0 301007923
[06]  G25  f 40  -1231.2 2046001.6  1.0  1.0  5  0 301007917
[16]  B05 1f 36   -351.2 4092001.1  0.9  0.0  2  0 300993866
[17]  B12 1f 39  -3020.9 4092008.0  1.0  1.0  5  0 300993920
[18]  B13  7 36   -789.3 4092002.0  1.0  1.0  5  0      1615
lsq: nits= 2
$GNGGA,113631.000,3112.7110,N,12136.4298,E,1,06,1.8,59.7,M,,,,0000*24
$GNRMC,113631.000,A,3112.7110,N,12136.4298,E,0.15,0.00,220519,,*15
$GPGSA,A,3,02,05,06,09,12,25,,,,,,,3.0,1.8,2.4*32
$BDGSA,A,3,,,,,,,,,,,,,3.0,1.8,2.4*2F
$GPGSV,2,1,06,02,50,325,42,05,43,248,38,06,55,041,46,09,38,066,36*78
$GPGSV,2,2,06,12,27,276,47,25,09,310,40*71
$BDGSV,1,1,04,05,00,000,36,12,00,000,39,13,00,000,36,01,48,147,00*6D
$LOGTIM,1,-1961.965676,0.000000,0.000000,0.000000,-65.863*07
EndT:        2
---00000058--- Acq_st=3 2019-5-22 11:36:31 
[00]  G02  f 42  -1714.8 2046002.2  1.0  1.0  5  0 301008926
[01]  G05  f 38  -2377.5 2046003.0  1.0  1.0  5  0 301008927
[02]  G06  f 46    102.4 2045999.9  1.0  1.0  5  0 301008929
[03]  G09  f 36    679.2 2045999.2  1.0  0.9  5  0 301008926
[04]  G12  f 47    428.9 2045999.5  1.0  1.0  5  0 301008923
[06]  G25  f 40  -1228.1 2046001.6  1.0  1.0  5  0 301008917
[16]  B05 1f 34   -348.9 4092001.0  0.9  0.0  2  0 300994866
[17]  B12 1f 38  -3018.7 4092007.9  1.0  1.0  5  0 300994920
[18]  B13  7 36   -787.0 4092002.1  1.0  0.9  5  0      2615
lsq: nits= 2
$GNGGA,113632.000,3112.7110,N,12136.4300,E,1,06,1.8,59.1,M,,,,0000*21
$GNRMC,113632.000,A,3112.7110,N,12136.4300,E,0.13,0.00,220519,,*10
$GPGSA,A,3,02,05,06,09,12,25,,,,,,,3.0,1.8,2.4*32
$BDGSA,A,3,,,,,,,,,,,,,3.0,1.8,2.4*2F
$GPGSV,2,1,06,02,50,325,42,05,43,248,38,06,55,041,46,09,38,066,36*78
$GPGSV,2,2,06,12,27,276,47,25,09,310,40*71
$BDGSV,1,1,04,05,00,000,34,12,00,000,38,13,00,000,36,01,48,147,00*6E
$LOGTIM,1,-2028.075106,0.000000,0.000000,0.000000,-65.568*0E
EndT:        3
---00000059--- Acq_st=3 2019-5-22 11:36:32 
[00]  G02  f 41  -1716.6 2046002.2  1.0  1.0  5  0 301009926
[01]  G05  f 37  -2379.4 2046003.1  1.0  1.0  5  0 301009927
[02]  G06  f 46    100.9 2045999.9  1.0  1.0  5  0 301009929
[03]  G09  f 36    677.7 2045999.1  1.0  1.0  5  0 301009926
[04]  G12  f 46    427.7 2045999.5  1.0  1.0  5  0 301009923
[06]  G25  f 39  -1229.6 2046001.6  1.0  1.0  5  0 301009917
[16]  B05 1f 35   -350.7 4092000.8  0.9  0.0  2  0 300995866
[17]  B12 1f 38  -3020.9 4092007.9  1.0  1.0  5  0 300995920
[18]  B13  7 36   -788.8 4092002.0  1.0  0.9  5  0      3615
[19]  B19  1  7   1825.6 4091997.9 -0.0  0.0  1  0         0
lsq: nits= 2
$GNGGA,113633.000,3112.7108,N,12136.4301,E,1,06,1.8,58.4,M,,,,0000*2C
$GNRMC,113633.000,A,3112.7108,N,12136.4301,E,0.06,0.00,220519,,*1D
$GPGSA,A,3,02,05,06,09,12,25,,,,,,,3.0,1.8,2.4*32
$BDGSA,A,3,,,,,,,,,,,,,3.0,1.8,2.4*2F
$GPGSV,2,1,06,02,50,325,41,05,43,248,37,06,55,041,46,09,38,066,36*74
$GPGSV,2,2,06,12,27,276,46,25,09,310,39*7E
$BDGSV,1,1,04,05,00,000,35,12,00,000,38,13,00,000,36,01,48,147,00*6F
$LOGTIM,1,-2094.615427,0.000000,0.000000,0.000000,-65.745*02
EndT:        2
---00000060--- Acq_st=3 2019-5-22 11:36:33 
[00]  G02  f 41  -1713.2 2046002.2  1.0  1.0  5  0 301010926
[01]  G05  f 38  -2376.0 2046003.1  1.0  1.0  5  0 301010927
[02]  G06  f 46    104.5 2045999.8  1.0  1.0  5  0 301010929
[03]  G09  f 37    682.0 2045999.1  1.0  0.9  5  0 301010926
[04]  G12  f 47    431.3 2045999.4  1.0  1.0  5  0 301010923
[06]  G25  f 39  -1225.5 2046001.6  1.0  1.0  5  0 301010917
[16]  B05 1f 36   -347.5 4092000.9  0.9  0.0  2  0 300996866
[17]  B12 1f 40  -3017.6 4092007.9  1.0  1.0  5  0 300996920
[18]  B13 1f 37   -785.7 4092002.0  1.0  0.9  5  0      4615
[19]  B19  1  7    946.9 4091997.4 -0.0  0.0  1  0        83
lsq: nits= 2
$GNGGA,113634.000,3112.7106,N,12136.4298,E,1,06,1.8,58.0,M,,,,0000*20
$GNRMC,113634.000,A,3112.7106,N,12136.4298,E,0.36,0.00,220519,,*16
$GPGSA,A,3,02,05,06,09,12,25,,,,,,,3.0,1.8,2.4*32
$BDGSA,A,3,,,,,,,,,,,,,3.0,1.8,2.4*2F
$GPGSV,2,1,06,02,50,325,41,05,43,248,38,06,55,041,46,09,38,066,37*7A
$GPGSV,2,2,06,12,27,276,47,25,09,310,39*7F
$BDGSV,1,1,04,05,00,000,36,12,00,000,40,13,00,000,37,01,48,147,00*62
$LOGTIM,1,-2160.698469,0.000000,0.000000,0.000000,-65.395*0E
EndT:        2
---00000061--- Acq_st=3 2019-5-22 11:36:34 
[00]  G02  f 42  -1712.9 2046002.2  1.0  1.0  5  0 301011926
[01]  G05  f 39  -2374.3 2046003.0  1.0  1.0  5  0 301011927
[02]  G06  f 46    105.2 2045999.9  1.0  1.0  5  0 301011929
[03]  G09  f 36    683.0 2045999.1  1.0  1.0  5  0 301011926
[04]  G12  f 47    432.5 2045999.4  1.0  1.0  5  0 301011923
[06]  G25  f 39  -1224.1 2046001.5  1.0  1.0  5  0 301011917
[16]  B05 1f 34   -347.1 4092000.7  0.9  0.0  2  0 300997866
[17]  B12 1f 39  -3016.8 4092007.9  1.0  1.0  5  0 300997920
[18]  B13 1f 37   -785.5 4092002.0  1.0  0.9  5  0 300997875
[19]  B19  7 33    947.9 4091997.5  0.7  1.0  5  0      1083
lsq: nits= 2
$GNGGA,113635.000,3112.7108,N,12136.4297,E,1,06,1.8,57.9,M,,,,0000*26
$GNRMC,113635.000,A,3112.7108,N,12136.4297,E,0.29,0.00,220519,,*18
$GPGSA,A,3,02,05,06,09,12,25,,,,,,,3.0,1.8,2.4*32
$BDGSA,A,3,,,,,,,,,,,,,3.0,1.8,2.4*2F
$GPGSV,2,1,06,02,50,325,42,05,43,248,39,06,55,041,46,09,38,066,36*79
$GPGSV,2,2,06,12,27,276,47,25,09,310,39*7F
$BDGSV,2,1,05,05,00,000,34,12,00,000,39,13,00,000,37,19,00,000,33*6B
$BDGSV,2,2,05,01,48,147,00*52
$LOGTIM,1,-2226.056286,0.000000,0.000000,0.000000,-65.302*02
EndT:        2
---00000062--- Acq_st=3 2019-5-22 11:36:35 
[00]  G02  f 42  -1717.1 2046002.2  1.0  1.0  5  0 301012926
[01]  G05  f 39  -2378.8 2046003.1  1.0  1.0  5  0 301012927
[02]  G06  f 46    100.6 2045999.9  1.0  1.0  5  0 301012929
[03]  G09  f 36    678.4 2045999.1  1.0  1.0  5  0 301012926
[04]  G12  f 47    428.5 2045999.4  1.0  1.0  5  0 301012923
[06]  G25  f 39  -1228.9 2046001.6  1.0  1.0  5  0 301012917
[16]  B05 1f 34   -351.2 4092000.9  0.9  0.0  2  0 300998866
[17]  B12 1f 39  -3021.5 4092007.9  1.0  1.0  5  0 300998920
[18]  B13 1f 36   -790.7 4092002.0  1.0  1.0  5  0 300998875
[19]  B19  7 42    943.4 4091997.5  1.0  1.0  5  0      2066
lsq: nits= 2
$GNGGA,113636.000,3112.7110,N,12136.4296,E,1,06,1.8,57.8,M,,,,0000*2C
$GNRMC,113636.000,A,3112.7110,N,12136.4296,E,0.22,0.00,220519,,*18
$GPGSA,A,3,02,05,06,09,12,25,,,,,,,3.0,1.8,2.4*32
$BDGSA,A,3,,,,,,,,,,,,,3.0,1.8,2.4*2F
$GPGSV,2,1,06,02,50,325,42,05,43,248,39,06,55,041,46,09,38,066,36*79
$GPGSV,2,2,06,12,27,276,47,25,09,310,39*7F
$BDGSV,2,1,05,05,00,000,34,12,00,000,39,13,00,000,36,19,00,000,42*6C
$BDGSV,2,2,05,01,48,147,00*52
$LOGTIM,1,-2291.462990,0.000000,0.000000,0.000000,-65.777*07
EndT:        2
---00000063--- Acq_st=3 2019-5-22 11:36:36 
[00]  G02  f 42  -1721.0 2046002.2  1.0  1.0  5  0 301013926
[01]  G05  f 39  -2382.2 2046003.1  1.0  1.0  5  0 301013927
[02]  G06  f 46     96.9 2045999.9  1.0  1.0  5  0 301013929
[03]  G09  f 36    676.0 2045999.1  1.0  1.0  5  0 301013926
[04]  G12  f 47    425.2 2045999.5  1.0  1.0  5  0 301013923
[06]  G25  f 39  -1232.0 2046001.6  1.0  1.0  5  0 301013917
[16]  B05 1f 34   -354.9 4092000.8  0.9  0.0  2  0 300999866
[17]  B12 1f 39  -3024.1 4092008.0  1.0  1.0  5  0 300999920
[18]  B13 1f 36   -794.1 4092002.1  1.0  1.0  5  0 300999875
[19]  B19  7 42    940.3 4091997.5  1.0  1.0  5  0      3066
lsq: nits= 2
$GNGGA,113637.000,3112.7114,N,12136.4293,E,1,06,1.8,57.7,M,,,,0000*23
$GNRMC,113637.000,A,3112.7114,N,12136.4293,E,0.55,0.00,220519,,*18
$GPGSA,A,3,02,05,06,09,12,25,,,,,,,3.0,1.8,2.4*32
$BDGSA,A,3,,,,,,,,,,,,,3.0,1.8,2.4*2F
$GPGSV,2,1,06,02,50,325,42,05,43,248,39,06,55,041,46,09,38,066,36*79
$GPGSV,2,2,06,12,27,276,47,25,09,310,39*7F
