FlashID=0x1 0x20 0x18
BBram_blkflag1: 1ab3: e54c
FW Ver: 1.30  
GPS00 Init Dop:   5000, 40
GPS01 Init Dop:   5000, 40
GPS02 Init Dop:   5000, 40
GPS03 Init Dop:   5000, 40
GPS04 Init Dop:   5000, 40
GPS05 Init Dop:   5000, 40
GPS06 Init Dop:   5000, 40
GPS07 Init Dop:   5000, 40
GPS08 Init Dop:   5000, 40
GPS09 Init Dop:   5000, 40
GPS10 Init Dop:   5000, 40
GPS11 Init Dop:   5000, 40
GPS12 Init Dop:   5000, 40
GPS13 Init Dop:   5000, 40
GPS14 Init Dop:   5000, 40
GPS15 Init Dop:   5000, 40
GPS16 Init Dop:   5000, 40
GPS17 Init Dop:   5000, 40
GPS18 Init Dop:   5000, 40
GPS19 Init Dop:   5000, 40
GPS20 Init Dop:   5000, 40
GPS21 Init Dop:   5000, 40
GPS22 Init Dop:   5000, 40
GPS23 Init Dop:   5000, 40
GPS24 Init Dop:   5000, 40
GPS25 Init Dop:   5000, 40
GPS26 Init Dop:   5000, 40
GPS27 Init Dop:   5000, 40
GPS28 Init Dop:   5000, 40
GPS29 Init Dop:   5000, 40
GPS30 Init Dop:   5000, 40
GPS31 Init Dop:   5000, 40
BDS00 Init Dop:   5000, 40
BDS01 Init Dop:   5000, 40
BDS02 Init Dop:   5000, 40
BDS03 Init Dop:   5000, 40
BDS04 Init Dop:   5000, 40
BDS05 Init Dop:   5000, 40
BDS06 Init Dop:   5000, 40
BDS07 Init Dop:   5000, 40
BDS08 Init Dop:   5000, 40
BDS09 Init Dop:   5000, 40
BDS10 Init Dop:   5000, 40
BDS11 Init Dop:   5000, 40
BDS12 Init Dop:   5000, 40
BDS13 Init Dop:   5000, 40
BDS14 Init Dop:   5000, 40
BDS15 Init Dop:   5000, 40
BDS16 Init Dop:   5000, 40
BDS17 Init Dop:   5000, 40
BDS18 Init Dop:   5000, 40
BDS19 Init Dop:   5000, 40
BDS20 Init Dop:   5000, 40
BDS21 Init Dop:   5000, 40
BDS22 Init Dop:   5000, 40
BDS23 Init Dop:   5000, 40
BDS24 Init Dop:   5000, 40
BDS25 Init Dop:   5000, 40
BDS26 Init Dop:   5000, 40
BDS27 Init Dop:   5000, 40
BDS28 Init Dop:   5000, 40
BDS29 Init Dop:   5000, 40
BDS30 Init Dop:   5000, 40
BDS31 Init Dop:   5000, 40
good luck!
---00000001--- Acq_st=3 2019-5-22 11:39:48 
[00]  G02  1  7  -1769.7 2046003.3  0.1  0.0  1  0         0
$GNGGA,000000.000,,,,,0,00,,,M,,,,0000*2B
$GNRMC,000000.000,A,,,,,,,000000,,*26
$GPGSA,A,1,,,,,,,,,,,,,,,*1E
$BDGSA,A,1,,,,,,,,,,,,,,,*0F
$LOGTIM,0,0.000000,0.000000,0.000000,0.000000,0.000*0A
EndT:        0
---00000002--- Acq_st=3 2019-5-22 11:39:49 
[00]  G02  1 26  -1698.3 2046003.7  0.3  0.0  1  0         1
[01]  G05  1  7  -2273.4 2046003.6 -0.0  0.0  1  0         0
$GNGGA,000000.000,,,,,0,00,,,M,,,,0000*2B
$GNRMC,000000.000,A,,,,,,,000000,,*26
$GPGSA,A,1,,,,,,,,,,,,,,,*1E
$BDGSA,A,1,,,,,,,,,,,,,,,*0F
$LOGTIM,0,0.000000,0.000000,0.000000,0.000000,0.000*0A
EndT:        0
---00000003--- Acq_st=3 2019-5-22 11:39:50 
[00]  G02  7 39  -1702.1 2046002.2  0.8  1.0  5  0         1
[01]  G05  1 31  -2296.8 2046004.4  0.0  0.0  1  0        14
[02]  G06  1 26    144.1 2046000.3 -0.0  0.0  1  0         0
$GNGGA,000000.000,,,,,0,00,,,M,,,,0000*2B
$GNRMC,000000.000,A,,,,,,,000000,,*26
$GPGSA,A,1,,,,,,,,,,,,,,,*1E
$BDGSA,A,1,,,,,,,,,,,,,,,*0F
$GPGSV,1,1,01,02,00,000,39*40
$LOGTIM,0,0.000000,0.000000,0.000000,0.000000,0.000*0A
EndT:        0
---00000004--- Acq_st=3 2019-5-22 11:39:51 
[00]  G02  7 40  -1706.0 2046002.2  1.0  1.0  5  0        12
[01]  G05  7 38  -2301.9 2046003.0  0.7  1.0  5  0        14
[02]  G06  7 29    136.3 2045999.8 -0.2  1.0  5  0        17
[03]  G09  1 28    796.6 2045999.3 -0.1  0.0  1  0         0
$GNGGA,000000.000,,,,,0,00,,,M,,,,0000*2B
$GNRMC,000000.000,A,,,,,,,000000,,*26
$GPGSA,A,1,,,,,,,,,,,,,,,*1E
$BDGSA,A,1,,,,,,,,,,,,,,,*0F
$GPGSV,1,1,03,02,00,000,40,05,00,000,38,06,00,000,29*4F
$LOGTIM,0,0.000000,0.000000,0.000000,0.000000,0.000*0A
EndT:        0
---00000005--- Acq_st=3 2019-5-22 11:39:52 
[00]  G02  7 41  -1710.1 2046002.2  1.0  0.9  5  0        12
[01]  G05  7 42  -2305.2 2046003.0  1.0  1.0  5  0        13
[02]  G06  7 43    134.5 2045999.8  1.0  1.0  5  0        14
[03]  G09  7 28    796.3 2045998.8  0.6  1.0 10  0        11
[04]  G12  1 27    539.1 2045999.7  0.1  0.0  1  0         0
$GNGGA,000000.000,,,,,0,00,,,M,,,,0000*2B
$GNRMC,000000.000,A,,,,,,,000000,,*26
$GPGSA,A,1,,,,,,,,,,,,,,,*1E
$BDGSA,A,1,,,,,,,,,,,,,,,*0F
$GPGSV,1,1,04,02,00,000,41,05,00,000,42,06,00,000,43,09,00,000,28*7B
$LOGTIM,0,0.000000,0.000000,0.000000,0.000000,0.000*0A
EndT:        0
---00000006--- Acq_st=3 2019-5-22 11:39:53 
[00]  G02  7 41  -1712.2 2046002.2  1.0  1.0  5  0        12
[01]  G05  7 43  -2306.6 2046003.0  1.0  1.0  5  0        13
[02]  G06  7 44    133.0 2045999.8  1.0  1.0  5  0        14
[03]  G09  7 39    795.3 2045998.9  1.0  1.0  5  0        11
[04]  G12  7 27    535.2 2045999.2  0.6  0.0 20  0         4
$GNGGA,000000.000,,,,,0,00,,,M,,,,0000*2B
$GNRMC,000000.000,A,,,,,,,000000,,*26
$GPGSA,A,1,,,,,,,,,,,,,,,*1E
$BDGSA,A,1,,,,,,,,,,,,,,,*0F
$GPGSV,2,1,05,02,00,000,41,05,00,000,43,06,00,000,44,09,00,000,39*7F
$GPGSV,2,2,05,12,00,000,27*4A
$LOGTIM,0,0.000000,0.000000,0.000000,0.000000,0.000*0A
EndT:        1
---00000007--- Acq_st=3 2019-5-22 11:39:54 
[00]  G02  7 41  -1709.4 2046002.2  1.0  1.0  5  0        12
[01]  G05  7 43  -2303.9 2046003.0  1.0  1.0  5  0        13
[02]  G06  7 44    135.3 2045999.8  1.0  1.0  5  0        14
[03]  G09  7 39    798.1 2045998.9  1.0  1.0  5  0        11
[04]  G12  7 46    537.8 2045999.3  1.0  1.0  5  0         8
$GNGGA,000000.000,,,,,0,00,,,M,,,,0000*2B
$GNRMC,000000.000,A,,,,,,,000000,,*26
$GPGSA,A,1,,,,,,,,,,,,,,,*1E
$BDGSA,A,1,,,,,,,,,,,,,,,*0F
$GPGSV,2,1,05,02,00,000,41,05,00,000,43,06,00,000,44,09,00,000,39*7F
$GPGSV,2,2,05,12,00,000,46*4D
$LOGTIM,0,0.000000,0.000000,0.000000,0.000000,0.000*0A
EndT:        0
---00000008--- Acq_st=3 2019-5-22 11:39:55 
[00]  G02  f 40  -1701.7 2046002.2  1.0  1.0  5  0        12
[01]  G05  f 43  -2295.3 2046003.0  1.0  1.0  5  0        13
[02]  G06  f 44    143.6 2045999.8  1.0  1.0  5  0        14
[03]  G09  f 39    807.1 2045998.9  1.0  1.0  5  0        11
[04]  G12  f 46    546.7 2045999.3  1.0  1.0  5  0         8
$GNGGA,000000.000,,,,,0,00,,,M,,,,0000*2B
$GNRMC,000000.000,A,,,,,,,000000,,*26
$GPGSA,A,1,,,,,,,,,,,,,,,*1E
$BDGSA,A,1,,,,,,,,,,,,,,,*0F
$GPGSV,2,1,05,02,00,000,40,05,00,000,43,06,00,000,44,09,00,000,39*7E
$GPGSV,2,2,05,12,00,000,46*4D
$LOGTIM,0,0.000000,0.000000,0.000000,0.000000,0.000*0A
EndT:        0
---00000009--- Acq_st=3 2019-5-22 11:39:56 
[00]  G02  f 41  -1699.1 2046002.2  1.0  1.0  5  0 301213372
[01]  G05  f 44  -2292.7 2046003.0  1.0  1.0  5  0 301213373
[02]  G06  f 44    146.1 2045999.8  1.0  1.0  5  0 301213374
[03]  G09  f 38    809.8 2045999.0  1.0  1.0  5  0 301213371
[04]  G12  f 46    549.4 2045999.3  1.0  1.0  5  0 301213368
[05]  G23  1 25   2195.6 2045997.7  0.1  0.0  1  0         0
[06]  G25  1  7   -773.2 2046002.6 -0.0  0.0  1  0         0
$GNGGA,000000.000,,,,,0,00,,,M,,,,0000*2B
$GNRMC,000000.000,A,,,,,,,000000,,*26
$GPGSA,A,1,,,,,,,,,,,,,,,*1E
$BDGSA,A,1,,,,,,,,,,,,,,,*0F
$GPGSV,2,1,05,02,00,000,41,05,00,000,44,06,00,000,44,09,00,000,38*79
$GPGSV,2,2,05,12,00,000,46*4D
$LOGTIM,0,0.000000,0.000000,0.000000,0.000000,0.000*0A
EndT:        1
---00000010--- Acq_st=3 2019-5-22 11:39:57 
[00]  G02  f 41  -1695.5 2046002.2  1.0  1.0  5  0 301214372
[01]  G05  f 44  -2288.6 2046003.0  1.0  1.0  5  0 301214373
[02]  G06  f 44    150.1 2045999.8  1.0  1.0  5  0 301214374
[03]  G09  f 38    814.3 2045998.9  1.0  1.0  5  0 301214371
[04]  G12  f 47    553.9 2045999.3  1.0  1.0  5  0 301214368
[05]  G23  7 28   2193.3 2045997.0  0.4  1.0 10  0        12
[06]  G25  1 29  -1102.5 2046001.7  0.0  0.0  1  0         1
$GNGGA,000000.000,,,,,0,00,,,M,,,,0000*2B
$GNRMC,000000.000,A,,,,,,,000000,,*26
$GPGSA,A,1,,,,,,,,,,,,,,,*1E
$BDGSA,A,1,,,,,,,,,,,,,,,*0F
$GPGSV,2,1,06,02,00,000,41,05,00,000,44,06,00,000,44,09,00,000,38*7A
$GPGSV,2,2,06,12,00,000,47,23,00,000,28*74
$LOGTIM,0,0.000000,0.000000,0.000000,0.000000,0.000*0A
EndT:        0
---00000011--- Acq_st=3 2019-5-22 11:39:58 
[00]  G02  f 41  -1691.9 2046002.2  1.0  1.0  5  0 301215372
[01]  G05  f 44  -2284.9 2046003.0  1.0  1.0  5  0 301215373
[02]  G06  f 44    153.4 2045999.8  1.0  1.0  5  0 301215374
[03]  G09  f 39    818.4 2045998.9  1.0  1.0  5  0 301215371
[04]  G12  f 46    557.5 2045999.3  1.0  1.0  5  0 301215368
[05]  G23  7 38   2196.8 2045997.0  1.0  1.0  5  0         1
[06]  G25  7 33  -1098.0 2046001.4  0.4  1.0  5  0         1
$GNGGA,000000.000,,,,,0,00,,,M,,,,0000*2B
$GNRMC,000000.000,A,,,,,,,000000,,*26
$GPGSA,A,1,,,,,,,,,,,,,,,*1E
$BDGSA,A,1,,,,,,,,,,,,,,,*0F
$GPGSV,2,1,07,02,00,000,41,05,00,000,44,06,00,000,44,09,00,000,39*7A
$GPGSV,2,2,07,12,00,000,46,23,00,000,38,25,00,000,33*42
$LOGTIM,0,0.000000,0.000000,0.000000,0.000000,0.000*0A
EndT:        0
---00000012--- Acq_st=3 2019-5-22 11:39:59 
[00]  G02  f 41  -1697.2 2046002.2  1.0  1.0  5  0 301216372
[01]  G05  f 44  -2289.6 2046003.0  1.0  1.0  5  0 301216373
[02]  G06  f 44    148.2 2045999.8  1.0  1.0  5  0 301216374
[03]  G09  f 38    813.1 2045998.9  1.0  1.0  5  0 301216371
[04]  G12  f 47    552.8 2045999.3  1.0  1.0  5  0 301216368
[05]  G23  7 39   2191.7 2045997.0  1.0  1.0  5  0         1
[06]  G25  7 40  -1102.8 2046001.4  1.0  1.0  5  0         2
$GNGGA,000000.000,,,,,0,00,,,M,,,,0000*2B
$GNRMC,000000.000,A,,,,,,,000000,,*26
$GPGSA,A,1,,,,,,,,,,,,,,,*1E
$BDGSA,A,1,,,,,,,,,,,,,,,*0F
$GPGSV,2,1,07,02,00,000,41,05,00,000,44,06,00,000,44,09,00,000,38*7B
$GPGSV,2,2,07,12,00,000,47,23,00,000,39,25,00,000,40*46
$LOGTIM,0,0.000000,0.000000,0.000000,0.000000,0.000*0A
EndT:        0
---00000013--- Acq_st=3 2019-5-22 11:40:0 
[00]  G02  f 41  -1705.2 2046002.2  1.0  1.0  5  0 301217372
[01]  G05  f 45  -2297.8 2046003.0  1.0  1.0  5  0 301217373
[02]  G06  f 44    140.2 2045999.8  1.0  1.0  5  0 301217374
[03]  G09  f 39    805.8 2045999.0  1.0  1.0  5  0 301217371
[04]  G12  f 47    545.2 2045999.3  1.0  1.0  5  0 301217368
[05]  G23  7 39   2183.6 2045997.1  1.0  1.0  5  0         1
[06]  G25  7 40  -1110.3 2046001.4  1.0  1.0  5  0         2
$GNGGA,000000.000,,,,,0,00,,,M,,,,0000*2B
$GNRMC,000000.000,A,,,,,,,000000,,*26
$GPGSA,A,1,,,,,,,,,,,,,,,*1E
$BDGSA,A,1,,,,,,,,,,,,,,,*0F
$GPGSV,2,1,07,02,00,000,41,05,00,000,45,06,00,000,44,09,00,000,39*7B
$GPGSV,2,2,07,12,00,000,47,23,00,000,39,25,00,000,40*46
$LOGTIM,0,0.000000,0.000000,0.000000,0.000000,0.000*0A
EndT:        0
---00000014--- Acq_st=3 2019-5-22 11:40:1 
[00]  G02  f 42  -1704.0 2046002.2  1.0  1.0  5  0 301218372
[01]  G05  f 45  -2295.9 2046003.0  1.0  1.0  5  0 301218373
[02]  G06  f 44    142.0 2045999.8  1.0  1.0  5  0 301218374
[03]  G09  f 38    807.7 2045998.9  1.0  1.0  5  0 301218371
[04]  G12  f 47    547.0 2045999.3  1.0  1.0  5  0 301218368
[05]  G23  f 39   2185.2 2045997.1  1.0  0.9  5  0         1
[06]  G25  f 40  -1108.0 2046001.4  1.0  1.0  5  0         2
$GNGGA,000000.000,,,,,0,00,,,M,,,,0000*2B
$GNRMC,000000.000,A,,,,,,,000000,,*26
$GPGSA,A,1,,,,,,,,,,,,,,,*1E
$BDGSA,A,1,,,,,,,,,,,,,,,*0F
$GPGSV,2,1,07,02,00,000,42,05,00,000,45,06,00,000,44,09,00,000,38*79
$GPGSV,2,2,07,12,00,000,47,23,00,000,39,25,00,000,40*46
$LOGTIM,0,0.000000,0.000000,0.000000,0.000000,0.000*0A
EndT:        0
---00000015--- Acq_st=3 2019-5-22 11:40:2 
[00]  G02  f 42  -1707.1 2046002.2  1.0  1.0  5  0 301219372
[01]  G05  f 44  -2299.0 2046003.0  1.0  1.0  5  0 301219373
[02]  G06  f 45    138.9 2045999.8  1.0  1.0  5  0 301219374
[03]  G09  f 38    805.0 2045999.0  1.0  1.0  5  0 301219371
[04]  G12  f 46    544.4 2045999.3  1.0  1.0  5  0 301219368
[05]  G23  f 40   2183.0 2045997.2  1.0  1.0  5  0 301219361
[06]  G25  f 40  -1111.1 2046001.4  1.0  1.0  5  0 301219362
$GNGGA,000000.000,,,,,0,00,,,M,,,,0000*2B
$GNRMC,000000.000,A,,,,,,,000000,,*26
$GPGSA,A,1,,,,,,,,,,,,,,,*1E
$BDGSA,A,1,,,,,,,,,,,,,,,*0F
$GPGSV,2,1,07,02,00,000,42,05,00,000,44,06,00,000,45,09,00,000,38*79
$GPGSV,2,2,07,12,00,000,46,23,00,000,40,25,00,000,40*49
$LOGTIM,0,0.000000,0.000000,0.000000,0.000000,0.000*0A
EndT:        0
---00000016--- Acq_st=3 2019-5-22 11:40:3 
[00]  G02  f 42  -1705.7 2046002.2  1.0  1.0  5  0 301220372
[01]  G05  f 45  -2297.1 2046003.0  1.0  1.0  5  0 301220373
[02]  G06  f 44    140.0 2045999.8  1.0  1.0  5  0 301220374
[03]  G09  f 38    807.0 2045999.0  1.0  1.0  5  0 301220371
[04]  G12  f 46    546.2 2045999.3  1.0  1.0  5  0 301220368
[05]  G23  f 39   2184.0 2045997.2  1.0  1.0  5  0 301220361
[06]  G25  f 41  -1109.3 2046001.4  1.0  1.0  5  0 301220362
[16]  B05  1 31   -350.7 4092001.3  0.2  0.0  1  0         0
$GNGGA,000000.000,,,,,0,00,,,M,,,,0000*2B
$GNRMC,000000.000,A,,,,,,,000000,,*26
$GPGSA,A,1,,,,,,,,,,,,,,,*1E
$BDGSA,A,1,,,,,,,,,,,,,,,*0F
$GPGSV,2,1,07,02,00,000,42,05,00,000,45,06,00,000,44,09,00,000,38*79
$GPGSV,2,2,07,12,00,000,46,23,00,000,39,25,00,000,41*46
$LOGTIM,0,0.000000,0.000000,0.000000,0.000000,0.000*0A
EndT:        0
---00000017--- Acq_st=3 2019-5-22 11:40:4 
[00]  G02  f 42  -1701.4 2046002.2  1.0  1.0  5  0 301221372
[01]  G05  f 45  -2292.2 2046003.0  1.0  1.0  5  0 301221373
[02]  G06  f 45    144.7 2045999.8  1.0  1.0  5  0 301221374
[03]  G09  f 38    811.7 2045999.0  1.0  1.0  5  0 301221371
[04]  G12  f 47    551.1 2045999.3  1.0  1.0  5  0 301221368
[05]  G23  f 39   2189.2 2045997.1  1.0  1.0  5  0 301221361
[06]  G25  f 41  -1104.5 2046001.4  1.0  1.0  5  0 301221362
[16]  B05  f 32   -346.3 4092000.7  0.9  0.0  2  0       809
$GNGGA,000000.000,,,,,0,00,,,M,,,,0000*2B
$GNRMC,000000.000,A,,,,,,,000000,,*26
$GPGSA,A,1,,,,,,,,,,,,,,,*1E
$BDGSA,A,1,,,,,,,,,,,,,,,*0F
$GPGSV,2,1,07,02,00,000,42,05,00,000,45,06,00,000,45,09,00,000,38*78
$GPGSV,2,2,07,12,00,000,47,23,00,000,39,25,00,000,41*47
$BDGSV,1,1,01,05,00,000,32*5D
$LOGTIM,0,0.000000,0.000000,0.000000,0.000000,0.000*0A
EndT:        0
---00000018--- Acq_st=3 2019-5-22 11:40:5 
[00]  G02  f 42  -1701.8 2046002.2  1.0  1.0  5  0 301222372
[01]  G05  f 45  -2292.2 2046002.9  1.0  1.0  5  0 301222373
[02]  G06  f 45    144.8 2045999.8  1.0  1.0  5  0 301222374
[03]  G09  f 38    812.7 2045998.9  1.0  1.0  5  0 301222371
[04]  G12  f 47    551.4 2045999.3  1.0  1.0  5  0 301222368
[05]  G23  f 39   2189.2 2045997.1  1.0  1.0  5  0 301222361
[06]  G25  f 40  -1104.1 2046001.4  1.0  1.0  5  0 301222362
[16]  B05  f 31   -345.9 4092000.8  0.9  0.0  2  0 301208911
$GNGGA,000000.000,,,,,0,00,,,M,,,,0000*2B
$GNRMC,000000.000,A,,,,,,,000000,,*26
$GPGSA,A,1,,,,,,,,,,,,,,,*1E
$BDGSA,A,1,,,,,,,,,,,,,,,*0F
$GPGSV,2,1,07,02,00,000,42,05,00,000,45,06,00,000,45,09,00,000,38*78
$GPGSV,2,2,07,12,00,000,47,23,00,000,39,25,00,000,40*46
$BDGSV,1,1,01,05,00,000,31*5E
$LOGTIM,0,0.000000,0.000000,0.000000,0.000000,0.000*0A
EndT:        0
---00000019--- Acq_st=3 2019-5-22 11:40:6 
[00]  G02  f 42  -1699.7 2046002.2  1.0  1.0  5  0 301223372
[01]  G05  f 45  -2290.0 2046003.0  1.0  1.0  5  0 301223373
[02]  G06  f 45    146.7 2045999.8  1.0  1.0  5  0 301223374
[03]  G09  f 37    814.4 2045998.9  1.0  0.9  5  0 301223371
[04]  G12  f 46    553.8 2045999.3  1.0  1.0  5  0 301223368
[05]  G23  f 39   2191.2 2045997.1  1.0  1.0  5  0 301223361
[06]  G25  f 40  -1101.7 2046001.5  1.0  1.0  5  0 301223362
[16]  B05 1f 32   -344.2 4092001.1  0.9  0.0  2  0 301209911
$GNGGA,000000.000,,,,,0,00,,,M,,,,0000*2B
$GNRMC,000000.000,A,,,,,,,000000,,*26
$GPGSA,A,1,,,,,,,,,,,,,,,*1E
$BDGSA,A,1,,,,,,,,,,,,,,,*0F
$GPGSV,2,1,07,02,00,000,42,05,00,000,45,06,00,000,45,09,00,000,37*77
$GPGSV,2,2,07,12,00,000,46,23,00,000,39,25,00,000,40*47
$BDGSV,1,1,01,05,00,000,32*5D
$LOGTIM,0,0.000000,0.000000,0.000000,0.000000,0.000*0A
EndT:        0
---00000020--- Acq_st=3 2019-5-22 11:40:7 
[00]  G02  f 42  -1697.6 2046002.2  1.0  1.0  5  0 301224372
[01]  G05  f 45  -2287.6 2046003.0  1.0  1.0  5  0 301224373
[02]  G06  f 45    149.2 2045999.8  1.0  1.0  5  0 301224374
[03]  G09  f 38    817.7 2045999.0  1.0  1.0  5  0 301224371
[04]  G12  f 46    556.5 2045999.3  1.0  1.0  5  0 301224368
[05]  G23  f 40   2193.6 2045997.2  1.0  1.0  5  0 301224361
[06]  G25  f 40  -1098.7 2046001.4  1.0  1.0  5  0 301224362
[16]  B05 1f 32   -342.6 4092000.7  0.9  0.0  2  0 301210311
$GNGGA,000000.000,,,,,0,00,,,M,,,,0000*2B
$GNRMC,000000.000,A,,,,,,,000000,,*26
$GPGSA,A,1,,,,,,,,,,,,,,,*1E
$BDGSA,A,1,,,,,,,,,,,,,,,*0F
$GPGSV,2,1,07,02,00,000,42,05,00,000,45,06,00,000,45,09,00,000,38*78
$GPGSV,2,2,07,12,00,000,46,23,00,000,40,25,00,000,40*49
$BDGSV,1,1,01,05,00,000,32*5D
$LOGTIM,0,0.000000,0.000000,0.000000,0.000000,0.000*0A
EndT:        0
---00000021--- Acq_st=3 2019-5-22 11:40:8 
[00]  G02  f 43  -1698.8 2046002.2  1.0  1.0  5  0 301225372
[01]  G05  f 46  -2288.5 2046003.0  1.0  1.0  5  0 301225373
[02]  G06  f 45    147.9 2045999.8  1.0  1.0  5  0 301225374
[03]  G09  f 38    816.8 2045998.9  1.0  1.0  5  0 301225371
[04]  G12  f 47    555.6 2045999.3  1.0  1.0  5  0 301225368
[05]  G23  f 39   2192.7 2045997.2  1.0  1.0  5  0 301225361
[06]  G25  f 40  -1099.5 2046001.4  1.0  1.0  5  0 301225362
[16]  B05 1f 31   -343.8 4092000.9  0.9  0.0  2  0 301211311
[17]  B12  1  7  -3135.8 4092008.8 -0.0  0.0  1  0         0
$GNGGA,000000.000,,,,,0,00,,,M,,,,0000*2B
$GNRMC,000000.000,A,,,,,,,000000,,*26
$GPGSA,A,1,,,,,,,,,,,,,,,*1E
$BDGSA,A,1,,,,,,,,,,,,,,,*0F
$GPGSV,2,1,07,02,00,000,43,05,00,000,46,06,00,000,45,09,00,000,38*7A
$GPGSV,2,2,07,12,00,000,47,23,00,000,39,25,00,000,40*46
$BDGSV,1,1,01,05,00,000,31*5E
$LOGTIM,0,0.000000,0.000000,0.000000,0.000000,0.000*0A
EndT:        0
---00000022--- Acq_st=3 2019-5-22 11:40:9 
[00]  G02  f 43  -1706.4 2046002.2  1.0  1.0  5  0 301226372
[01]  G05  f 45  -2295.6 2046003.0  1.0  1.0  5  0 301226373
[02]  G06  f 44    140.5 2045999.8  1.0  1.0  5  0 301226374
[03]  G09  f 37    809.6 2045999.0  1.0  1.0  5  0 301226371
[04]  G12  f 46    548.8 2045999.3  1.0  1.0  5  0 301226368
[05]  G23  f 39   2185.1 2045997.2  1.0  1.0  5  0 301226361
[06]  G25  f 40  -1106.8 2046001.4  1.0  1.0  5  0 301226362
[16]  B05 1f 32   -351.3 4092000.8  0.9  0.0  2  0 301212311
[17]  B12  7 19  -2994.5 4092007.9  0.1  0.0 20  0       487
$GNGGA,000000.000,,,,,0,00,,,M,,,,0000*2B
$GNRMC,000000.000,A,,,,,,,000000,,*26
$GPGSA,A,1,,,,,,,,,,,,,,,*1E
$BDGSA,A,1,,,,,,,,,,,,,,,*0F
$GPGSV,2,1,07,02,00,000,43,05,00,000,45,06,00,000,44,09,00,000,37*77
$GPGSV,2,2,07,12,00,000,46,23,00,000,39,25,00,000,40*47
$BDGSV,1,1,02,05,00,000,32,12,00,000,19*65
$LOGTIM,0,0.000000,0.000000,0.000000,0.000000,0.000*0A
EndT:        0
---00000023--- Acq_st=3 2019-5-22 11:40:10 
[00]  G02  f 43  -1705.2 2046002.2  1.0  1.0  5  0 301227372
[01]  G05  f 45  -2294.2 2046003.0  1.0  1.0  5  0 301227373
[02]  G06  f 44    142.0 2045999.8  1.0  1.0  5  0 301227374
[03]  G09  f 37    811.3 2045999.0  1.0  1.0  5  0 301227371
[04]  G12  f 46    550.6 2045999.3  1.0  1.0  5  0 301227368
[05]  G23  f 40   2186.8 2045997.1  1.0  1.0  5  0 301227361
[06]  G25  f 40  -1104.7 2046001.5  1.0  1.0  5  0 301227362
[16]  B05 1f 32   -350.2 4092001.0  0.9  0.0  2  0 301213311
[17]  B12  7 38  -2996.4 4092007.9  0.6  0.9  5  0      1485
$GNGGA,000000.000,,,,,0,00,,,M,,,,0000*2B
$GNRMC,000000.000,A,,,,,,,000000,,*26
$GPGSA,A,1,,,,,,,,,,,,,,,*1E
$BDGSA,A,1,,,,,,,,,,,,,,,*0F
$GPGSV,2,1,07,02,00,000,43,05,00,000,45,06,00,000,44,09,00,000,37*77
$GPGSV,2,2,07,12,00,000,46,23,00,000,40,25,00,000,40*49
$BDGSV,1,1,02,05,00,000,32,12,00,000,38*66
$LOGTIM,0,0.000000,0.000000,0.000000,0.000000,0.000*0A
EndT:        0
---00000024--- Acq_st=3 2019-5-22 11:40:11 
[00]  G02  f 43  -1699.2 2046002.2  1.0  1.0  5  0 301228372
[01]  G05  f 45  -2287.6 2046003.0  1.0  1.0  5  0 301228373
[02]  G06  f 44    148.1 2045999.8  1.0  1.0  5  0 301228374
[03]  G09  f 37    818.2 2045999.0  1.0  1.0  5  0 301228371
[04]  G12  f 46    556.5 2045999.3  1.0  1.0  5  0 301228368
[05]  G23  f 40   2192.9 2045997.1  1.0  1.0  5  0 301228361
[06]  G25  f 40  -1098.6 2046001.4  1.0  1.0  5  0 301228362
[16]  B05 1f 32   -344.8 4092001.0  0.9  0.0  2  0 301214311
[17]  B12  7 39  -2991.0 4092007.8  1.0  1.0  5  0      2485
$GNGGA,000000.000,,,,,0,00,,,M,,,,0000*2B
$GNRMC,000000.000,A,,,,,,,000000,,*26
$GPGSA,A,1,,,,,,,,,,,,,,,*1E
$BDGSA,A,1,,,,,,,,,,,,,,,*0F
$GPGSV,2,1,07,02,00,000,43,05,00,000,45,06,00,000,44,09,00,000,37*77
$GPGSV,2,2,07,12,00,000,46,23,00,000,40,25,00,000,40*49
$BDGSV,1,1,02,05,00,000,32,12,00,000,39*67
$LOGTIM,0,0.000000,0.000000,0.000000,0.000000,0.000*0A
EndT:        0
---00000025--- Acq_st=3 2019-5-22 11:40:12 
[00]  G02  f 42  -1704.9 2046002.2  1.0  1.0  5  0 301229372
[01]  G05  f 45  -2293.2 2046003.0  1.0  1.0  5  0 301229373
[02]  G06  f 43    142.3 2045999.8  1.0  1.0  5  0 301229374
[03]  G09  f 37    812.3 2045999.1  1.0  1.0  5  0 301229371
[04]  G12  f 46    551.5 2045999.3  1.0  1.0  5  0 301229368
[05]  G23  f 40   2186.9 2045997.1  1.0  1.0  5  0 301229361
[06]  G25  f 41  -1103.7 2046001.4  1.0  1.0  5  0 301229362
[16]  B05 1f 31   -350.0 4092001.2  0.9  0.0  2  0 301215311
[17]  B12  7 38  -2996.7 4092007.9  1.0  0.9  5  0      3485
$GNGGA,000000.000,,,,,0,00,,,M,,,,0000*2B
$GNRMC,000000.000,A,,,,,,,000000,,*26
$GPGSA,A,1,,,,,,,,,,,,,,,*1E
$BDGSA,A,1,,,,,,,,,,,,,,,*0F
$GPGSV,2,1,07,02,00,000,42,05,00,000,45,06,00,000,43,09,00,000,37*71
$GPGSV,2,2,07,12,00,000,46,23,00,000,40,25,00,000,41*48
$BDGSV,1,1,02,05,00,000,31,12,00,000,38*65
$LOGTIM,0,0.000000,0.000000,0.000000,0.000000,0.000*0A
EndT:        0
---00000026--- Acq_st=3 2019-5-22 11:40:13 
[00]  G02  f 42  -1707.1 2046002.2  1.0  1.0  5  0 301230372
[01]  G05  f 45  -2294.8 2046003.0  1.0  1.0  5  0 301230373
[02]  G06  f 43    140.6 2045999.8  1.0  1.0  5  0 301230374
[03]  G09  f 37    811.3 2045999.0  1.0  1.0  5  0 301230371
[04]  G12  f 46    550.2 2045999.3  1.0  1.0  5  0 301230368
[05]  G23  f 40   2185.6 2045997.1  1.0  1.0  5  0 301230361
[06]  G25  f 41  -1105.6 2046001.5  1.0  1.0  5  0 301230362
[16]  B05 1f 31   -352.6 4092000.9  0.9  0.0  2  0 301216311
[17]  B12  7 38  -2998.9 4092007.9  1.0  1.0  5  0      4485
[18]  B19  1  7   1040.9 4091996.9  0.0  0.0  1  0         0
$GNGGA,000000.000,,,,,0,00,,,M,,,,0000*2B
$GNRMC,000000.000,A,,,,,,,000000,,*26
$GPGSA,A,1,,,,,,,,,,,,,,,*1E
$BDGSA,A,1,,,,,,,,,,,,,,,*0F
$GPGSV,2,1,07,02,00,000,42,05,00,000,45,06,00,000,43,09,00,000,37*71
$GPGSV,2,2,07,12,00,000,46,23,00,000,40,25,00,000,41*48
$BDGSV,1,1,02,05,00,000,31,12,00,000,38*65
$LOGTIM,0,0.000000,0.000000,0.000000,0.000000,0.000*0A
EndT:        0
---00000027--- Acq_st=3 2019-5-22 11:40:14 
[00]  G02  f 42  -1704.1 2046002.2  1.0  1.0  5  0 301231372
[01]  G05  f 44  -2291.7 2046003.0  1.0  1.0  5  0 301231373
[02]  G06  f 43    143.9 2045999.8  1.0  1.0  5  0 301231374
[03]  G09  f 37    814.8 2045998.9  1.0  1.0  5  0 301231371
[04]  G12  f 46    553.6 2045999.3  1.0  1.0  5  0 301231368
[05]  G23  f 40   2188.8 2045997.1  1.0  1.0  5  0 301231361
[06]  G25  f 41  -1101.6 2046001.5  1.0  1.0  5  0 301231362
[16]  B05 1f 32   -349.7 4092000.9  0.9  0.0  2  0 301217311
[17]  B12  7 38  -2996.7 4092007.8  1.0  1.0  5  0      5485
[18]  B19  1  7   1028.0 4091996.8  0.1  0.0  1  0       165
$GNGGA,000000.000,,,,,0,00,,,M,,,,0000*2B
$GNRMC,000000.000,A,,,,,,,000000,,*26
$GPGSA,A,1,,,,,,,,,,,,,,,*1E
$BDGSA,A,1,,,,,,,,,,,,,,,*0F
$GPGSV,2,1,07,02,00,000,42,05,00,000,44,06,00,000,43,09,00,000,37*70
$GPGSV,2,2,07,12,00,000,46,23,00,000,40,25,00,000,41*48
$BDGSV,1,1,02,05,00,000,32,12,00,000,38*66
$LOGTIM,0,0.000000,0.000000,0.000000,0.000000,0.000*0A
EndT:        0
---00000028--- Acq_st=3 2019-5-22 11:40:15 
[00]  G02  f 42  -1703.1 2046002.2  1.0  1.0  5  0 301232372
[01]  G05  f 45  -2290.1 2046003.0  1.0  1.0  5  0 301232373
[02]  G06  f 44    145.0 2045999.8  1.0  1.0  5  0 301232374
[03]  G09  f 37    816.5 2045998.9  1.0  1.0  5  0 301232371
[04]  G12  f 46    555.1 2045999.3  1.0  1.0  5  0 301232368
[05]  G23  f 40   2190.2 2045997.2  1.0  1.0  5  0 301232361
[06]  G25  f 41  -1100.0 2046001.4  1.0  1.0  5  0 301232362
[16]  B05 1f 33   -348.1 4092001.0  0.9  0.0  2  0 301218311
[17]  B12 1f 38  -2994.2 4092007.8  1.0  0.9  5  0      6485
[18]  B19  7 34   1029.2 4091997.3  0.9  1.0  5  0      1165
$GNGGA,000000.000,,,,,0,00,,,M,,,,0000*2B
$GNRMC,000000.000,A,,,,,,,000000,,*26
$GPGSA,A,1,,,,,,,,,,,,,,,*1E
$BDGSA,A,1,,,,,,,,,,,,,,,*0F
$GPGSV,2,1,07,02,00,000,42,05,00,000,45,06,00,000,44,09,00,000,37*76
$GPGSV,2,2,07,12,00,000,46,23,00,000,40,25,00,000,41*48
$BDGSV,1,1,03,05,00,000,33,12,00,000,38,19,00,000,34*59
$LOGTIM,0,0.000000,0.000000,0.000000,0.000000,0.000*0A
EndT:        0
---00000029--- Acq_st=3 2019-5-22 11:40:16 
[00]  G02  f 42  -1705.1 2046002.2  1.0  1.0  5  0 301233372
[01]  G05  f 44  -2291.8 2046003.0  1.0  1.0  5  0 301233373
[02]  G06  f 44    143.1 2045999.8  1.0  1.0  5  0 301233374
[03]  G09  f 37    814.9 2045998.9  1.0  1.0  5  0 301233371
[04]  G12  f 46    553.5 2045999.3  1.0  1.0  5  0 301233368
[05]  G23  f 40   2188.1 2045997.2  1.0  1.0  5  0 301233361
[06]  G25  f 42  -1101.3 2046001.4  1.0  1.0  5  0 301233362
[16]  B05 1f 34   -350.2 4092001.0  0.9  0.0  2  0 301219311
[17]  B12 1f 38  -2995.9 4092007.9  1.0  1.0  5  0 301219365
[18]  B19  7 41   1027.9 4091997.3  1.0  1.0  5  0      2151
$GNGGA,000000.000,,,,,0,00,,,M,,,,0000*2B
$GNRMC,000000.000,A,,,,,,,000000,,*26
$GPGSA,A,1,,,,,,,,,,,,,,,*1E
$BDGSA,A,1,,,,,,,,,,,,,,,*0F
$GPGSV,2,1,07,02,00,000,42,05,00,000,44,06,00,000,44,09,00,000,37*77
$GPGSV,2,2,07,12,00,000,46,23,00,000,40,25,00,000,42*4B
$BDGSV,1,1,03,05,00,000,34,12,00,000,38,19,00,000,41*5C
$LOGTIM,0,0.000000,0.000000,0.000000,0.000000,0.000*0A
EndT:        0
---00000030--- Acq_st=3 2019-5-22 11:40:17 
[00]  G02  f 42  -1704.9 2046002.2  1.0  1.0  5  0 301234372
[01]  G05  f 44  -2291.7 2046003.0  1.0  1.0  5  0 301234373
[02]  G06  f 44    143.2 2045999.8  1.0  1.0  5  0 301234374
[03]  G09  f 37    815.4 2045998.9  1.0  1.0  5  0 301234371
[04]  G12  f 46    553.9 2045999.3  1.0  1.0  5  0 301234368
[05]  G23  f 40   2188.5 2045997.1  1.0  1.0  5  0 301234361
[06]  G25  f 41  -1101.1 2046001.4  1.0  1.0  5  0 301234362
[16]  B05 1f 33   -350.7 4092001.1  0.9  0.0  2  0 301220311
[17]  B12 1f 38  -2996.3 4092007.8  1.0  1.0  5  0 301220365
[18]  B19  7 41   1028.4 4091997.3  1.0  1.0  5  0      3151
$GNGGA,000000.000,,,,,0,00,,,M,,,,0000*2B
$GNRMC,000000.000,A,,,,,,,000000,,*26
$GPGSA,A,1,,,,,,,,,,,,,,,*1E
$BDGSA,A,1,,,,,,,,,,,,,,,*0F
$GPGSV,2,1,07,02,00,000,42,05,00,000,44,06,00,000,44,09,00,000,37*77
$GPGSV,2,2,07,12,00,000,46,23,00,000,40,25,00,000,41*48
$BDGSV,1,1,03,05,00,000,32,12,00,000,38,19,00,000,41*5A
$LOGTIM,0,0.000000,0.000000,0.000000,0.000000,0.000*0A
EndT:        0
---00000031--- Acq_st=3 2019-5-22 11:40:18 
[00]  G02  f 42  -1702.7 2046002.2  1.0  1.0  5  0 301235372
[01]  G05  f 44  -2289.1 2046003.0  1.0  1.0  5  0 301235373
[02]  G06  f 45    145.0 2045999.8  1.0  1.0  5  0 301235374
[03]  G09  f 37    817.8 2045998.9  1.0  0.9  5  0 301235371
[04]  G12  f 46    556.7 2045999.3  1.0  1.0  5  0 301235368
[05]  G23  f 40   2191.2 2045997.2  1.0  1.0  5  0 301235361
[06]  G25  f 42  -1098.6 2046001.4  1.0  1.0  5  0 301235362
[16]  B05 1f 31   -348.4 4092000.8  0.9  0.0  2  0 301221311
[17]  B12 1f 38  -2994.3 4092007.8  1.0  1.0  5  0 301221365
[18]  B19  7 42   1030.3 4091997.3  1.0  1.0  5  0      4151
$GNGGA,000000.000,,,,,0,00,,,M,,,,0000*2B
$GNRMC,000000.000,A,,,,,,,000000,,*26
$GPGSA,A,1,,,,,,,,,,,,,,,*1E
$BDGSA,A,1,,,,,,,,,,,,,,,*0F
$GPGSV,2,1,07,02,00,000,42,05,00,000,44,06,00,000,45,09,00,000,37*76
$GPGSV,2,2,07,12,00,000,46,23,00,000,40,25,00,000,42*4B
$BDGSV,1,1,03,05,00,000,31,12,00,000,38,19,00,000,42*5A
$LOGTIM,0,0.000000,0.000000,0.000000,0.000000,0.000*0A
EndT:        0
---00000032--- Acq_st=3 2019-5-22 11:40:19 
[00]  G02  f 42  -1705.0 2046002.2  1.0  1.0  5  0 301236372
[01]  G05  f 43  -2290.8 2046003.0  1.0  1.0  5  0 301236373
[02]  G06  f 44    143.4 2045999.8  1.0  1.0  5  0 301236374
[03]  G09  f 37    816.6 2045998.9  1.0  1.0  5  0 301236371
[04]  G12  f 45    555.0 2045999.3  1.0  1.0  5  0 301236368
[05]  G23  f 41   2189.4 2045997.1  1.0  1.0  5  0 301236361
[06]  G25  f 42  -1100.3 2046001.4  1.0  1.0  5  0 301236362
[16]  B05 1f 32   -350.4 4092000.9  0.9  0.0  2  0 301222311
[17]  B12 1f 38  -2996.0 4092007.8  1.0  1.0  5  0 301222365
[18]  B19  7 42   1028.7 4091997.3  1.0  1.0  5  0      5151
$GNGGA,000000.000,,,,,0,00,,,M,,,,0000*2B
$GNRMC,000000.000,A,,,,,,,000000,,*26
$GPGSA,A,1,,,,,,,,,,,,,,,*1E
$BDGSA,A,1,,,,,,,,,,,,,,,*0F
$GPGSV,2,1,07,02,00,000,42,05,00,000,43,06,00,000,44,09,00,000,37*70
$GPGSV,2,2,07,12,00,000,46,23,00,000,41,25,00,000,42*4A
$BDGSV,1,1,03,05,00,000,32,12,00,000,38,19,00,000,42*59
$LOGTIM,0,0.000000,0.000000,0.000000,0.000000,0.000*0A
EndT:        0
---00000033--- Acq_st=3 2019-5-22 11:40:20 
[00]  G02  f 42  -1698.4 2046002.2  1.0  1.0  5  0 301237372
[01]  G05  f 43  -2284.2 2046003.0  1.0  1.0  5  0 301237373
[02]  G06  f 44    149.8 2045999.8  1.0  1.0  5  0 301237374
[03]  G09  f 37    824.1 2045998.9  1.0  1.0  5  0 301237371
[04]  G12  f 45    562.0 2045999.3  1.0  1.0  5  0 301237368
[05]  G23  f 40   2195.8 2045997.1  1.0  1.0  5  0 301237361
[06]  G25  f 42  -1093.3 2046001.4  1.0  1.0  5  0 301237362
[16]  B05 1f 32   -343.8 4092001.1  0.9  0.0  2  0 301223311
[17]  B12 1f 38  -2989.9 4092007.9  1.0  0.9  5  0 301223365
[18]  B19  7 42   1035.5 4091997.2  1.0  1.0  5  0      6151
$GNGGA,000000.000,,,,,0,00,,,M,,,,0000*2B
$GNRMC,000000.000,A,,,,,,,000000,,*26
$GPGSA,A,1,,,,,,,,,,,,,,,*1E
$BDGSA,A,1,,,,,,,,,,,,,,,*0F
$GPGSV,2,1,07,02,00,000,42,05,00,000,43,06,00,000,44,09,00,000,37*70
$GPGSV,2,2,07,12,00,000,45,23,00,000,40,25,00,000,42*48
$BDGSV,1,1,03,05,00,000,32,12,00,000,38,19,00,000,42*59
$LOGTIM,0,0.000000,0.000000,0.000000,0.000000,0.000*0A
EndT:        0
---00000034--- Acq_st=3 2019-5-22 11:40:21 
[00]  G02  f 42  -1696.2 2046002.2  1.0  1.0  5  0 301238372
[01]  G05  f 43  -2281.5 2046003.0  1.0  1.0  5  0 301238373
[02]  G06  f 44    152.4 2045999.8  1.0  1.0  5  0 301238374
[03]  G09  f 37    826.4 2045998.9  1.0  1.0  5  0 301238371
[04]  G12  f 45    564.8 2045999.3  1.0  1.0  5  0 301238368
[05]  G23  f 41   2198.4 2045997.1  1.0  1.0  5  0 301238361
[06]  G25  f 41  -1090.3 2046001.4  1.0  1.0  5  0 301238362
[16]  B05 1f 32   -343.0 4092000.9  0.9  0.0  2  0 301224311
[17]  B12 1f 38  -2987.6 4092007.8  1.0  1.0  5  0 301224365
[18]  B19 1f 42   1037.9 4091997.3  1.0  1.0  5  0      7151
$GNGGA,000000.000,,,,,0,00,,,M,,,,0000*2B
$GNRMC,000000.000,A,,,,,,,000000,,*26
$GPGSA,A,1,,,,,,,,,,,,,,,*1E
$BDGSA,A,1,,,,,,,,,,,,,,,*0F
$GPGSV,2,1,07,02,00,000,42,05,00,000,43,06,00,000,44,09,00,000,37*70
$GPGSV,2,2,07,12,00,000,45,23,00,000,41,25,00,000,41*4A
$BDGSV,1,1,03,05,00,000,32,12,00,000,38,19,00,000,42*59
$LOGTIM,0,0.000000,0.000000,0.000000,0.000000,0.000*0A
EndT:        0
---00000035--- Acq_st=3 2019-5-22 11:40:22 
[00]  G02  f 42  -1699.1 2046002.2  1.0  1.0  5  0 301239372
[01]  G05  f 43  -2283.9 2046003.0  1.0  1.0  5  0 301239373
[02]  G06  f 44    149.5 2045999.8  1.0  1.0  5  0 301239374
[03]  G09  f 38    823.9 2045999.0  1.0  1.0  5  0 301239371
[04]  G12  f 46    562.2 2045999.3  1.0  1.0  5  0 301239368
[05]  G23  f 41   2196.3 2045997.2  1.0  1.0  5  0 301239361
[06]  G25  f 41  -1092.9 2046001.4  1.0  1.0  5  0 301239362
[16]  B05 1f 32   -345.5 4092000.8  0.9  0.0  2  0 301225311
[17]  B12 1f 38  -2990.1 4092007.8  1.0  1.0  5  0 301225365
[18]  B19 1f 42   1035.5 4091997.3  1.0  1.0  5  0 301225371
$GNGGA,000000.000,,,,,0,00,,,M,,,,0000*2B
$GNRMC,000000.000,A,,,,,,,000000,,*26
$GPGSA,A,1,,,,,,,,,,,,,,,*1E
$BDGSA,A,1,,,,,,,,,,,,,,,*0F
$GPGSV,2,1,07,02,00,000,42,05,00,000,43,06,00,000,44,09,00,000,38*7F
$GPGSV,2,2,07,12,00,000,46,23,00,000,41,25,00,000,41*49
$BDGSV,1,1,03,05,00,000,32,12,00,000,38,19,00,000,42*59
$LOGTIM,0,0.000000,0.000000,0.000000,0.000000,0.000*0A
EndT:        0
---00000036--- Acq_st=7 2019-5-22 11:40:23 
[00]  G02  f 42  -1693.1 2046002.1  1.0  1.0  5  0 301240372
[01]  G05  f 43  -2277.8 2046002.9  1.0  1.0  5  0 301240373
[02]  G06  f 44    155.5 2045999.8  1.0  1.0  5  0 301240374
[03]  G09  f 38    830.5 2045998.9  1.0  1.0  5  0 301240371
[04]  G12  f 46    568.7 2045999.3  1.0  1.0  5  0 301240368
[05]  G23  f 42   2201.7 2045997.1  1.0  1.0  5  0 301240361
[06]  G25  f 41  -1086.2 2046001.4  1.0  1.0  5  0 301240362
[16]  B05 1f 32   -339.2 4092000.9  0.9  0.0  2  0 301226311
[17]  B12 1f 38  -2984.9 4092007.8  1.0  1.0  5  0 301226365
[18]  B19 1f 43   1041.7 4091997.2  1.0  1.0  5  0 301226371
$GNGGA,000000.000,,,,,0,00,,,M,,,,0000*2B
$GNRMC,000000.000,A,,,,,,,000000,,*26
$GPGSA,A,1,,,,,,,,,,,,,,,*1E
$BDGSA,A,1,,,,,,,,,,,,,,,*0F
$GPGSV,2,1,07,02,00,000,42,05,00,000,43,06,00,000,44,09,00,000,38*7F
$GPGSV,2,2,07,12,00,000,46,23,00,000,42,25,00,000,41*4A
$BDGSV,1,1,03,05,00,000,32,12,00,000,38,19,00,000,43*58
$LOGTIM,0,0.000000,0.000000,0.000000,0.000000,0.000*0A
EndT:        0
---00000037--- Acq_st=7 2019-5-22 11:40:24 
[00]  G02  f 42  -1692.4 2046002.2  1.0  1.0  5  0 301241372
[01]  G05  f 43  -2276.8 2046002.9  1.0  1.0  5  0 301241373
[02]  G06  f 44    156.9 2045999.8  1.0  1.0  5  0 301241374
[03]  G09  f 38    832.4 2045999.0  1.0  1.0  5  0 301241371
[04]  G12  f 45    570.2 2045999.3  1.0  1.0  5  0 301241368
[05]  G23  f 41   2203.1 2045997.1  1.0  1.0  5  0 301241361
[06]  G25  f 41  -1084.5 2046001.4  1.0  1.0  5  0 301241362
[16]  B05 1f 31   -338.4 4092000.9  0.9  0.0  2  0 301227311
[17]  B12 1f 38  -2982.6 4092007.8  1.0  1.1  5  0 301227365
[18]  B19 1f 43   1043.0 4091997.3  1.0  1.0  5  0 301227371
lsq: nits= 4
$GNGGA,114024.445,3112.7173,N,12136.4376,E,1,05,2.3,7.9,M,,,,0000*1E
$GNRMC,114024.445,A,3112.7173,N,12136.4376,E,0.13,0.00,220519,,*17
$GPGSA,A,3,02,05,06,09,12,,,,,,,,4.4,2.3,3.8*33
$BDGSA,A,3,,,,,,,,,,,,,4.4,2.3,3.8*29
$GPGSV,2,1,07,02,00,000,42,05,00,000,43,06,00,000,44,09,00,000,38*7F
$GPGSV,2,2,07,12,00,000,45,23,00,000,41,25,00,000,41*4A
$BDGSV,1,1,03,05,00,000,31,12,00,000,38,19,00,000,43*5B
$LOGTIM,1,8922873.606197,0.000000,0.000000,0.000000,-63.599*14
EndT:        1
---00000038--- Acq_st=3 2019-5-22 11:40:24 
[00]  G02  f 42  -1700.1 2046002.2  1.0  1.0  5  0 301242372
[01]  G05  f 43  -2284.0 2046003.0  1.0  1.0  5  0 301242373
[02]  G06  f 44    149.1 2045999.8  1.0  1.0  5  0 301242374
[03]  G09  f 37    824.7 2045998.9  1.0  1.0  5  0 301242371
[04]  G12  f 45    563.0 2045999.3  1.0  1.0  5  0 301242368
[05]  G23  f 42   2195.4 2045997.2  1.0  1.0  5  0 301242361
[06]  G25  f 41  -1091.9 2046001.4  1.0  1.0  5  0 301242362
[16]  B05 1f 32   -346.2 4092000.9  0.9  0.0  2  0 301228311
[17]  B12 1f 38  -2990.7 4092007.9  1.0  1.0  5  0 301228365
[18]  B19 1f 43   1035.3 4091997.3  1.0  1.0  5  0 301228371
lsq: nits= 2
$GNGGA,114026.000,3112.7150,N,12136.4371,E,1,05,2.3,9.8,M,,,,0000*10
$GNRMC,114026.000,A,3112.7150,N,12136.4371,E,0.18,0.00,220519,,*1D
$GPGSA,A,3,02,05,06,09,12,,,,,,,,4.4,2.3,3.8*33
$BDGSA,A,3,,,,,,,,,,,,,4.4,2.3,3.8*29
$GPGSV,2,1,07,02,00,000,42,05,00,000,43,06,00,000,44,09,00,000,37*70
$GPGSV,2,2,07,12,00,000,45,23,00,000,42,25,00,000,41*49
$BDGSV,1,1,03,05,00,000,32,12,00,000,38,19,00,000,43*58
$LOGTIM,1,-100.765696,0.000000,0.000000,0.000000,-64.705*37
EndT:        2
---00000039--- Acq_st=3 2019-5-22 11:40:26 
[00]  G02  f 42  -1697.3 2046002.2  1.0  1.0  5  0 301243927
[01]  G05  f 42  -2280.8 2046003.0  1.0  1.0  5  0 301243928
[02]  G06  f 43    151.9 2045999.8  1.0  1.0  5  0 301243929
[03]  G09  f 38    828.2 2045998.9  1.0  1.0  5  0 301243926
[04]  G12  f 45    566.2 2045999.3  1.0  1.0  5  0 301243923
[05]  G23  f 41   2198.8 2045997.1  1.0  1.0  5  0 301243916
[06]  G25  f 41  -1088.6 2046001.5  1.0  1.0  5  0 301243917
[16]  B05 1f 33   -343.9 4092000.8  0.9  0.0  2  0 301229866
[17]  B12 1f 38  -2987.9 4092007.8  1.0  1.0  5  0 301229920
[18]  B19 1f 44   1038.4 4091997.3  1.0  1.0  5  0 301229926
lsq: nits= 2
$GNGGA,114027.000,3112.7144,N,12136.4374,E,1,05,2.3,9.0,M,,,,0000*19
$GNRMC,114027.000,A,3112.7144,N,12136.4374,E,0.16,0.00,220519,,*12
$GPGSA,A,3,02,05,06,09,12,,,,,,,,4.4,2.3,3.8*33
$BDGSA,A,3,,,,,,,,,,,,,4.4,2.3,3.8*29
$GPGSV,2,1,07,02,51,327,42,05,44,250,42,06,55,044,43,09,37,064,38*7A
$GPGSV,2,2,07,12,27,274,45,23,00,000,41,25,00,000,41*4E
$BDGSV,1,1,03,05,00,000,33,12,00,000,38,19,00,000,44*5E
$LOGTIM,1,-166.620805,0.000000,0.000000,0.000000,-64.777*36
EndT:        2
---00000040--- Acq_st=3 2019-5-22 11:40:27 
[00]  G02  f 42  -1698.6 2046002.2  1.0  1.0  5  0 301244927
[01]  G05  f 42  -2281.8 2046002.9  1.0  1.0  5  0 301244928
[02]  G06  f 43    150.6 2045999.8  1.0  1.0  5  0 301244929
[03]  G09  f 39    827.4 2045998.9  1.0  0.9  5  0 301244926
[04]  G12  f 45    565.6 2045999.3  1.0  1.0  5  0 301244923
[05]  G23  f 41   2198.0 2045997.2  1.0  1.0  5  0 301244916
[06]  G25  f 41  -1089.9 2046001.4  1.0  1.0  5  0 301244917
[16]  B05 1f 31   -345.1 4092000.9  0.9  0.0  2  0 301230866
[17]  B12 1f 37  -2989.3 4092007.9  1.0  1.0  5  0 301230920
[18]  B19 1f 44   1037.7 4091997.2  1.0  1.0  5  0 301230926
lsq: nits= 2
$GNGGA,114028.000,3112.7139,N,12136.4378,E,1,05,2.3,8.3,M,,,,0000*12
$GNRMC,114028.000,A,3112.7139,N,12136.4378,E,0.45,0.00,220519,,*1D
$GPGSA,A,3,02,05,06,09,12,,,,,,,,4.4,2.3,3.8*33
$BDGSA,A,3,,,,,,,,,,,,,4.4,2.3,3.8*29
$GPGSV,2,1,07,02,51,327,42,05,44,250,42,06,55,044,43,09,37,064,39*7B
$GPGSV,2,2,07,12,27,274,45,23,00,000,41,25,00,000,41*4E
$BDGSV,1,1,03,05,00,000,31,12,00,000,37,19,00,000,44*53
$LOGTIM,1,-231.718448,0.000000,0.000000,0.000000,-64.386*32
EndT:        2
---00000041--- Acq_st=3 2019-5-22 11:40:28 
[00]  G02  f 42  -1694.8 2046002.2  1.0  1.0  5  0 301245927
[01]  G05  f 41  -2278.1 2046003.0  1.0  1.0  5  0 301245928
[02]  G06  f 44    154.4 2045999.8  1.0  1.0  5  0 301245929
[03]  G09  f 39    831.8 2045998.9  1.0  1.0  5  0 301245926
[04]  G12  f 45    569.4 2045999.2  1.0  1.0  5  0 301245923
[05]  G23  f 41   2201.4 2045997.2  1.0  1.0  5  0 301245916
[06]  G25  f 41  -1085.3 2046001.4  1.0  1.0  5  0 301245917
[16]  B05 1f 31   -341.2 4092000.9  0.9  0.0  2  0 301231866
[17]  B12 1f 37  -2985.6 4092007.8  1.0  1.0  5  0 301231920
[18]  B19 1f 44   1041.6 4091997.3  1.0  1.0  5  0 301231926
lsq: nits= 2
$GNGGA,114029.000,3112.7131,N,12136.4383,E,1,05,2.3,7.4,M,,,,0000*17
$GNRMC,114029.000,A,3112.7131,N,12136.4383,E,0.30,0.00,220519,,*12
$GPGSA,A,3,02,05,06,09,12,,,,,,,,4.4,2.3,3.8*33
$BDGSA,A,3,,,,,,,,,,,,,4.4,2.3,3.8*29
$GPGSV,2,1,07,02,51,327,42,05,44,250,41,06,55,044,44,09,37,064,39*7F
$GPGSV,2,2,07,12,27,274,45,23,00,000,41,25,00,000,41*4E
$BDGSV,1,1,03,05,00,000,31,12,00,000,37,19,00,000,44*53
$LOGTIM,1,-296.779933,0.000000,0.000000,0.000000,-64.586*3F
EndT:        2
---00000042--- Acq_st=3 2019-5-22 11:40:29 
[00]  G02  f 42  -1700.3 2046002.2  1.0  1.0  5  0 301246927
[01]  G05  f 41  -2282.8 2046003.0  1.0  1.0  5  0 301246928
[02]  G06  f 43    149.4 2045999.8  1.0  1.0  5  0 301246929
[03]  G09  f 39    827.3 2045998.9  1.0  1.0  5  0 301246926
[04]  G12  f 46    564.8 2045999.2  1.0  1.0  5  0 301246923
[05]  G23  f 41   2196.9 2045997.2  1.0  1.0  5  0 301246916
[06]  G25  f 41  -1090.4 2046001.4  1.0  1.0  5  0 301246917
[16]  B05 1f 31   -346.7 4092000.9  0.9  0.0  2  0 301232866
[17]  B12 1f 38  -2990.3 4092007.8  1.0  1.0  5  0 301232920
[18]  B19 1f 44   1036.5 4091997.3  1.0  1.0  5  0 301232926
lsq: nits= 2
$GNGGA,114030.000,3112.7125,N,12136.4387,E,1,05,2.3,6.8,M,,,,0000*13
$GNRMC,114030.000,A,3112.7125,N,12136.4387,E,0.16,0.00,220519,,*1F
$GPGSA,A,3,02,05,06,09,12,,,,,,,,4.4,2.3,3.8*33
$BDGSA,A,3,,,,,,,,,,,,,4.4,2.3,3.8*29
$GPGSV,2,1,07,02,51,327,42,05,44,250,41,06,55,044,43,09,37,064,39*78
$GPGSV,2,2,07,12,27,274,46,23,00,000,41,25,00,000,41*4D
$BDGSV,1,1,03,05,00,000,31,12,00,000,38,19,00,000,44*5C
$LOGTIM,1,-361.862910,0.000000,0.000000,0.000000,-64.827*34
EndT:        2
---00000043--- Acq_st=3 2019-5-22 11:40:30 
[00]  G02  f 42  -1699.2 2046002.2  1.0  1.0  5  0 301247927
[01]  G05  f 41  -2281.1 2046003.0  1.0  1.0  5  0 301247928
[02]  G06  f 44    150.5 2045999.8  1.0  1.0  5  0 301247929
[03]  G09  f 39    828.6 2045998.9  1.0  1.0  5  0 301247926
[04]  G12  f 45    566.5 2045999.3  1.0  1.0  5  0 301247923
[05]  G23  f 41   2198.4 2045997.1  1.0  1.0  5  0 301247916
[06]  G25  f 41  -1088.5 2046001.4  1.0  1.0  5  0 301247917
[16]  B05 1f 32   -344.8 4092000.9  0.9  0.0  2  0 301233866
[17]  B12 1f 37  -2989.7 4092007.8  1.0  1.0  5  0 301233920
[18]  B19 1f 44   1037.8 4091997.2  1.0  1.0  5  0 301233926
lsq: nits= 2
$GNGGA,114031.000,3112.7086,N,12136.4360,E,1,07,1.8,27.3,M,,,,0000*21
$GNRMC,114031.000,A,3112.7086,N,12136.4360,E,0.30,0.00,220519,,*1B
$GPGSA,A,3,02,05,06,09,12,23,25,,,,,,2.6,1.8,1.8*3B
$BDGSA,A,3,,,,,,,,,,,,,2.6,1.8,1.8*27
$GPGSV,2,1,07,02,51,327,42,05,44,250,41,06,55,044,44,09,37,064,39*7F
$GPGSV,2,2,07,12,27,274,45,23,00,000,41,25,00,000,41*4E
$BDGSV,1,1,03,05,00,000,32,12,00,000,37,19,00,000,44*50
$LOGTIM,1,-413.015110,0.000000,0.000000,0.000000,-64.652*3A
EndT:        2
---00000044--- Acq_st=3 2019-5-22 11:40:31 
[00]  G02  f 41  -1702.7 2046002.2  1.0  1.0  5  0 301248927
[01]  G05  f 41  -2283.8 2046003.0  1.0  1.0  5  0 301248928
[02]  G06  f 43    147.6 2045999.8  1.0  1.0  5  0 301248929
[03]  G09  f 39    825.8 2045998.9  1.0  1.0  5  0 301248926
[04]  G12  f 45    563.7 2045999.3  1.0  1.0  5  0 301248923
[05]  G23  f 41   2194.7 2045997.1  1.0  1.0  5  0 301248916
[06]  G25  f 42  -1091.1 2046001.4  1.0  1.0  5  0 301248917
[16]  B05 1f 30   -348.7 4092000.8  0.9  0.0  2  0 301234866
[17]  B12 1f 37  -2992.2 4092007.8  1.0  1.0  5  0 301234920
[18]  B19 1f 44   1034.9 4091997.3  1.0  1.0  5  0 301234926
lsq: nits= 2
$GNGGA,114032.000,3112.7079,N,12136.4350,E,1,07,1.8,34.6,M,,,,0000*26
$GNRMC,114032.000,A,3112.7079,N,12136.4350,E,0.58,0.00,220519,,*15
$GPGSA,A,3,02,05,06,09,12,23,25,,,,,,2.6,1.8,1.8*3B
$BDGSA,A,3,,,,,,,,,,,,,2.6,1.8,1.8*27
$GPGSV,2,1,07,02,51,327,41,05,44,250,41,06,55,044,43,09,37,064,39*7B
$GPGSV,2,2,07,12,27,274,45,23,09,040,41,25,10,308,42*4A
$BDGSV,1,1,03,05,00,000,30,12,00,000,37,19,00,000,44*52
$LOGTIM,1,-473.632047,0.000000,0.000000,0.000000,-64.766*3A
EndT:        2
---00000045--- Acq_st=3 2019-5-22 11:40:32 
[00]  G02  f 41  -1699.8 2046002.2  1.0  1.0  5  0 301249927
[01]  G05  f 40  -2281.4 2046003.0  1.0  1.0  5  0 301249928
[02]  G06  f 43    150.0 2045999.8  1.0  1.0  5  0 301249929
[03]  G09  f 39    828.9 2045998.9  1.0  1.0  5  0 301249926
[04]  G12  f 45    566.5 2045999.3  1.0  1.0  5  0 301249923
[05]  G23  f 41   2198.0 2045997.1  1.0  1.0  5  0 301249916
[06]  G25  f 42  -1088.4 2046001.4  1.0  1.0  5  0 301249917
[16]  B05 1f 31   -345.8 4092000.9  0.9  0.0  2  0 301235866
[17]  B12 1f 37  -2989.9 4092007.8  1.0  0.9  5  0 301235920
[18]  B19 1f 45   1037.8 4091997.2  1.0  1.0  5  0 301235926
lsq: nits= 2
$GNGGA,114033.000,3112.7080,N,12136.4348,E,1,07,1.8,36.0,M,,,,0000*2C
$GNRMC,114033.000,A,3112.7080,N,12136.4348,E,0.12,0.00,220519,,*15
$GPGSA,A,3,02,05,06,09,12,23,25,,,,,,2.6,1.8,1.8*3B
$BDGSA,A,3,,,,,,,,,,,,,2.6,1.8,1.8*27
$GPGSV,2,1,07,02,51,327,41,05,44,250,40,06,55,044,43,09,37,064,39*7A
$GPGSV,2,2,07,12,27,274,45,23,09,040,41,25,10,308,42*4A
$BDGSV,1,1,03,05,00,000,31,12,00,000,37,19,00,000,45*52
$LOGTIM,1,-537.857490,0.000000,0.000000,0.000000,-64.326*38
EndT:        2
---00000046--- Acq_st=3 2019-5-22 11:40:33 
[00]  G02  f 40  -1694.7 2046002.3  1.0  1.0  5  0 301250927
[01]  G05  f 40  -2276.1 2046003.0  1.0  1.0  5  0 301250928
[02]  G06  f 43    155.3 2045999.8  1.0  1.0  5  0 301250929
[03]  G09  f 40    834.4 2045998.9  1.0  1.0  5  0 301250926
[04]  G12  f 45    572.2 2045999.3  1.0  1.0  5  0 301250923
[05]  G23  f 40   2202.8 2045997.1  1.0  1.0  5  0 301250916
[06]  G25  f 42  -1082.5 2046001.4  1.0  1.0  5  0 301250917
[16]  B05 1f 31   -341.1 4092001.0  0.9  0.0  2  0 301236866
[17]  B12 1f 37  -2985.2 4092007.8  1.0  1.0  5  0 301236920
[18]  B19 1f 45   1043.1 4091997.3  1.0  1.0  5  0 301236926
lsq: nits= 2
$GNGGA,114034.000,3112.7072,N,12136.4341,E,1,07,1.8,39.3,M,,,,0000*23
$GNRMC,114034.000,A,3112.7072,N,12136.4341,E,0.26,0.00,220519,,*11
$GPGSA,A,3,02,05,06,09,12,23,25,,,,,,2.6,1.8,1.8*3B
$BDGSA,A,3,,,,,,,,,,,,,2.6,1.8,1.8*27
$GPGSV,2,1,07,02,51,327,40,05,44,250,40,06,55,044,43,09,37,064,40*75
$GPGSV,2,2,07,12,27,274,45,23,09,040,40,25,10,308,42*4B
$BDGSV,1,1,03,05,00,000,31,12,00,000,37,19,00,000,45*52
$LOGTIM,1,-600.740233,0.000000,0.000000,0.000000,-63.787*31
EndT:        2
---00000047--- Acq_st=3 2019-5-22 11:40:34 
[00]  G02  f 40  -1693.3 2046002.2  1.0  1.0  5  0 301251927
[01]  G05  f 40  -2274.4 2046003.0  1.0  1.0  5  0 301251928
[02]  G06  f 43    157.0 2045999.8  1.0  1.0  5  0 301251929
[03]  G09  f 39    836.2 2045998.9  1.0  1.0  5  0 301251926
[04]  G12  f 45    574.1 2045999.3  1.0  1.0  5  0 301251923
[05]  G23  f 41   2205.0 2045997.1  1.0  1.0  5  0 301251916
[06]  G25  f 42  -1080.4 2046001.4  1.0  1.0  5  0 301251917
[16]  B05 1f 32   -339.8 4092000.9  0.9  0.0  2  0 301237866
[17]  B12 1f 37  -2983.2 4092007.8  1.0  0.9  5  0 301237920
[18]  B19 1f 45   1045.2 4091997.3  1.0  1.0  5  0 301237926
lsq: nits= 2
$GNGGA,114035.000,3112.7065,N,12136.4341,E,1,07,1.8,41.6,M,,,,0000*2E
$GNRMC,114035.000,A,3112.7065,N,12136.4341,E,0.05,0.00,220519,,*17
$GPGSA,A,3,02,05,06,09,12,23,25,,,,,,2.6,1.8,1.8*3B
$BDGSA,A,3,,,,,,,,,,,,,2.6,1.8,1.8*27
$GPGSV,2,1,07,02,51,327,40,05,44,250,40,06,55,044,43,09,37,064,39*7B
$GPGSV,2,2,07,12,27,274,45,23,09,040,41,25,10,308,42*4A
$BDGSV,1,1,03,05,00,000,32,12,00,000,37,19,00,000,45*51
$LOGTIM,1,-664.694303,0.000000,0.000000,0.000000,-64.067*37
EndT:        2
---00000048--- Acq_st=3 2019-5-22 11:40:35 
[00]  G02  f 40  -1697.5 2046002.2  1.0  1.0  5  0 301252927
[01]  G05  f 40  -2277.5 2046002.9  1.0  1.0  5  0 301252928
[02]  G06  f 43    153.0 2045999.8  1.0  1.0  5  0 301252929
[03]  G09  f 39    832.9 2045998.9  1.0  1.0  5  0 301252926
[04]  G12  f 45    570.7 2045999.3  1.0  1.0  5  0 301252923
[05]  G23  f 40   2201.1 2045997.1  1.0  1.0  5  0 301252916
[06]  G25  f 42  -1084.4 2046001.4  1.0  1.0  5  0 301252917
[16]  B05 1f 33   -343.9 4092001.1  0.9  0.0  2  0 301238866
[17]  B12 1f 38  -2987.8 4092007.8  1.0  1.0  5  0 301238920
[18]  B19 1f 45   1041.1 4091997.3  1.0  1.0  5  0 301238926
lsq: nits= 2
$GNGGA,114036.000,3112.7058,N,12136.4342,E,1,07,1.8,43.9,M,,,,0000*2D
$GNRMC,114036.000,A,3112.7058,N,12136.4342,E,0.19,0.00,220519,,*14
$GPGSA,A,3,02,05,06,09,12,23,25,,,,,,2.6,1.8,1.8*3B
$BDGSA,A,3,,,,,,,,,,,,,2.6,1.8,1.8*27
$GPGSV,2,1,07,02,51,327,40,05,44,250,40,06,55,044,43,09,37,064,39*7B
$GPGSV,2,2,07,12,27,274,45,23,09,040,40,25,10,308,42*4B
$BDGSV,1,1,03,05,00,000,33,12,00,000,38,19,00,000,45*5F
$LOGTIM,1,-728.926592,0.000000,0.000000,0.000000,-64.299*35
EndT:        2
---00000049--- Acq_st=3 2019-5-22 11:40:36 
[00]  G02  f 40  -1697.5 2046002.2  1.0  1.0  5  0 301253927
[01]  G05  f 40  -2277.9 2046002.9  1.0  1.0  5  0 301253928
[02]  G06  f 43    153.0 2045999.8  1.0  1.0  5  0 301253929
[03]  G09  f 39    833.6 2045998.9  1.0  1.0  5  0 301253926
[04]  G12  f 45    570.9 2045999.3  1.0  1.0  5  0 301253923
[05]  G23  f 41   2201.1 2045997.1  1.0  1.0  5  0 301253916
[06]  G25  f 42  -1083.6 2046001.4  1.0  1.0  5  0 301253917
[16]  B05 1f 33   -343.7 4092000.9  0.9  0.0  2  0 301239866
[17]  B12 1f 38  -2987.5 4092007.8  1.0  1.0  5  0 301239920
[18]  B19 1f 45   1041.5 4091997.3  1.0  1.0  5  0 301239926
lsq: nits= 2
$GNGGA,114037.000,3112.7062,N,12136.4337,E,1,07,1.8,47.0,M,,,,0000*2A
$GNRMC,114037.000,A,3112.7062,N,12136.4337,E,0.59,0.00,220519,,*1A
$GPGSA,A,3,02,05,06,09,12,23,25,,,,,,2.6,1.8,1.8*3B
$BDGSA,A,3,,,,,,,,,,,,,2.6,1.8,1.8*27
$GPGSV,2,1,07,02,51,327,40,05,44,250,40,06,55,044,43,09,37,064,39*7B
$GPGSV,2,2,07,12,27,274,45,23,09,040,41,25,10,308,42*4A
$BDGSV,1,1,03,05,00,000,33,12,00,000,38,19,00,000,45*5F
$LOGTIM,1,-792.282521,0.000000,0.000000,0.000000,-64.565*3D
EndT:        2
---00000050--- Acq_st=3 2019-5-22 11:40:37 
[00]  G02  f 40  -1699.5 2046002.2  1.0  1.0  5  0 301254927
[01]  G05  f 40  -2279.0 2046003.0  1.0  1.0  5  0 301254928
[02]  G06  f 44    151.2 2045999.8  1.0  1.0  5  0 301254929
[03]  G09  f 39    831.9 2045998.9  1.0  1.0  5  0 301254926
[04]  G12  f 45    569.6 2045999.3  1.0  1.0  5  0 301254923
[05]  G23  f 40   2199.6 2045997.1  1.0  1.0  5  0 301254916
[06]  G25  f 42  -1085.2 2046001.4  1.0  1.0  5  0 301254917
[16]  B05 1f 32   -345.9 4092000.8  0.9  0.0  2  0 301240866
[17]  B12 1f 38  -2989.4 4092007.9  1.0  1.0  5  0 301240920
[18]  B19 1f 45   1039.7 4091997.3  1.0  1.0  5  0 301240926
lsq: nits= 2
$GNGGA,114038.000,3112.7056,N,12136.4333,E,1,07,1.8,47.6,M,,,,0000*20
$GNRMC,114038.000,A,3112.7056,N,12136.4333,E,0.09,0.00,220519,,*13
$GPGSA,A,3,02,05,06,09,12,23,25,,,,,,2.6,1.8,1.8*3B
$BDGSA,A,3,,,,,,,,,,,,,2.6,1.8,1.8*27
$GPGSV,2,1,07,02,51,327,40,05,44,250,40,06,55,044,44,09,37,064,39*7C
$GPGSV,2,2,07,12,27,274,45,23,09,040,40,25,10,308,42*4B
$BDGSV,1,1,03,05,00,000,32,12,00,000,38,19,00,000,45*5E
$LOGTIM,1,-856.587034,0.000000,0.000000,0.000000,-64.023*3E
EndT:        2
---00000051--- Acq_st=3 2019-5-22 11:40:38 
[00]  G02  f 40  -1693.2 2046002.2  1.0  1.0  5  0 301255927
[01]  G05  f 39  -2272.6 2046003.0  1.0  1.0  5  0 301255928
[02]  G06  f 44    157.8 2045999.8  1.0  1.0  5  0 301255929
[03]  G09  f 39    839.4 2045998.9  1.0  1.0  5  0 301255926
[04]  G12  f 45    576.6 2045999.3  1.0  1.0  5  0 301255923
[05]  G23  f 40   2206.5 2045997.2  1.0  0.9  5  0 301255916
[06]  G25  f 42  -1078.1 2046001.4  1.0  1.0  5  0 301255917
[16]  B05 1f 32   -340.0 4092001.0  0.9  0.0  2  0 301241866
[17]  B12 1f 38  -2982.8 4092007.8  1.0  1.0  5  0 301241920
[18]  B19 1f 45   1046.5 4091997.2  1.0  1.0  5  0 301241926
lsq: nits= 2
$GNGGA,114039.000,3112.7048,N,12136.4327,E,1,07,1.8,47.4,M,,,,0000*29
$GNRMC,114039.000,A,3112.7048,N,12136.4327,E,0.07,0.00,220519,,*16
$GPGSA,A,3,02,05,06,09,12,23,25,,,,,,2.6,1.8,1.8*3B
$BDGSA,A,3,,,,,,,,,,,,,2.6,1.8,1.8*27
$GPGSV,2,1,07,02,51,327,40,05,44,250,39,06,55,044,44,09,37,064,39*72
$GPGSV,2,2,07,12,27,274,45,23,09,040,40,25,10,308,42*4B
$BDGSV,1,1,03,05,00,000,32,12,00,000,38,19,00,000,45*5E
$LOGTIM,1,-920.763227,0.000000,0.000000,0.000000,-63.954*38
EndT:        2
---00000052--- Acq_st=3 2019-5-22 11:40:39 
[00]  G02  f 40  -1695.7 2046002.2  1.0  1.0  5  0 301256927
[01]  G05  f 39  -2275.1 2046002.9  1.0  1.0  5  0 301256928
[02]  G06  f 44    155.2 2045999.8  1.0  1.0  5  0 301256929
[03]  G09  f 39    836.9 2045998.9  1.0  1.0  5  0 301256926
[04]  G12  f 45    574.4 2045999.2  1.0  1.0  5  0 301256923
[05]  G23  f 40   2203.9 2045997.1  1.0  1.0  5  0 301256916
[06]  G25  f 42  -1080.9 2046001.4  1.0  1.0  5  0 301256917
[16]  B05 1f 33   -342.6 4092000.8  0.9  0.0  2  0 301242866
[17]  B12 1f 37  -2985.8 4092007.8  1.0  1.0  5  0 301242920
[18]  B19 1f 45   1044.2 4091997.3  1.0  1.0  5  0 301242926
lsq: nits= 2
$GNGGA,114040.000,3112.7042,N,12136.4324,E,1,07,1.8,47.5,M,,,,0000*2F
$GNRMC,114040.000,A,3112.7042,N,12136.4324,E,0.31,0.00,220519,,*14
$GPGSA,A,3,02,05,06,09,12,23,25,,,,,,2.6,1.8,1.8*3B
$BDGSA,A,3,,,,,,,,,,,,,2.6,1.8,1.8*27
$GPGSV,2,1,07,02,51,327,40,05,44,250,39,06,55,044,44,09,37,064,39*72
$GPGSV,2,2,07,12,27,274,45,23,09,040,40,25,10,308,42*4B
$BDGSV,1,1,03,05,00,000,33,12,00,000,37,19,00,000,45*50
$LOGTIM,1,-985.141236,0.000000,0.000000,0.000000,-64.357*3F
EndT:        2
---00000053--- Acq_st=3 2019-5-22 11:40:40 
[00]  G02  f 41  -1695.7 2046002.1  1.0  1.0  5  0 301257927
[01]  G05  f 39  -2275.0 2046003.0  1.0  0.9  5  0 301257928
[02]  G06  f 44    155.4 2045999.8  1.0  1.0  5  0 301257929
[03]  G09  f 39    837.6 2045998.9  1.0  1.0  5  0 301257926
[04]  G12  f 45    574.8 2045999.2  1.0  1.0  5  0 301257923
[05]  G23  f 40   2204.2 2045997.1  1.0  1.0  5  0 301257916
[06]  G25  f 42  -1080.2 2046001.4  1.0  1.0  5  0 301257917
[16]  B05 1f 32   -342.6 4092001.1  0.9  0.0  2  0 301243866
[17]  B12 1f 38  -2985.9 4092007.9  1.0  1.0  5  0 301243920
[18]  B19 1f 45   1044.4 4091997.3  1.0  1.0  5  0 301243926
lsq: nits= 2
$GNGGA,114041.000,3112.7053,N,12136.4315,E,1,07,1.8,50.9,M,,,,0000*26
$GNRMC,114041.000,A,3112.7053,N,12136.4315,E,0.20,0.00,220519,,*17
$GPGSA,A,3,02,05,06,09,12,23,25,,,,,,2.6,1.8,1.8*3B
$BDGSA,A,3,,,,,,,,,,,,,2.6,1.8,1.8*27
$GPGSV,2,1,07,02,51,327,41,05,44,250,39,06,55,044,44,09,37,064,39*73
$GPGSV,2,2,07,12,27,274,45,23,09,040,40,25,10,308,42*4B
$BDGSV,1,1,03,05,00,000,31,12,00,000,38,19,00,000,45*5D
$LOGTIM,1,-1046.692778,0.000000,0.000000,0.000000,-63.928*0B
EndT:        2
---00000054--- Acq_st=3 2019-5-22 11:40:41 
[00]  G02  f 41  -1693.5 2046002.2  1.0  1.0  5  0 301258927
[01]  G05  f 38  -2272.5 2046003.0  1.0  1.0  5  0 301258928
[02]  G06  f 44    157.3 2045999.8  1.0  1.0  5  0 301258929
[03]  G09  f 39    840.0 2045998.9  1.0  1.0  5  0 301258926
[04]  G12  f 45    577.1 2045999.3  1.0  1.0  5  0 301258923
[05]  G23  f 40   2206.2 2045997.1  1.0  1.0  5  0 301258916
[06]  G25  f 42  -1077.6 2046001.4  1.0  1.0  5  0 301258917
[16]  B05 1f 33   -341.1 4092000.7  0.9  0.0  2  0 301244866
[17]  B12 1f 38  -2983.5 4092007.8  1.0  1.0  5  0 301244920
[18]  B19 1f 45   1046.6 4091997.3  1.0  1.0  5  0 301244926
lsq: nits= 2
$GNGGA,114042.000,3112.7065,N,12136.4311,E,1,07,1.8,53.1,M,,,,0000*2F
$GNRMC,114042.000,A,3112.7065,N,12136.4311,E,0.42,0.00,220519,,*11
$GPGSA,A,3,02,05,06,09,12,23,25,,,,,,2.6,1.8,1.8*3B
$BDGSA,A,3,,,,,,,,,,,,,2.6,1.8,1.8*27
$GPGSV,2,1,07,02,51,327,41,05,44,250,38,06,55,044,44,09,37,064,39*72
$GPGSV,2,2,07,12,27,274,45,23,09,040,40,25,10,308,42*4B
$BDGSV,1,1,03,05,00,000,33,12,00,000,38,19,00,000,45*5F
$LOGTIM,1,-1108.371956,0.000000,0.000000,0.000000,-63.831*03
EndT:        2
---00000055--- Acq_st=3 2019-5-22 11:40:42 
[00]  G02  f 41  -1697.1 2046002.2  1.0  1.0  5  0 301259927
[01]  G05  f 39  -2275.1 2046003.0  1.0  1.0  5  0 301259928
[02]  G06  f 44    154.4 2045999.8  1.0  1.0  5  0 301259929
[03]  G09  f 39    837.5 2045998.9  1.0  1.0  5  0 301259926
[04]  G12  f 45    574.2 2045999.3  1.0  1.0  5  0 301259923
[05]  G23  f 41   2203.4 2045997.1  1.0  1.0  5  0 301259916
[06]  G25  f 42  -1080.1 2046001.4  1.0  1.0  5  0 301259917
[16]  B05 1f 33   -344.0 4092000.9  0.9  0.0  2  0 301245866
[17]  B12 1f 38  -2986.9 4092007.8  1.0  1.0  5  0 301245920
[18]  B19 1f 44   1043.7 4091997.3  1.0  1.0  5  0 301245926
[19]  B13  1  7   -842.3 4092002.8  0.0  0.0  1  0       353
lsq: nits= 2
$GNGGA,114043.000,3112.7074,N,12136.4309,E,1,07,1.8,54.0,M,,,,0000*21
$GNRMC,114043.000,A,3112.7074,N,12136.4309,E,1.16,0.00,220519,,*19
$GPGSA,A,3,02,05,06,09,12,23,25,,,,,,2.6,1.8,1.8*3B
$BDGSA,A,3,,,,,,,,,,,,,2.6,1.8,1.8*27
$GPGSV,2,1,07,02,51,327,41,05,44,250,39,06,55,044,44,09,37,064,39*73
$GPGSV,2,2,07,12,27,274,45,23,09,040,41,25,10,308,42*4A
$BDGSV,1,1,03,05,00,000,33,12,00,000,38,19,00,000,44*5E
$LOGTIM,1,-1171.686923,0.000000,0.000000,0.000000,-64.591*02
EndT:        2
---00000056--- Acq_st=3 2019-5-22 11:40:43 
[00]  G02  f 41  -1702.6 2046002.2  1.0  1.0  5  0 301260927
[01]  G05  f 39  -2280.0 2046002.9  1.0  1.0  5  0 301260928
[02]  G06  f 44    149.3 2045999.8  1.0  1.0  5  0 301260929
[03]  G09  f 39    832.3 2045998.9  1.0  1.0  5  0 301260926
[04]  G12  f 45    569.5 2045999.3  1.0  1.0  5  0 301260923
[05]  G23  f 40   2198.0 2045997.1  1.0  1.0  5  0 301260916
[06]  G25  f 42  -1085.0 2046001.4  1.0  1.0  5  0 301260917
[16]  B05 1f 34   -348.9 4092001.0  0.9  0.0  2  0 301246866
[17]  B12 1f 38  -2992.2 4092007.8  1.0  1.0  5  0 301246920
[18]  B19 1f 44   1038.8 4091997.3  1.0  1.0  5  0 301246926
[19]  B13  7 25   -804.7 4092002.3  0.2  0.0 20  0      1335
lsq: nits= 2
$GNGGA,114044.000,3112.7080,N,12136.4305,E,1,07,1.8,55.3,M,,,,0000*23
$GNRMC,114044.000,A,3112.7080,N,12136.4305,E,1.37,0.00,220519,,*1A
$GPGSA,A,3,02,05,06,09,12,23,25,,,,,,2.6,1.8,1.8*3B
$BDGSA,A,3,,,,,,,,,,,,,2.6,1.8,1.8*27
$GPGSV,2,1,08,02,51,327,41,05,44,250,39,06,55,044,44,09,37,064,39*7C
$GPGSV,2,2,08,12,27,274,45,23,09,040,40,25,10,308,42,17,33,145,00*72
$BDGSV,1,1,04,05,00,000,34,12,00,000,38,19,00,000,44,13,00,000,25*6B
$LOGTIM,1,-1235.702476,0.000000,0.000000,0.000000,-64.993*0F
EndT:        2
---00000057--- Acq_st=3 2019-5-22 11:40:44 
[00]  G02  f 41  -1703.6 2046002.2  1.0  1.0  5  0 301261927
[01]  G05  f 38  -2281.2 2046003.0  1.0  1.0  5  0 301261928
[02]  G06  f 44    148.2 2045999.8  1.0  1.0  5  0 301261929
[03]  G09  f 38    831.1 2045998.9  1.0  1.0  5  0 301261926
[04]  G12  f 45    569.0 2045999.3  1.0  1.0  5  0 301261923
[05]  G23  f 40   2197.0 2045997.2  1.0  1.0  5  0 301261916
[06]  G25  f 43  -1085.9 2046001.4  1.0  1.0  5  0 301261917
[16]  B05 1f 33   -350.7 4092000.9  0.9  0.0  2  0 301247866
[17]  B12 1f 38  -2993.4 4092007.8  1.0  1.0  5  0 301247920
[18]  B19 1f 44   1037.6 4091997.3  1.0  1.0  5  0 301247926
[19]  B13  7 35   -806.9 4092002.2  1.0  0.9  5  0      2335
lsq: nits= 2
$GNGGA,114045.000,3112.7083,N,12136.4300,E,1,09,1.8,56.7,M,,,,0000*2D
$GNRMC,114045.000,A,3112.7083,N,12136.4300,E,1.34,0.00,220519,,*1E
$GPGSA,A,3,02,05,06,09,12,23,25,,,,,,2.6,1.8,1.8*3B
$BDGSA,A,3,12,19,,,,,,,,,,,2.6,1.8,1.8*2C
$GPGSV,2,1,08,02,51,327,41,05,44,250,38,06,55,044,44,09,37,064,38*7C
$GPGSV,2,2,08,12,27,274,45,23,09,040,40,25,10,308,43,17,33,145,00*73
$BDGSV,1,1,04,05,00,000,33,12,00,000,38,19,00,000,44,13,00,000,35*6D
$LOGTIM,3,-1300.532748,-1475.786890,0.000000,0.000000,-65.399*16
EndT:        3
---00000058--- Acq_st=3 2019-5-22 11:40:45 
[00]  G02  f 41  -1706.0 2046002.2  1.0  1.0  5  0 301262927
[01]  G05  f 39  -2283.3 2046003.0  1.0  1.0  5  0 301262928
[02]  G06  f 43    145.8 2045999.8  1.0  1.0  5  0 301262929
[03]  G09  f 38    829.7 2045999.0  1.0  1.0  5  0 301262926
[04]  G12  f 45    566.8 2045999.3  1.0  1.0  5  0 301262923
[05]  G23  f 40   2195.0 2045997.1  1.0  1.0  5  0 301262916
[06]  G25  f 43  -1088.0 2046001.4  1.0  1.0  5  0 301262917
[16]  B05 1f 31   -353.0 4092000.9  0.9  0.0  2  0 301248866
[17]  B12 1f 37  -2995.7 4092007.8  1.0  1.0  5  0 301248920
[18]  B19 1f 43   1035.8 4091997.3  1.0  1.0  5  0 301248926
[19]  B13 1f 35   -808.9 4092002.2  1.0  1.0  5  0      3335
lsq: nits= 2
$GNGGA,114046.000,3112.7072,N,12136.4298,E,1,09,1.1,54.5,M,,,,0000*29
$GNRMC,114046.000,A,3112.7072,N,12136.4298,E,1.21,0.00,220519,,*17
$GPGSA,A,3,02,05,06,09,12,23,25,,,,,,1.4,1.1,0.8*32
$BDGSA,A,3,12,19,,,,,,,,,,,1.4,1.1,0.8*25
$GPGSV,2,1,08,02,51,328,41,05,44,251,39,06,55,044,43,09,37,064,38*74
$GPGSV,2,2,08,12,27,274,45,23,09,040,40,25,10,308,43,17,33,145,00*73
$BDGSV,1,1,04,05,00,000,31,12,32,320,37,19,64,039,43,13,00,000,35*6F
$LOGTIM,3,-1367.458106,-1512.981260,0.000000,0.000000,-65.459*11
EndT:        3
---00000059--- Acq_st=3 2019-5-22 11:40:46 
[00]  G02  f 41  -1705.7 2046002.2  1.0  1.0  5  0 301263927
[01]  G05  f 39  -2282.3 2046003.0  1.0  1.0  5  0 301263928
[02]  G06  f 44    146.5 2045999.8  1.0  1.0  5  0 301263929
[03]  G09  f 37    831.2 2045998.9  1.0  1.0  5  0 301263926
[04]  G12  f 45    568.0 2045999.3  1.0  1.0  5  0 301263923
