FlashID=0x1 0x20 0x18
BBram_blkflag1:  5a5: fa5a
FW Ver: 1.30  
GPS00 Init Dop:   5000, 40
GPS01 Init Dop:   5000, 40
GPS02 Init Dop:   5000, 40
GPS03 Init Dop:   5000, 40
GPS04 Init Dop:   5000, 40
GPS05 Init Dop:   5000, 40
GPS06 Init Dop:   5000, 40
GPS07 Init Dop:   5000, 40
GPS08 Init Dop:   5000, 40
GPS09 Init Dop:   5000, 40
GPS10 Init Dop:   5000, 40
GPS11 Init Dop:   5000, 40
GPS12 Init Dop:   5000, 40
GPS13 Init Dop:   5000, 40
GPS14 Init Dop:   5000, 40
GPS15 Init Dop:   5000, 40
GPS16 Init Dop:   5000, 40
GPS17 Init Dop:   5000, 40
GPS18 Init Dop:   5000, 40
GPS19 Init Dop:   5000, 40
GPS20 Init Dop:   5000, 40
GPS21 Init Dop:   5000, 40
GPS22 Init Dop:   5000, 40
GPS23 Init Dop:   5000, 40
GPS24 Init Dop:   5000, 40
GPS25 Init Dop:   5000, 40
GPS26 Init Dop:   5000, 40
GPS27 Init Dop:   5000, 40
GPS28 Init Dop:   5000, 40
GPS29 Init Dop:   5000, 40
GPS30 Init Dop:   5000, 40
GPS31 Init Dop:   5000, 40
BDS00 Init Dop:   5000, 40
BDS01 Init Dop:   5000, 40
BDS02 Init Dop:   5000, 40
BDS03 Init Dop:   5000, 40
BDS04 Init Dop:   5000, 40
BDS05 Init Dop:   5000, 40
BDS06 Init Dop:   5000, 40
BDS07 Init Dop:   5000, 40
BDS08 Init Dop:   5000, 40
BDS09 Init Dop:   5000, 40
BDS10 Init Dop:   5000, 40
BDS11 Init Dop:   5000, 40
BDS12 Init Dop:   5000, 40
BDS13 Init Dop:   5000, 40
BDS14 Init Dop:   5000, 40
BDS15 Init Dop:   5000, 40
BDS16 Init Dop:   5000, 40
BDS17 Init Dop:   5000, 40
BDS18 Init Dop:   5000, 40
BDS19 Init Dop:   5000, 40
BDS20 Init Dop:   5000, 40
BDS21 Init Dop:   5000, 40
BDS22 Init Dop:   5000, 40
BDS23 Init Dop:   5000, 40
BDS24 Init Dop:   5000, 40
BDS25 Init Dop:   5000, 40
BDS26 Init Dop:   5000, 40
BDS27 Init Dop:   5000, 40
BDS28 Init Dop:   5000, 40
BDS29 Init Dop:   5000, 40
BDS30 Init Dop:   5000, 40
BDS31 Init Dop:   5000, 40
good luck!
---00000001--- Acq_st=3 2019-5-22 11:41:29 
[00]  G02  1 15  -1708.5 2046004.3  0.1  0.0  1  0         0
$GNGGA,000000.000,,,,,0,00,,,M,,,,0000*2B
$GNRMC,000000.000,A,,,,,,,000000,,*26
$GPGSA,A,1,,,,,,,,,,,,,,,*1E
$BDGSA,A,1,,,,,,,,,,,,,,,*0F
$LOGTIM,0,0.000000,0.000000,0.000000,0.000000,0.000*0A
EndT:        0
---00000002--- Acq_st=3 2019-5-22 11:41:30 
[00]  G02  1 31  -1704.9 2046002.3  0.0  0.0  1  0         6
[01]  G05  1  7  -2258.1 2046004.1 -0.0  0.0  1  0         0
$GNGGA,000000.000,,,,,0,00,,,M,,,,0000*2B
$GNRMC,000000.000,A,,,,,,,000000,,*26
$GPGSA,A,1,,,,,,,,,,,,,,,*1E
$BDGSA,A,1,,,,,,,,,,,,,,,*0F
$LOGTIM,0,0.000000,0.000000,0.000000,0.000000,0.000*0A
EndT:        0
---00000003--- Acq_st=3 2019-5-22 11:41:31 
[00]  G02  7 39  -1701.2 2046002.1  0.4  1.0  5  0         6
[01]  G05  1 30  -2264.5 2046004.2  0.1  0.0  1  0        16
[02]  G06  1 21    142.5 2046000.9  0.2  0.0  1  0         0
$GNGGA,000000.000,,,,,0,00,,,M,,,,0000*2B
$GNRMC,000000.000,A,,,,,,,000000,,*26
$GPGSA,A,1,,,,,,,,,,,,,,,*1E
$BDGSA,A,1,,,,,,,,,,,,,,,*0F
$GPGSV,1,1,01,02,00,000,39*40
$LOGTIM,0,0.000000,0.000000,0.000000,0.000000,0.000*0A
EndT:        0
---00000004--- Acq_st=3 2019-5-22 11:41:32 
[00]  G02  7 44  -1699.6 2046002.1  1.0  1.0  5  0        16
[01]  G05  7 36  -2261.2 2046002.9  0.8  1.0  5  0        16
[02]  G06  7 28    159.1 2045999.7  0.4  1.0 10  0        12
[03]  G09  1 19    872.5 2045999.3  0.0  0.0  1  0         0
$GNGGA,000000.000,,,,,0,00,,,M,,,,0000*2B
$GNRMC,000000.000,A,,,,,,,000000,,*26
$GPGSA,A,1,,,,,,,,,,,,,,,*1E
$BDGSA,A,1,,,,,,,,,,,,,,,*0F
$GPGSV,1,1,03,02,00,000,44,05,00,000,36,06,00,000,28*44
$LOGTIM,0,0.000000,0.000000,0.000000,0.000000,0.000*0A
EndT:        0
---00000005--- Acq_st=3 2019-5-22 11:41:33 
[00]  G02  7 44  -1696.7 2046002.2  1.0  1.0  5  0        16
[01]  G05  7 44  -2257.9 2046002.9  1.0  1.0  5  0        17
[02]  G06  7 42    161.5 2045999.7  1.0  1.0  5  0        18
[03]  G09  7 26    865.4 2045998.9  0.6  0.0 20  0         3
[04]  G12  1 23    596.4 2045999.7 -0.0  0.0  1  0         0
$GNGGA,000000.000,,,,,0,00,,,M,,,,0000*2B
$GNRMC,000000.000,A,,,,,,,000000,,*26
$GPGSA,A,1,,,,,,,,,,,,,,,*1E
$BDGSA,A,1,,,,,,,,,,,,,,,*0F
$GPGSV,1,1,04,02,00,000,44,05,00,000,44,06,00,000,42,09,00,000,26*77
$LOGTIM,0,0.000000,0.000000,0.000000,0.000000,0.000*0A
EndT:        0
---00000006--- Acq_st=3 2019-5-22 11:41:34 
[00]  G02  7 44  -1697.0 2046002.1  1.0  1.0  5  0        16
[01]  G05  7 43  -2257.9 2046002.9  1.0  1.0  5  0        17
[02]  G06  7 42    161.3 2045999.7  1.0  1.0  5  0        18
[03]  G09  7 37    866.1 2045998.8  1.0  1.0  5  0        15
[04]  G12  7 26    600.3 2045999.1  0.4  0.0 20  0        14
$GNGGA,000000.000,,,,,0,00,,,M,,,,0000*2B
$GNRMC,000000.000,A,,,,,,,000000,,*26
$GPGSA,A,1,,,,,,,,,,,,,,,*1E
$BDGSA,A,1,,,,,,,,,,,,,,,*0F
$GPGSV,2,1,05,02,00,000,44,05,00,000,43,06,00,000,42,09,00,000,37*72
$GPGSV,2,2,05,12,00,000,26*4B
$LOGTIM,0,0.000000,0.000000,0.000000,0.000000,0.000*0A
EndT:        1
---00000007--- Acq_st=3 2019-5-22 11:41:35 
[00]  G02  7 44  -1695.9 2046002.2  1.0  1.0  5  0        16
[01]  G05  7 44  -2256.9 2046002.9  1.0  1.0  5  0        17
[02]  G06  7 42    162.3 2045999.7  1.0  1.0  5  0        18
[03]  G09  7 36    867.2 2045998.9  1.0  1.0  5  0        15
[04]  G12  7 46    601.6 2045999.2  0.9  1.0  5  0        12
$GNGGA,000000.000,,,,,0,00,,,M,,,,0000*2B
$GNRMC,000000.000,A,,,,,,,000000,,*26
$GPGSA,A,1,,,,,,,,,,,,,,,*1E
$BDGSA,A,1,,,,,,,,,,,,,,,*0F
$GPGSV,2,1,05,02,00,000,44,05,00,000,44,06,00,000,42,09,00,000,36*74
$GPGSV,2,2,05,12,00,000,46*4D
$LOGTIM,0,0.000000,0.000000,0.000000,0.000000,0.000*0A
EndT:        0
---00000008--- Acq_st=3 2019-5-22 11:41:36 
[00]  G02  7 44  -1697.5 2046002.2  1.0  1.0  5  0        16
[01]  G05  7 44  -2257.5 2046002.9  1.0  1.0  5  0        17
[02]  G06  7 42    160.9 2045999.8  1.0  1.0  5  0        18
[03]  G09  7 37    866.5 2045998.8  1.0  1.0  5  0        15
[04]  G12  7 46    600.6 2045999.2  1.0  1.0  5  0        12
$GNGGA,000000.000,,,,,0,00,,,M,,,,0000*2B
$GNRMC,000000.000,A,,,,,,,000000,,*26
$GPGSA,A,1,,,,,,,,,,,,,,,*1E
$BDGSA,A,1,,,,,,,,,,,,,,,*0F
$GPGSV,2,1,05,02,00,000,44,05,00,000,44,06,00,000,42,09,00,000,37*75
$GPGSV,2,2,05,12,00,000,46*4D
$LOGTIM,0,0.000000,0.000000,0.000000,0.000000,0.000*0A
EndT:        0
---00000009--- Acq_st=3 2019-5-22 11:41:37 
[00]  G02  f 45  -1695.0 2046002.2  1.0  1.0  5  0        16
[01]  G05  f 43  -2254.4 2046002.9  1.0  1.0  5  0        17
[02]  G06  f 42    163.8 2045999.8  1.0  1.0  5  0        18
[03]  G09  f 37    870.0 2045998.9  1.0  1.0  5  0        15
[04]  G12  f 46    604.0 2045999.2  1.0  1.0  5  0        12
[05]  G23  1 25   2228.5 2045997.7 -0.0  0.0  1  0         0
$GNGGA,000000.000,,,,,0,00,,,M,,,,0000*2B
$GNRMC,000000.000,A,,,,,,,000000,,*26
$GPGSA,A,1,,,,,,,,,,,,,,,*1E
$BDGSA,A,1,,,,,,,,,,,,,,,*0F
$GPGSV,2,1,05,02,00,000,45,05,00,000,43,06,00,000,42,09,00,000,37*73
$GPGSV,2,2,05,12,00,000,46*4D
$LOGTIM,0,0.000000,0.000000,0.000000,0.000000,0.000*0A
EndT:        0
---00000010--- Acq_st=3 2019-5-22 11:41:38 
[00]  G02  f 44  -1695.1 2046002.2  1.0  1.0  5  0 301315336
[01]  G05  f 43  -2254.6 2046003.0  1.0  1.0  5  0 301315337
[02]  G06  f 43    163.8 2045999.8  1.0  1.0  5  0 301315338
[03]  G09  f 38    869.8 2045998.8  1.0  1.0  5  0 301315335
[04]  G12  f 46    604.1 2045999.2  1.0  1.0  5  0 301315332
[05]  G23  7 25   2219.8 2045997.0  0.4  0.0 20  0         0
[06]  G25  1 27  -1053.2 2046001.9  0.0  0.0  1  0         0
$GNGGA,000000.000,,,,,0,00,,,M,,,,0000*2B
$GNRMC,000000.000,A,,,,,,,000000,,*26
$GPGSA,A,1,,,,,,,,,,,,,,,*1E
$BDGSA,A,1,,,,,,,,,,,,,,,*0F
$GPGSV,2,1,06,02,00,000,44,05,00,000,43,06,00,000,43,09,00,000,38*7F
$GPGSV,2,2,06,12,00,000,46,23,00,000,25*78
$LOGTIM,0,0.000000,0.000000,0.000000,0.000000,0.000*0A
EndT:        0
---00000011--- Acq_st=3 2019-5-22 11:41:39 
[00]  G02  f 44  -1696.9 2046002.2  1.0  1.0  5  0 301316336
[01]  G05  f 43  -2256.2 2046003.0  1.0  1.0  5  0 301316337
[02]  G06  f 43    162.5 2045999.8  1.0  1.0  5  0 301316338
[03]  G09  f 38    868.8 2045998.8  1.0  1.0  5  0 301316335
[04]  G12  f 46    602.8 2045999.2  1.0  1.0  5  0 301316332
[05]  G23  7 41   2218.5 2045997.1  1.0  1.0  5  0         5
[06]  G25  7 30  -1050.8 2046001.3  0.5  1.0  5  0        13
$GNGGA,000000.000,,,,,0,00,,,M,,,,0000*2B
$GNRMC,000000.000,A,,,,,,,000000,,*26
$GPGSA,A,1,,,,,,,,,,,,,,,*1E
$BDGSA,A,1,,,,,,,,,,,,,,,*0F
$GPGSV,2,1,07,02,00,000,44,05,00,000,43,06,00,000,43,09,00,000,38*7E
$GPGSV,2,2,07,12,00,000,46,23,00,000,41,25,00,000,30*4F
$LOGTIM,0,0.000000,0.000000,0.000000,0.000000,0.000*0A
EndT:        0
---00000012--- Acq_st=3 2019-5-22 11:41:40 
[00]  G02  f 44  -1693.6 2046002.2  1.0  1.0  5  0 301317336
[01]  G05  f 43  -2252.6 2046003.0  1.0  1.0  5  0 301317337
[02]  G06  f 42    165.3 2045999.8  1.0  1.0  5  0 301317338
[03]  G09  f 39    872.2 2045998.8  1.0  1.0  5  0 301317335
[04]  G12  f 46    606.5 2045999.2  1.0  1.0  5  0 301317332
[05]  G23  7 41   2221.4 2045997.1  1.0  1.0  5  0         5
[06]  G25  7 41  -1047.2 2046001.3  1.0  1.0  5  0         6
$GNGGA,000000.000,,,,,0,00,,,M,,,,0000*2B
$GNRMC,000000.000,A,,,,,,,000000,,*26
$GPGSA,A,1,,,,,,,,,,,,,,,*1E
$BDGSA,A,1,,,,,,,,,,,,,,,*0F
$GPGSV,2,1,07,02,00,000,44,05,00,000,43,06,00,000,42,09,00,000,39*7E
$GPGSV,2,2,07,12,00,000,46,23,00,000,41,25,00,000,41*49
$LOGTIM,0,0.000000,0.000000,0.000000,0.000000,0.000*0A
EndT:        0
---00000013--- Acq_st=3 2019-5-22 11:41:41 
[00]  G02  f 44  -1693.3 2046002.2  1.0  1.0  5  0 301318336
[01]  G05  f 42  -2251.6 2046002.9  1.0  1.0  5  0 301318337
[02]  G06  f 42    166.3 2045999.8  1.0  1.0  5  0 301318338
[03]  G09  f 39    873.5 2045998.9  1.0  1.0  5  0 301318335
[04]  G12  f 46    607.6 2045999.2  1.0  1.0  5  0 301318332
[05]  G23  7 41   2222.1 2045997.1  1.0  1.0  5  0         5
[06]  G25  7 41  -1046.1 2046001.4  1.0  1.0  5  0         6
$GNGGA,000000.000,,,,,0,00,,,M,,,,0000*2B
$GNRMC,000000.000,A,,,,,,,000000,,*26
$GPGSA,A,1,,,,,,,,,,,,,,,*1E
$BDGSA,A,1,,,,,,,,,,,,,,,*0F
$GPGSV,2,1,07,02,00,000,44,05,00,000,42,06,00,000,42,09,00,000,39*7F
$GPGSV,2,2,07,12,00,000,46,23,00,000,41,25,00,000,41*49
$LOGTIM,0,0.000000,0.000000,0.000000,0.000000,0.000*0A
EndT:        0
---00000014--- Acq_st=3 2019-5-22 11:41:42 
[00]  G02  f 45  -1685.2 2046002.2  1.0  1.0  5  0 301319336
[01]  G05  f 42  -2243.4 2046002.9  1.0  1.0  5  0 301319337
[02]  G06  f 42    174.1 2045999.8  1.0  1.0  5  0 301319338
[03]  G09  f 39    881.4 2045998.8  1.0  1.0  5  0 301319335
[04]  G12  f 46    615.8 2045999.2  1.0  1.0  5  0 301319332
[05]  G23  7 41   2230.4 2045997.0  1.0  1.0  5  0         5
[06]  G25  7 41  -1037.4 2046001.3  1.0  1.0  5  0         6
$GNGGA,000000.000,,,,,0,00,,,M,,,,0000*2B
$GNRMC,000000.000,A,,,,,,,000000,,*26
$GPGSA,A,1,,,,,,,,,,,,,,,*1E
$BDGSA,A,1,,,,,,,,,,,,,,,*0F
$GPGSV,2,1,07,02,00,000,45,05,00,000,42,06,00,000,42,09,00,000,39*7E
$GPGSV,2,2,07,12,00,000,46,23,00,000,41,25,00,000,41*49
$LOGTIM,0,0.000000,0.000000,0.000000,0.000000,0.000*0A
EndT:        0
---00000015--- Acq_st=3 2019-5-22 11:41:43 
[00]  G02  f 45  -1686.2 2046002.2  1.0  1.0  5  0 301320336
[01]  G05  f 42  -2243.8 2046002.9  1.0  1.0  5  0 301320337
[02]  G06  f 42    173.7 2045999.8  1.0  1.0  5  0 301320338
[03]  G09  f 39    881.8 2045998.8  1.0  1.0  5  0 301320335
[04]  G12  f 46    615.9 2045999.2  1.0  1.0  5  0 301320332
[05]  G23  f 40   2230.1 2045997.1  1.0  1.0  5  0         5
[06]  G25  f 40  -1037.9 2046001.4  1.0  1.0  5  0         6
$GNGGA,000000.000,,,,,0,00,,,M,,,,0000*2B
$GNRMC,000000.000,A,,,,,,,000000,,*26
$GPGSA,A,1,,,,,,,,,,,,,,,*1E
$BDGSA,A,1,,,,,,,,,,,,,,,*0F
$GPGSV,2,1,07,02,00,000,45,05,00,000,42,06,00,000,42,09,00,000,39*7E
$GPGSV,2,2,07,12,00,000,46,23,00,000,40,25,00,000,40*49
$LOGTIM,0,0.000000,0.000000,0.000000,0.000000,0.000*0A
EndT:        0
---00000016--- Acq_st=3 2019-5-22 11:41:44 
[00]  G02  f 44  -1686.2 2046002.2  1.0  1.0  5  0 301321336
[01]  G05  f 42  -2243.4 2046002.9  1.0  1.0  5  0 301321337
[02]  G06  f 42    173.5 2045999.8  1.0  1.0  5  0 301321338
[03]  G09  f 40    882.0 2045998.9  1.0  1.0  5  0 301321335
[04]  G12  f 46    615.9 2045999.2  1.0  1.0  5  0 301321332
[05]  G23  f 41   2230.1 2045997.1  1.0  1.0  5  0 301321325
[06]  G25  f 40  -1037.5 2046001.4  1.0  1.0  5  0 301321326
[16]  B05  1 10   -343.6 4092000.4 -0.1  0.0  1  0         0
$GNGGA,000000.000,,,,,0,00,,,M,,,,0000*2B
$GNRMC,000000.000,A,,,,,,,000000,,*26
$GPGSA,A,1,,,,,,,,,,,,,,,*1E
$BDGSA,A,1,,,,,,,,,,,,,,,*0F
$GPGSV,2,1,07,02,00,000,44,05,00,000,42,06,00,000,42,09,00,000,40*71
$GPGSV,2,2,07,12,00,000,46,23,00,000,41,25,00,000,40*48
$LOGTIM,0,0.000000,0.000000,0.000000,0.000000,0.000*0A
EndT:        0
---00000017--- Acq_st=3 2019-5-22 11:41:45 
[00]  G02  f 44  -1689.8 2046002.2  1.0  1.0  5  0 301322336
[01]  G05  f 41  -2247.0 2046002.9  1.0  1.0  5  0 301322337
[02]  G06  f 42    170.2 2045999.8  1.0  1.0  5  0 301322338
[03]  G09  f 39    879.0 2045998.9  1.0  1.0  5  0 301322335
[04]  G12  f 46    613.1 2045999.2  1.0  1.0  5  0 301322332
[05]  G23  f 41   2226.9 2045997.1  1.0  1.0  5  0 301322325
[06]  G25  f 39  -1040.7 2046001.4  1.0  1.0  5  0 301322326
[16]  B05  7 31   -333.7 4092000.7 -0.1  0.0  2  0       494
$GNGGA,000000.000,,,,,0,00,,,M,,,,0000*2B
$GNRMC,000000.000,A,,,,,,,000000,,*26
$GPGSA,A,1,,,,,,,,,,,,,,,*1E
$BDGSA,A,1,,,,,,,,,,,,,,,*0F
$GPGSV,2,1,07,02,00,000,44,05,00,000,41,06,00,000,42,09,00,000,39*7C
$GPGSV,2,2,07,12,00,000,46,23,00,000,41,25,00,000,39*46
$BDGSV,1,1,01,05,00,000,31*5E
$LOGTIM,0,0.000000,0.000000,0.000000,0.000000,0.000*0A
EndT:        0
---00000018--- Acq_st=3 2019-5-22 11:41:46 
[00]  G02  f 43  -1694.3 2046002.2  1.0  1.0  5  0 301323336
[01]  G05  f 42  -2251.0 2046002.9  1.0  1.0  5  0 301323337
[02]  G06  f 42    165.6 2045999.8  1.0  1.0  5  0 301323338
[03]  G09  f 39    875.6 2045998.9  1.0  1.0  5  0 301323335
[04]  G12  f 46    609.4 2045999.2  1.0  1.0  5  0 301323332
[05]  G23  f 41   2222.6 2045997.1  1.0  1.0  5  0 301323325
[06]  G25  f 39  -1043.8 2046001.3  1.0  1.0  5  0 301323326
[16]  B05  f 32   -343.6 4092000.9  0.9  0.0  2  0      1493
$GNGGA,000000.000,,,,,0,00,,,M,,,,0000*2B
$GNRMC,000000.000,A,,,,,,,000000,,*26
$GPGSA,A,1,,,,,,,,,,,,,,,*1E
$BDGSA,A,1,,,,,,,,,,,,,,,*0F
$GPGSV,2,1,07,02,00,000,43,05,00,000,42,06,00,000,42,09,00,000,39*78
$GPGSV,2,2,07,12,00,000,46,23,00,000,41,25,00,000,39*46
$BDGSV,1,1,01,05,00,000,32*5D
$LOGTIM,0,0.000000,0.000000,0.000000,0.000000,0.000*0A
EndT:        0
---00000019--- Acq_st=3 2019-5-22 11:41:47 
[00]  G02  f 44  -1696.9 2046002.2  1.0  1.0  5  0 301324336
[01]  G05  f 41  -2253.1 2046003.0  1.0  1.0  5  0 301324337
[02]  G06  f 41    163.6 2045999.8  1.0  1.0  5  0 301324338
[03]  G09  f 40    873.5 2045998.8  1.0  1.0  5  0 301324335
[04]  G12  f 46    606.8 2045999.2  1.0  1.0  5  0 301324332
[05]  G23  f 40   2220.7 2045997.2  1.0  1.0  5  0 301324325
[06]  G25  f 39  -1046.0 2046001.3  1.0  1.0  5  0 301324326
[16]  B05  f 33   -347.3 4092001.0  0.9  0.0  2  0 301310875
$GNGGA,000000.000,,,,,0,00,,,M,,,,0000*2B
$GNRMC,000000.000,A,,,,,,,000000,,*26
$GPGSA,A,1,,,,,,,,,,,,,,,*1E
$BDGSA,A,1,,,,,,,,,,,,,,,*0F
$GPGSV,2,1,07,02,00,000,44,05,00,000,41,06,00,000,41,09,00,000,40*71
$GPGSV,2,2,07,12,00,000,46,23,00,000,40,25,00,000,39*47
$BDGSV,1,1,01,05,00,000,33*5C
$LOGTIM,0,0.000000,0.000000,0.000000,0.000000,0.000*0A
EndT:        0
---00000020--- Acq_st=3 2019-5-22 11:41:48 
[00]  G02  f 44  -1697.6 2046002.2  1.0  1.0  5  0 301325336
[01]  G05  f 41  -2253.8 2046003.0  1.0  1.0  5  0 301325337
[02]  G06  f 41    162.6 2045999.8  1.0  1.0  5  0 301325338
[03]  G09  f 40    872.5 2045998.8  1.0  1.0  5  0 301325335
[04]  G12  f 46    606.5 2045999.2  1.0  1.0  5  0 301325332
[05]  G23  f 40   2220.0 2045997.1  1.0  1.0  5  0 301325325
[06]  G25  f 39  -1046.7 2046001.4  1.0  1.0  5  0 301325326
[16]  B05 1f 31   -349.0 4092001.1  0.9  0.0  2  0 301311875
$GNGGA,000000.000,,,,,0,00,,,M,,,,0000*2B
$GNRMC,000000.000,A,,,,,,,000000,,*26
$GPGSA,A,1,,,,,,,,,,,,,,,*1E
$BDGSA,A,1,,,,,,,,,,,,,,,*0F
$GPGSV,2,1,07,02,00,000,44,05,00,000,41,06,00,000,41,09,00,000,40*71
$GPGSV,2,2,07,12,00,000,46,23,00,000,40,25,00,000,39*47
$BDGSV,1,1,01,05,00,000,31*5E
$LOGTIM,0,0.000000,0.000000,0.000000,0.000000,0.000*0A
EndT:        0
---00000021--- Acq_st=3 2019-5-22 11:41:49 
[00]  G02  f 44  -1701.0 2046002.2  1.0  1.0  5  0 301326336
[01]  G05  f 41  -2256.9 2046002.9  1.0  1.0  5  0 301326337
[02]  G06  f 41    159.7 2045999.8  1.0  1.0  5  0 301326338
[03]  G09  f 40    870.0 2045998.9  1.0  1.0  5  0 301326335
[04]  G12  f 46    603.6 2045999.2  1.0  1.0  5  0 301326332
[05]  G23  f 40   2216.5 2045997.1  1.0  1.0  5  0 301326325
[06]  G25  f 39  -1049.7 2046001.3  1.0  1.0  5  0 301326326
[16]  B05 1f 31   -352.1 4092000.8  0.9  0.0  2  0 301312275
[17]  B12  1  7    628.7 4092008.2 -0.0  0.0  1  0         0
$GNGGA,000000.000,,,,,0,00,,,M,,,,0000*2B
$GNRMC,000000.000,A,,,,,,,000000,,*26
$GPGSA,A,1,,,,,,,,,,,,,,,*1E
$BDGSA,A,1,,,,,,,,,,,,,,,*0F
$GPGSV,2,1,07,02,00,000,44,05,00,000,41,06,00,000,41,09,00,000,40*71
$GPGSV,2,2,07,12,00,000,46,23,00,000,40,25,00,000,39*47
$BDGSV,1,1,01,05,00,000,31*5E
$LOGTIM,0,0.000000,0.000000,0.000000,0.000000,0.000*0A
EndT:        0
---00000022--- Acq_st=3 2019-5-22 11:41:50 
[00]  G02  f 43  -1704.8 2046002.2  1.0  1.0  5  0 301327336
[01]  G05  f 41  -2260.0 2046002.9  1.0  1.0  5  0 301327337
[02]  G06  f 41    155.7 2045999.8  1.0  1.0  5  0 301327338
[03]  G09  f 39    867.1 2045998.9  1.0  1.0  5  0 301327335
[04]  G12  f 46    600.3 2045999.2  1.0  1.0  5  0 301327332
[05]  G23  f 41   2213.4 2045997.2  1.0  1.0  5  0 301327325
[06]  G25  f 39  -1052.7 2046001.3  1.0  1.0  5  0 301327326
[16]  B05 1f 31   -355.5 4092000.8  0.9  0.0  2  0 301313275
[17]  B12  1  7  -2990.3 4092008.5  0.1  0.0  1  0        67
[18]  B13  1  7   -811.8 4092002.4  0.0  0.0  1  0         0
$GNGGA,000000.000,,,,,0,00,,,M,,,,0000*2B
$GNRMC,000000.000,A,,,,,,,000000,,*26
$GPGSA,A,1,,,,,,,,,,,,,,,*1E
$BDGSA,A,1,,,,,,,,,,,,,,,*0F
$GPGSV,2,1,07,02,00,000,43,05,00,000,41,06,00,000,41,09,00,000,39*78
$GPGSV,2,2,07,12,00,000,46,23,00,000,41,25,00,000,39*46
$BDGSV,1,1,01,05,00,000,31*5E
$LOGTIM,0,0.000000,0.000000,0.000000,0.000000,0.000*0A
EndT:        0
---00000023--- Acq_st=3 2019-5-22 11:41:51 
[00]  G02  f 43  -1706.7 2046002.2  1.0  1.0  5  0 301328336
[01]  G05  f 41  -2262.3 2046003.0  1.0  1.0  5  0 301328337
[02]  G06  f 42    154.1 2045999.8  1.0  1.0  5  0 301328338
[03]  G09  f 39    865.3 2045998.9  1.0  1.0  5  0 301328335
[04]  G12  f 46    598.6 2045999.2  1.0  1.0  5  0 301328332
[05]  G23  f 41   2211.6 2045997.1  1.0  1.0  5  0 301328325
[06]  G25  f 38  -1054.5 2046001.4  1.0  1.0  5  0 301328326
[16]  B05 1f 30   -357.2 4092001.0  0.9  0.0  2  0 301314275
[17]  B12  7 31  -2991.7 4092007.8  0.6  1.0  5  0      1067
[18]  B13  1  7   -808.6 4092003.4 -0.2  0.0  1  0       292
$GNGGA,000000.000,,,,,0,00,,,M,,,,0000*2B
$GNRMC,000000.000,A,,,,,,,000000,,*26
$GPGSA,A,1,,,,,,,,,,,,,,,*1E
$BDGSA,A,1,,,,,,,,,,,,,,,*0F
$GPGSV,2,1,07,02,00,000,43,05,00,000,41,06,00,000,42,09,00,000,39*7B
$GPGSV,2,2,07,12,00,000,46,23,00,000,41,25,00,000,38*47
$BDGSV,1,1,02,05,00,000,30,12,00,000,31*6D
$LOGTIM,0,0.000000,0.000000,0.000000,0.000000,0.000*0A
EndT:        0
---00000024--- Acq_st=3 2019-5-22 11:41:52 
[00]  G02  f 43  -1709.1 2046002.2  1.0  1.0  5  0 301329336
[01]  G05  f 41  -2264.0 2046002.9  1.0  1.0  5  0 301329337
[02]  G06  f 42    151.7 2045999.8  1.0  1.0  5  0 301329338
[03]  G09  f 39    863.7 2045998.9  1.0  1.0  5  0 301329335
[04]  G12  f 46    596.9 2045999.2  1.0  1.0  5  0 301329332
[05]  G23  f 40   2209.4 2045997.1  1.0  1.0  5  0 301329325
[06]  G25  f 39  -1056.0 2046001.4  1.0  1.0  5  0 301329326
[16]  B05 1f 32   -359.6 4092000.8  0.9  0.0  2  0 301315275
[17]  B12  7 37  -2994.1 4092007.9  1.0  0.9  5  0      2049
[18]  B13  7 34   -820.1 4092002.2  0.3  0.9  5  0      1292
$GNGGA,000000.000,,,,,0,00,,,M,,,,0000*2B
$GNRMC,000000.000,A,,,,,,,000000,,*26
$GPGSA,A,1,,,,,,,,,,,,,,,*1E
$BDGSA,A,1,,,,,,,,,,,,,,,*0F
$GPGSV,2,1,07,02,00,000,43,05,00,000,41,06,00,000,42,09,00,000,39*7B
$GPGSV,2,2,07,12,00,000,46,23,00,000,40,25,00,000,39*47
$BDGSV,1,1,03,05,00,000,32,12,00,000,37,13,00,000,34*5D
$LOGTIM,0,0.000000,0.000000,0.000000,0.000000,0.000*0A
EndT:        0
---00000025--- Acq_st=3 2019-5-22 11:41:53 
[00]  G02  f 43  -1709.1 2046002.2  1.0  1.0  5  0 301330336
[01]  G05  f 41  -2263.3 2046003.0  1.0  1.0  5  0 301330337
[02]  G06  f 42    152.4 2045999.8  1.0  1.0  5  0 301330338
[03]  G09  f 39    864.0 2045998.9  1.0  1.0  5  0 301330335
[04]  G12  f 46    597.5 2045999.2  1.0  1.0  5  0 301330332
[05]  G23  f 40   2209.9 2045997.1  1.0  1.0  5  0 301330325
[06]  G25  f 39  -1055.4 2046001.4  1.0  1.0  5  0 301330326
[16]  B05 1f 32   -359.9 4092001.1  0.9  0.0  2  0 301316275
[17]  B12  7 38  -2994.6 4092007.9  1.0  1.0  5  0      3049
[18]  B13  7 36   -820.0 4092002.2  1.0  1.0  5  0      2284
$GNGGA,000000.000,,,,,0,00,,,M,,,,0000*2B
$GNRMC,000000.000,A,,,,,,,000000,,*26
$GPGSA,A,1,,,,,,,,,,,,,,,*1E
$BDGSA,A,1,,,,,,,,,,,,,,,*0F
$GPGSV,2,1,07,02,00,000,43,05,00,000,41,06,00,000,42,09,00,000,39*7B
$GPGSV,2,2,07,12,00,000,46,23,00,000,40,25,00,000,39*47
$BDGSV,1,1,03,05,00,000,32,12,00,000,38,13,00,000,36*50
$LOGTIM,0,0.000000,0.000000,0.000000,0.000000,0.000*0A
EndT:        0
---00000026--- Acq_st=3 2019-5-22 11:41:54 
[00]  G02  f 43  -1705.7 2046002.2  1.0  1.0  5  0 301331336
[01]  G05  f 41  -2259.8 2046003.0  1.0  1.0  5  0 301331337
[02]  G06  f 42    155.5 2045999.8  1.0  1.0  5  0 301331338
[03]  G09  f 39    868.1 2045998.9  1.0  1.0  5  0 301331335
[04]  G12  f 46    601.4 2045999.2  1.0  1.0  5  0 301331332
[05]  G23  f 40   2213.7 2045997.1  1.0  1.0  5  0 301331325
[06]  G25  f 39  -1051.8 2046001.3  1.0  1.0  5  0 301331326
[16]  B05 1f 32   -356.5 4092000.9  0.9  0.0  2  0 301317275
[17]  B12  7 38  -2990.6 4092007.9  1.0  1.0  5  0      4049
[18]  B13  7 36   -817.5 4092002.1  1.0  1.0  5  0      3284
$GNGGA,000000.000,,,,,0,00,,,M,,,,0000*2B
$GNRMC,000000.000,A,,,,,,,000000,,*26
$GPGSA,A,1,,,,,,,,,,,,,,,*1E
$BDGSA,A,1,,,,,,,,,,,,,,,*0F
$GPGSV,2,1,07,02,00,000,43,05,00,000,41,06,00,000,42,09,00,000,39*7B
$GPGSV,2,2,07,12,00,000,46,23,00,000,40,25,00,000,39*47
$BDGSV,1,1,03,05,00,000,32,12,00,000,38,13,00,000,36*50
$LOGTIM,0,0.000000,0.000000,0.000000,0.000000,0.000*0A
EndT:        0
---00000027--- Acq_st=3 2019-5-22 11:41:55 
[00]  G02  f 42  -1697.9 2046002.2  1.0  1.0  5  0 301332336
[01]  G05  f 41  -2251.7 2046003.0  1.0  1.0  5  0 301332337
[02]  G06  f 42    163.8 2045999.8  1.0  1.0  5  0 301332338
[03]  G09  f 39    876.5 2045998.9  1.0  1.0  5  0 301332335
[04]  G12  f 46    609.7 2045999.2  1.0  1.0  5  0 301332332
[05]  G23  f 40   2221.6 2045997.1  1.0  1.0  5  0 301332325
[06]  G25  f 39  -1043.2 2046001.4  1.0  1.0  5  0 301332326
[16]  B05 1f 31   -349.0 4092001.0  0.9  0.0  2  0 301318275
[17]  B12  7 38  -2983.0 4092007.8  1.0  1.0  5  0      5049
[18]  B13  7 36   -809.1 4092002.1  1.0  1.0  5  0      4284
[19]  B19  1  7   1054.7 4091996.4  0.1  0.0  1  0         0
$GNGGA,000000.000,,,,,0,00,,,M,,,,0000*2B
$GNRMC,000000.000,A,,,,,,,000000,,*26
$GPGSA,A,1,,,,,,,,,,,,,,,*1E
$BDGSA,A,1,,,,,,,,,,,,,,,*0F
$GPGSV,2,1,07,02,00,000,42,05,00,000,41,06,00,000,42,09,00,000,39*7A
$GPGSV,2,2,07,12,00,000,46,23,00,000,40,25,00,000,39*47
$BDGSV,1,1,03,05,00,000,31,12,00,000,38,13,00,000,36*53
$LOGTIM,0,0.000000,0.000000,0.000000,0.000000,0.000*0A
EndT:        0
---00000028--- Acq_st=3 2019-5-22 11:41:56 
[00]  G02  f 42  -1698.8 2046002.2  1.0  1.0  5  0 301333336
[01]  G05  f 41  -2252.5 2046002.9  1.0  1.0  5  0 301333337
[02]  G06  f 42    162.5 2045999.8  1.0  1.0  5  0 301333338
[03]  G09  f 38    876.5 2045998.9  1.0  1.0  5  0 301333335
[04]  G12  f 46    609.1 2045999.2  1.0  1.0  5  0 301333332
[05]  G23  f 40   2221.0 2045997.1  1.0  1.0  5  0 301333325
[06]  G25  f 40  -1044.3 2046001.3  1.0  1.0  5  0 301333326
[16]  B05 1f 32   -349.8 4092001.0  0.9  0.0  2  0 301319275
[17]  B12  7 38  -2983.7 4092007.8  1.0  0.9  5  0      6049
[18]  B13  7 36   -811.0 4092002.2  1.0  1.0  5  0      5284
[19]  B19  7 24   1065.2 4091997.2  0.3  0.0 20  0       641
$GNGGA,000000.000,,,,,0,00,,,M,,,,0000*2B
$GNRMC,000000.000,A,,,,,,,000000,,*26
$GPGSA,A,1,,,,,,,,,,,,,,,*1E
$BDGSA,A,1,,,,,,,,,,,,,,,*0F
$GPGSV,2,1,07,02,00,000,42,05,00,000,41,06,00,000,42,09,00,000,38*7B
$GPGSV,2,2,07,12,00,000,46,23,00,000,40,25,00,000,40*49
$BDGSV,1,1,04,05,00,000,32,12,00,000,38,13,00,000,36,19,00,000,24*69
$LOGTIM,0,0.000000,0.000000,0.000000,0.000000,0.000*0A
EndT:        0
---00000029--- Acq_st=3 2019-5-22 11:41:57 
[00]  G02  f 42  -1695.5 2046002.2  1.0  1.0  5  0 301334336
[01]  G05  f 41  -2248.7 2046002.9  1.0  1.0  5  0 301334337
[02]  G06  f 42    165.8 2045999.8  1.0  0.9  5  0 301334338
[03]  G09  f 37    880.2 2045998.9  1.0  1.0  5  0 301334335
[04]  G12  f 46    613.1 2045999.2  1.0  1.0  5  0 301334332
[05]  G23  f 40   2223.9 2045997.1  1.0  1.0  5  0 301334325
[06]  G25  f 40  -1040.0 2046001.3  1.0  1.0  5  0 301334326
[16]  B05 1f 32   -346.9 4092000.9  0.9  0.0  2  0 301320275
[17]  B12 1f 37  -2980.3 4092007.8  1.0  0.9  5  0      7049
[18]  B13 1f 36   -807.4 4092002.1  1.0  1.0  5  0      6284
[19]  B19 1f 43   1068.6 4091997.2  1.0  1.0  5  0      1635
$GNGGA,000000.000,,,,,0,00,,,M,,,,0000*2B
$GNRMC,000000.000,A,,,,,,,000000,,*26
$GPGSA,A,1,,,,,,,,,,,,,,,*1E
$BDGSA,A,1,,,,,,,,,,,,,,,*0F
$GPGSV,2,1,07,02,00,000,42,05,00,000,41,06,00,000,42,09,00,000,37*74
$GPGSV,2,2,07,12,00,000,46,23,00,000,40,25,00,000,40*49
$BDGSV,1,1,04,05,00,000,32,12,00,000,37,13,00,000,36,19,00,000,43*67
$LOGTIM,0,0.000000,0.000000,0.000000,0.000000,0.000*0A
EndT:        0
---00000030--- Acq_st=3 2019-5-22 11:41:58 
[00]  G02  f 42  -1695.5 2046002.2  1.0  1.0  5  0 301335336
[01]  G05  f 42  -2248.5 2046002.9  1.0  1.0  5  0 301335337
[02]  G06  f 42    166.1 2045999.8  1.0  1.0  5  0 301335338
[03]  G09  f 37    880.4 2045998.9  1.0  1.0  5  0 301335335
[04]  G12  f 46    613.4 2045999.2  1.0  1.0  5  0 301335332
[05]  G23  f 40   2224.5 2045997.1  1.0  1.0  5  0 301335325
[06]  G25  f 40  -1039.7 2046001.3  1.0  1.0  5  0 301335326
[16]  B05 1f 33   -347.4 4092000.7  0.9  0.0  2  0 301321275
[17]  B12 1f 37  -2979.9 4092007.8  1.0  1.0  5  0 301321329
[18]  B13 1f 36   -809.0 4092002.1  1.0  1.0  5  0 301321284
[19]  B19 1f 42   1068.4 4091997.2  1.0  1.0  5  0 301321335
$GNGGA,000000.000,,,,,0,00,,,M,,,,0000*2B
$GNRMC,000000.000,A,,,,,,,000000,,*26
$GPGSA,A,1,,,,,,,,,,,,,,,*1E
$BDGSA,A,1,,,,,,,,,,,,,,,*0F
$GPGSV,2,1,07,02,00,000,42,05,00,000,42,06,00,000,42,09,00,000,37*77
$GPGSV,2,2,07,12,00,000,46,23,00,000,40,25,00,000,40*49
$BDGSV,1,1,04,05,00,000,33,12,00,000,37,13,00,000,36,19,00,000,42*67
$LOGTIM,0,0.000000,0.000000,0.000000,0.000000,0.000*0A
EndT:        0
---00000031--- Acq_st=3 2019-5-22 11:41:59 
[00]  G02  f 42  -1696.5 2046002.2  1.0  1.0  5  0 301336336
[01]  G05  f 42  -2249.4 2046002.9  1.0  1.0  5  0 301336337
[02]  G06  f 42    165.4 2045999.8  1.0  1.0  5  0 301336338
[03]  G09  f 37    879.6 2045998.9  1.0  1.0  5  0 301336335
[04]  G12  f 47    613.1 2045999.2  1.0  1.0  5  0 301336332
[05]  G23  f 41   2223.6 2045997.1  1.0  1.0  5  0 301336325
[06]  G25  f 39  -1039.9 2046001.4  1.0  1.0  5  0 301336326
[16]  B05 1f 32   -347.9 4092000.8  0.9  0.0  2  0 301322275
[17]  B12 1f 38  -2981.6 4092007.8  1.0  1.0  5  0 301322329
[18]  B13 1f 36   -809.0 4092002.1  1.0  1.0  5  0 301322284
[19]  B19 1f 42   1068.1 4091997.2  1.0  1.0  5  0 301322335
$GNGGA,000000.000,,,,,0,00,,,M,,,,0000*2B
$GNRMC,000000.000,A,,,,,,,000000,,*26
$GPGSA,A,1,,,,,,,,,,,,,,,*1E
$BDGSA,A,1,,,,,,,,,,,,,,,*0F
$GPGSV,2,1,07,02,00,000,42,05,00,000,42,06,00,000,42,09,00,000,37*77
$GPGSV,2,2,07,12,00,000,47,23,00,000,41,25,00,000,39*47
$BDGSV,1,1,04,05,00,000,32,12,00,000,38,13,00,000,36,19,00,000,42*69
$LOGTIM,0,0.000000,0.000000,0.000000,0.000000,0.000*0A
EndT:        0
---00000032--- Acq_st=3 2019-5-22 11:42:0 
[00]  G02  f 42  -1696.1 2046002.2  1.0  1.0  5  0 301337336
[01]  G05  f 42  -2248.4 2046002.9  1.0  1.0  5  0 301337337
[02]  G06  f 41    165.9 2045999.8  1.0  1.0  5  0 301337338
[03]  G09  f 37    881.7 2045998.8  1.0  1.0  5  0 301337335
[04]  G12  f 47    613.9 2045999.2  1.0  1.0  5  0 301337332
[05]  G23  f 41   2224.3 2045997.1  1.0  1.0  5  0 301337325
[06]  G25  f 39  -1039.4 2046001.3  1.0  1.0  5  0 301337326
[16]  B05 1f 31   -347.4 4092000.9  0.9  0.0  2  0 301323275
[17]  B12 1f 37  -2981.3 4092007.8  1.0  1.0  5  0 301323329
[18]  B13 1f 36   -808.4 4092002.1  1.0  1.0  5  0 301323284
[19]  B19 1f 42   1069.0 4091997.2  1.0  1.0  5  0 301323335
lsq: nits= 4
$GNGGA,114200.409,3112.7142,N,12136.4327,E,1,07,1.8,59.7,M,,,,0000*2B
$GNRMC,114200.409,A,3112.7142,N,12136.4327,E,0.06,0.00,220519,,*19
$GPGSA,A,3,02,05,06,09,12,23,25,,,,,,2.6,1.8,1.8*3B
$BDGSA,A,3,,,,,,,,,,,,,2.6,1.8,1.8*27
$GPGSV,2,1,07,02,00,000,42,05,00,000,42,06,00,000,41,09,00,000,37*74
$GPGSV,2,2,07,12,00,000,47,23,00,000,41,25,00,000,39*47
$BDGSV,1,1,04,05,00,000,31,12,00,000,37,13,00,000,36,19,00,000,42*65
$LOGTIM,1,8913688.206901,0.000000,0.000000,0.000000,-65.268*10
EndT:        1
---00000033--- Acq_st=3 2019-5-22 11:42:0 
[00]  G02  f 41  -1698.8 2046002.2  1.0  1.0  5  0 301338336
[01]  G05  f 43  -2250.2 2046002.9  1.0  1.0  5  0 301338337
[02]  G06  f 41    163.3 2045999.8  1.0  1.0  5  0 301338338
[03]  G09  f 37    879.4 2045998.9  1.0  1.0  5  0 301338335
[04]  G12  f 47    611.9 2045999.2  1.0  1.0  5  0 301338332
[05]  G23  f 41   2222.3 2045997.1  1.0  1.0  5  0 301338325
[06]  G25  f 39  -1041.3 2046001.4  1.0  1.0  5  0 301338326
[16]  B05 1f 31   -349.9 4092001.0  0.9  0.0  2  0 301324275
[17]  B12 1f 38  -2983.3 4092007.8  1.0  1.0  5  0 301324329
[18]  B13 1f 36   -810.8 4092002.1  1.0  1.0  5  0 301324284
[19]  B19 1f 42   1066.5 4091997.2  1.0  1.0  5  0 301324335
lsq: nits= 2
$GNGGA,114202.000,3112.7152,N,12136.4346,E,1,07,1.8,61.6,M,,,,0000*28
$GNRMC,114202.000,A,3112.7152,N,12136.4346,E,0.10,0.00,220519,,*17
$GPGSA,A,3,02,05,06,09,12,23,25,,,,,,2.6,1.8,1.8*3B
$BDGSA,A,3,,,,,,,,,,,,,2.6,1.8,1.8*27
$GPGSV,2,1,07,02,00,000,41,05,00,000,43,06,00,000,41,09,00,000,37*76
$GPGSV,2,2,07,12,00,000,47,23,00,000,41,25,00,000,39*47
$BDGSV,1,1,04,05,00,000,31,12,00,000,38,13,00,000,36,19,00,000,42*6A
$LOGTIM,1,-102.367814,0.000000,0.000000,0.000000,-66.028*3D
EndT:        2
---00000034--- Acq_st=3 2019-5-22 11:42:2 
[00]  G02  f 41  -1700.0 2046002.2  1.0  1.0  5  0 301339927
[01]  G05  f 43  -2251.1 2046002.9  1.0  1.0  5  0 301339928
[02]  G06  f 40    162.4 2045999.8  1.0  1.0  5  0 301339929
[03]  G09  f 37    878.4 2045998.9  1.0  1.0  5  0 301339926
[04]  G12  f 46    611.1 2045999.2  1.0  1.0  5  0 301339923
[05]  G23  f 40   2220.7 2045997.2  1.0  1.0  5  0 301339916
[06]  G25  f 39  -1041.6 2046001.4  1.0  1.0  5  0 301339917
[16]  B05 1f 32   -351.4 4092001.0  0.9  0.0  2  0 301325866
[17]  B12 1f 37  -2984.5 4092007.9  1.0  1.0  5  0 301325920
[18]  B13 1f 36   -813.0 4092002.1  1.0  0.9  5  0 301325875
[19]  B19 1f 42   1065.8 4091997.2  1.0  1.0  5  0 301325926
lsq: nits= 2
$GNGGA,114203.000,3112.7164,N,12136.4348,E,1,07,1.8,62.9,M,,,,0000*2E
$GNRMC,114203.000,A,3112.7164,N,12136.4348,E,0.24,0.00,220519,,*1A
$GPGSA,A,3,02,05,06,09,12,23,25,,,,,,2.6,1.8,1.8*3B
$BDGSA,A,3,,,,,,,,,,,,,2.6,1.8,1.8*27
$GPGSV,2,1,07,02,51,328,41,05,45,251,43,06,55,045,40,09,37,063,37*7D
$GPGSV,2,2,07,12,26,274,46,23,09,040,40,25,10,308,39*45
$BDGSV,1,1,04,05,00,000,32,12,00,000,37,13,00,000,36,19,00,000,42*66
$LOGTIM,1,-167.203962,0.000000,0.000000,0.000000,-65.851*38
EndT:        2
---00000035--- Acq_st=3 2019-5-22 11:42:3 
[00]  G02  f 42  -1698.5 2046002.2  1.0  1.0  5  0 301340927
[01]  G05  f 43  -2249.5 2046002.9  1.0  1.0  5  0 301340928
[02]  G06  f 41    164.1 2045999.8  1.0  1.0  5  0 301340929
[03]  G09  f 37    879.9 2045998.9  1.0  1.0  5  0 301340926
[04]  G12  f 47    613.0 2045999.2  1.0  1.0  5  0 301340923
[05]  G23  f 41   2223.1 2045997.1  1.0  1.0  5  0 301340916
[06]  G25  f 39  -1040.1 2046001.3  1.0  1.0  5  0 301340917
[16]  B05 1f 32   -349.7 4092001.0  0.9  0.0  2  0 301326866
[17]  B12 1f 37  -2983.3 4092007.8  1.0  1.0  5  0 301326920
[18]  B13 1f 36   -811.4 4092002.1  1.0  1.0  5  0 301326875
[19]  B19 1f 42   1067.2 4091997.2  1.0  1.0  5  0 301326926
lsq: nits= 2
$GNGGA,114204.000,3112.7166,N,12136.4356,E,1,07,1.8,63.7,M,,,,0000*2B
$GNRMC,114204.000,A,3112.7166,N,12136.4356,E,0.05,0.00,220519,,*13
$GPGSA,A,3,02,05,06,09,12,23,25,,,,,,2.6,1.8,1.8*3B
$BDGSA,A,3,,,,,,,,,,,,,2.6,1.8,1.8*27
$GPGSV,2,1,07,02,51,328,42,05,45,251,43,06,55,045,41,09,37,063,37*7F
$GPGSV,2,2,07,12,26,274,47,23,09,040,41,25,10,308,39*45
$BDGSV,1,1,04,05,00,000,32,12,00,000,37,13,00,000,36,19,00,000,42*66
$LOGTIM,1,-232.671306,0.000000,0.000000,0.000000,-65.643*3F
EndT:        2
---00000036--- Acq_st=3 2019-5-22 11:42:4 
[00]  G02  f 42  -1698.1 2046002.2  1.0  1.0  5  0 301341927
[01]  G05  f 43  -2249.3 2046002.9  1.0  1.0  5  0 301341928
[02]  G06  f 41    164.7 2045999.9  1.0  1.0  5  0 301341929
[03]  G09  f 37    881.4 2045998.8  1.0  0.9  5  0 301341926
[04]  G12  f 47    613.8 2045999.2  1.0  1.0  5  0 301341923
[05]  G23  f 41   2223.1 2045997.1  1.0  1.0  5  0 301341916
[06]  G25  f 40  -1039.1 2046001.3  1.0  1.0  5  0 301341917
[16]  B05 1f 33   -349.4 4092001.0  0.9  0.0  2  0 301327866
[17]  B12 1f 37  -2982.8 4092007.8  1.0  1.0  5  0 301327920
[18]  B13 1f 36   -810.7 4092002.1  1.0  1.0  5  0 301327875
[19]  B19 1f 42   1068.2 4091997.2  1.0  1.0  5  0 301327926
lsq: nits= 2
$GNGGA,114205.000,3112.7167,N,12136.4367,E,1,07,1.8,64.6,M,,,,0000*2F
$GNRMC,114205.000,A,3112.7167,N,12136.4367,E,0.12,0.00,220519,,*17
$GPGSA,A,3,02,05,06,09,12,23,25,,,,,,2.6,1.8,1.8*3B
$BDGSA,A,3,,,,,,,,,,,,,2.6,1.8,1.8*27
$GPGSV,2,1,07,02,51,328,42,05,45,251,43,06,55,045,41,09,37,063,37*7F
$GPGSV,2,2,07,12,26,274,47,23,09,040,41,25,10,308,40*4B
$BDGSV,1,1,04,05,00,000,33,12,00,000,37,13,00,000,36,19,00,000,42*67
$LOGTIM,1,-298.402711,0.000000,0.000000,0.000000,-65.854*33
EndT:        2
---00000037--- Acq_st=7 2019-5-22 11:42:5 
[00]  G02  f 42  -1699.3 2046002.2  1.0  1.0  5  0 301342927
[01]  G05  f 43  -2249.8 2046002.9  1.0  1.0  5  0 301342928
[02]  G06  f 41    163.2 2045999.8  1.0  1.0  5  0 301342929
[03]  G09  f 37    880.8 2045998.9  1.0  1.0  5  0 301342926
[04]  G12  f 47    613.0 2045999.2  1.0  1.0  5  0 301342923
[05]  G23  f 41   2222.0 2045997.1  1.0  1.0  5  0 301342916
[06]  G25  f 40  -1039.9 2046001.4  1.0  1.0  5  0 301342917
[16]  B05 1f 32   -350.8 4092001.0  0.9  0.0  2  0 301328866
[17]  B12 1f 38  -2984.4 4092007.8  1.0  1.0  5  0 301328920
[18]  B13 1f 36   -812.2 4092002.1  1.0  1.0  5  0 301328875
[19]  B19 1f 42   1067.0 4091997.2  1.0  1.0  5  0 301328926
lsq: nits= 2
$GNGGA,114206.000,3112.7172,N,12136.4367,E,1,07,1.8,64.2,M,,,,0000*2C
$GNRMC,114206.000,A,3112.7172,N,12136.4367,E,0.15,0.00,220519,,*17
$GPGSA,A,3,02,05,06,09,12,23,25,,,,,,2.6,1.8,1.8*3B
$BDGSA,A,3,,,,,,,,,,,,,2.6,1.8,1.8*27
$GPGSV,2,1,07,02,51,328,42,05,45,251,43,06,55,045,41,09,37,063,37*7F
$GPGSV,2,2,07,12,26,274,47,23,09,040,41,25,10,308,40*4B
$BDGSV,1,1,04,05,00,000,32,12,00,000,38,13,00,000,36,19,00,000,42*69
$LOGTIM,1,-363.520998,0.000000,0.000000,0.000000,-65.427*30
EndT:        2
---00000038--- Acq_st=3 2019-5-22 11:42:6 
[00]  G02  f 42  -1694.6 2046002.2  1.0  1.0  5  0 301343927
[01]  G05  f 44  -2244.6 2046002.9  1.0  1.0  5  0 301343928
[02]  G06  f 40    168.2 2045999.8  1.0  1.0  5  0 301343929
[03]  G09  f 38    886.3 2045998.9  1.0  1.0  5  0 301343926
[04]  G12  f 47    618.7 2045999.2  1.0  1.0  5  0 301343923
[05]  G23  f 41   2227.8 2045997.1  1.0  1.0  5  0 301343916
[06]  G25  f 40  -1034.3 2046001.3  1.0  1.0  5  0 301343917
[16]  B05 1f 33   -346.0 4092001.0  0.9  0.0  2  0 301329866
[17]  B12 1f 37  -2978.5 4092007.9  1.0  1.0  5  0 301329920
[18]  B13 1f 36   -807.2 4092002.1  1.0  1.0  5  0 301329875
[19]  B19 1f 42   1072.2 4091997.2  1.0  1.0  5  0 301329926
lsq: nits= 2
$GNGGA,114207.000,3112.7180,N,12136.4365,E,1,07,1.8,63.9,M,,,,0000*2E
$GNRMC,114207.000,A,3112.7180,N,12136.4365,E,0.14,0.00,220519,,*18
$GPGSA,A,3,02,05,06,09,12,23,25,,,,,,2.6,1.8,1.8*3B
$BDGSA,A,3,,,,,,,,,,,,,2.6,1.8,1.8*27
$GPGSV,2,1,07,02,51,328,42,05,45,251,44,06,55,045,40,09,37,063,38*76
$GPGSV,2,2,07,12,26,274,47,23,09,040,41,25,10,308,40*4B
$BDGSV,1,1,04,05,00,000,33,12,00,000,37,13,00,000,36,19,00,000,42*67
$LOGTIM,1,-428.057191,0.000000,0.000000,0.000000,-65.054*3C
EndT:        2
---00000039--- Acq_st=3 2019-5-22 11:42:7 
[00]  G02  f 41  -1694.7 2046002.2  1.0  1.0  5  0 301344927
[01]  G05  f 44  -2244.7 2046002.9  1.0  1.0  5  0 301344928
[02]  G06  f 40    167.9 2045999.8  1.0  1.0  5  0 301344929
[03]  G09  f 37    885.9 2045998.9  1.0  1.0  5  0 301344926
[04]  G12  f 46    618.9 2045999.2  1.0  1.0  5  0 301344923
[05]  G23  f 41   2227.1 2045997.1  1.0  1.0  5  0 301344916
[06]  G25  f 40  -1033.9 2046001.4  1.0  1.0  5  0 301344917
[16]  B05 1f 31   -346.3 4092000.9  0.9  0.0  2  0 301330866
[17]  B12 1f 38  -2979.2 4092007.9  1.0  1.0  5  0 301330920
[18]  B13 1f 36   -808.7 4092002.1  1.0  1.0  5  0 301330875
[19]  B19 1f 41   1072.1 4091997.2  1.0  1.0  5  0 301330926
lsq: nits= 2
$GNGGA,114208.000,3112.7189,N,12136.4362,E,1,07,1.8,63.5,M,,,,0000*23
$GNRMC,114208.000,A,3112.7189,N,12136.4362,E,0.37,0.00,220519,,*18
$GPGSA,A,3,02,05,06,09,12,23,25,,,,,,2.6,1.8,1.8*3B
$BDGSA,A,3,,,,,,,,,,,,,2.6,1.8,1.8*27
$GPGSV,2,1,07,02,51,328,41,05,45,251,44,06,55,045,40,09,37,063,37*7A
$GPGSV,2,2,07,12,26,274,46,23,09,040,41,25,10,308,40*4A
$BDGSV,1,1,04,05,00,000,31,12,00,000,38,13,00,000,36,19,00,000,41*69
$LOGTIM,1,-492.816269,0.000000,0.000000,0.000000,-65.455*31
EndT:        2
---00000040--- Acq_st=3 2019-5-22 11:42:8 
[00]  G02  f 41  -1700.4 2046002.2  1.0  1.0  5  0 301345927
[01]  G05  f 44  -2249.9 2046002.9  1.0  1.0  5  0 301345928
[02]  G06  f 41    163.2 2045999.8  1.0  1.0  5  0 301345929
[03]  G09  f 37    881.4 2045998.9  1.0  1.0  5  0 301345926
[04]  G12  f 47    613.7 2045999.2  1.0  1.0  5  0 301345923
[05]  G23  f 41   2221.9 2045997.1  1.0  1.0  5  0 301345916
[06]  G25  f 40  -1039.0 2046001.3  1.0  1.0  5  0 301345917
[16]  B05 1f 33   -351.7 4092000.9  0.9  0.0  2  0 301331866
[17]  B12 1f 37  -2984.0 4092007.8  1.0  1.0  5  0 301331920
[18]  B13 1f 36   -813.1 4092002.1  1.0  0.9  5  0 301331875
[19]  B19 1f 41   1067.4 4091997.2  1.0  1.0  5  0 301331926
lsq: nits= 2
$GNGGA,114209.000,3112.7201,N,12136.4366,E,1,07,1.8,66.7,M,,,,0000*22
$GNRMC,114209.000,A,3112.7201,N,12136.4366,E,0.93,0.00,220519,,*10
$GPGSA,A,3,02,05,06,09,12,23,25,,,,,,2.6,1.8,1.8*3B
$BDGSA,A,3,,,,,,,,,,,,,2.6,1.8,1.8*27
$GPGSV,2,1,07,02,51,328,41,05,45,251,44,06,55,045,41,09,37,063,37*7B
$GPGSV,2,2,07,12,26,274,47,23,09,040,41,25,10,308,40*4B
$BDGSV,1,1,04,05,00,000,33,12,00,000,37,13,00,000,36,19,00,000,41*64
$LOGTIM,1,-557.530676,0.000000,0.000000,0.000000,-66.130*3F
EndT:        2
---00000041--- Acq_st=3 2019-5-22 11:42:9 
[00]  G02  f 40  -1704.6 2046002.2  1.0  1.0  5  0 301346927
[01]  G05  f 45  -2253.9 2046002.9  1.0  1.0  5  0 301346928
[02]  G06  f 40    158.3 2045999.7  1.0  1.0  5  0 301346929
[03]  G09  f 37    877.3 2045998.9  1.0  1.0  5  0 301346926
[04]  G12  f 46    609.7 2045999.2  1.0  1.0  5  0 301346923
[05]  G23  f 40   2218.1 2045997.1  1.0  1.0  5  0 301346916
[06]  G25  f 40  -1043.0 2046001.3  1.0  1.0  5  0 301346917
[16]  B05 1f 32   -356.5 4092001.1  0.9  0.0  2  0 301332866
[17]  B12 1f 37  -2988.2 4092007.8  1.0  1.0  5  0 301332920
[18]  B13 1f 36   -818.4 4092002.1  1.0  0.9  5  0 301332875
[19]  B19 1f 41   1063.1 4091997.2  1.0  1.0  5  0 301332926
lsq: nits= 2
$GNGGA,114210.000,3112.7217,N,12136.4367,E,1,07,1.8,68.0,M,,,,0000*25
$GNRMC,114210.000,A,3112.7217,N,12136.4367,E,1.09,0.00,220519,,*1C
$GPGSA,A,3,02,05,06,09,12,23,25,,,,,,2.6,1.8,1.8*3B
$BDGSA,A,3,,,,,,,,,,,,,2.6,1.8,1.8*27
$GPGSV,2,1,07,02,51,328,40,05,45,251,45,06,55,045,40,09,37,063,37*7A
$GPGSV,2,2,07,12,26,274,46,23,09,040,40,25,10,308,40*4B
$BDGSV,1,1,04,05,00,000,32,12,00,000,37,13,00,000,36,19,00,000,41*65
$LOGTIM,1,-623.608520,0.000000,0.000000,0.000000,-66.597*3E
EndT:        2
---00000042--- Acq_st=3 2019-5-22 11:42:10 
[00]  G02  f 40  -1705.5 2046002.3  1.0  1.0  5  0 301347927
[01]  G05  f 44  -2253.9 2046002.9  1.0  1.0  5  0 301347928
[02]  G06  f 41    158.1 2045999.8  1.0  1.0  5  0 301347929
[03]  G09  f 38    877.5 2045998.9  1.0  1.0  5  0 301347926
[04]  G12  f 46    609.6 2045999.2  1.0  1.0  5  0 301347923
[05]  G23  f 40   2218.1 2045997.1  1.0  0.9  5  0 301347916
[06]  G25  f 40  -1042.9 2046001.3  1.0  1.0  5  0 301347917
[16]  B05 1f 32   -357.2 4092001.0  0.9  0.0  2  0 301333866
[17]  B12 1f 37  -2988.9 4092007.8  1.0  1.0  5  0 301333920
[18]  B13 1f 36   -818.8 4092002.1  1.0  1.0  5  0 301333875
[19]  B19 1f 41   1062.8 4091997.2  1.0  1.0  5  0 301333926
lsq: nits= 2
$GNGGA,114211.000,3112.7231,N,12136.4363,E,1,07,1.8,68.8,M,,,,0000*2C
$GNRMC,114211.000,A,3112.7231,N,12136.4363,E,0.96,0.00,220519,,*1A
$GPGSA,A,3,02,05,06,09,12,23,25,,,,,,2.6,1.8,1.8*3B
$BDGSA,A,3,,,,,,,,,,,,,2.6,1.8,1.8*27
$GPGSV,2,1,07,02,51,328,40,05,45,251,44,06,55,045,41,09,37,063,38*75
$GPGSV,2,2,07,12,26,274,46,23,09,040,40,25,10,308,40*4B
$BDGSV,1,1,04,05,00,000,32,12,00,000,37,13,00,000,36,19,00,000,41*65
$LOGTIM,1,-689.919285,0.000000,0.000000,0.000000,-66.607*33
EndT:        2
---00000043--- Acq_st=3 2019-5-22 11:42:11 
[00]  G02  f 39  -1703.9 2046002.3  1.0  1.0  5  0 301348927
[01]  G05  f 45  -2252.1 2046002.9  1.0  1.0  5  0 301348928
[02]  G06  f 41    159.8 2045999.7  1.0  1.0  5  0 301348929
[03]  G09  f 37    879.1 2045998.8  1.0  0.9  5  0 301348926
[04]  G12  f 46    611.8 2045999.2  1.0  1.0  5  0 301348923
[05]  G23  f 40   2219.6 2045997.1  1.0  1.0  5  0 301348916
[06]  G25  f 40  -1040.7 2046001.3  1.0  1.0  5  0 301348917
[16]  B05 1f 31   -355.8 4092000.6  0.9  0.0  2  0 301334866
[17]  B12 1f 37  -2987.3 4092007.8  1.0  1.0  5  0 301334920
[18]  B13 1f 36   -817.1 4092002.2  1.0  0.9  5  0 301334875
[19]  B19 1f 40   1064.9 4091997.3  1.0  1.0  5  0 301334926
lsq: nits= 2
$GNGGA,114212.000,3112.7241,N,12136.4354,E,1,07,1.8,69.1,M,,,,0000*24
$GNRMC,114212.000,A,3112.7241,N,12136.4354,E,0.78,0.00,220519,,*1A
$GPGSA,A,3,02,05,06,09,12,23,25,,,,,,2.6,1.8,1.8*3B
$BDGSA,A,3,,,,,,,,,,,,,2.6,1.8,1.8*27
$GPGSV,2,1,07,02,51,328,39,05,45,251,45,06,55,045,41,09,37,063,37*75
$GPGSV,2,2,07,12,26,274,46,23,09,040,40,25,10,308,40*4B
$BDGSV,1,1,04,05,00,000,31,12,00,000,37,13,00,000,36,19,00,000,40*67
$LOGTIM,1,-756.335546,0.000000,0.000000,0.000000,-66.544*38
EndT:        2
---00000044--- Acq_st=3 2019-5-22 11:42:12 
[00]  G02  f 39  -1703.4 2046002.3  1.0  1.0  5  0 301349927
[01]  G05  f 45  -2251.3 2046002.9  1.0  1.0  5  0 301349928
[02]  G06  f 41    160.1 2045999.8  1.0  1.0  5  0 301349929
[03]  G09  f 37    880.5 2045998.8  1.0  1.0  5  0 301349926
[04]  G12  f 46    612.4 2045999.2  1.0  1.0  5  0 301349923
[05]  G23  f 40   2220.1 2045997.1  1.0  1.0  5  0 301349916
[06]  G25  f 41  -1040.4 2046001.3  1.0  1.0  5  0 301349917
[16]  B05 1f 32   -355.2 4092000.9  0.9  0.0  2  0 301335866
[17]  B12 1f 38  -2987.6 4092007.8  1.0  1.0  5  0 301335920
[18]  B13 1f 36   -817.7 4092002.2  1.0  0.9  5  0 301335875
[19]  B19 1f 40   1065.5 4091997.2  1.0  0.9  5  0 301335926
lsq: nits= 2
$GNGGA,114213.000,3112.7249,N,12136.4344,E,1,07,1.8,69.4,M,,,,0000*29
$GNRMC,114213.000,A,3112.7249,N,12136.4344,E,0.48,0.00,220519,,*11
$GPGSA,A,3,02,05,06,09,12,23,25,,,,,,2.6,1.8,1.8*3B
$BDGSA,A,3,,,,,,,,,,,,,2.6,1.8,1.8*27
$GPGSV,2,1,07,02,51,328,39,05,45,251,45,06,55,045,41,09,37,063,37*75
$GPGSV,2,2,07,12,26,274,46,23,09,040,40,25,10,308,41*4A
$BDGSV,1,1,04,05,00,000,32,12,00,000,38,13,00,000,36,19,00,000,40*6B
$LOGTIM,1,-822.389289,0.000000,0.000000,0.000000,-66.257*32
EndT:        2
---00000045--- Acq_st=3 2019-5-22 11:42:13 
[00]  G02  f 39  -1698.5 2046002.2  1.0  1.0  5  0 301350927
[01]  G05  f 45  -2247.1 2046002.9  1.0  1.0  5  0 301350928
[02]  G06  f 41    164.4 2045999.8  1.0  1.0  5  0 301350929
[03]  G09  f 38    884.6 2045998.8  1.0  1.0  5  0 301350926
[04]  G12  f 46    617.1 2045999.2  1.0  1.0  5  0 301350923
[05]  G23  f 40   2224.7 2045997.1  1.0  1.0  5  0 301350916
[06]  G25  f 40  -1035.7 2046001.3  1.0  1.0  5  0 301350917
[16]  B05 1f 33   -351.3 4092001.0  0.9  0.0  2  0 301336866
[17]  B12 1f 37  -2983.2 4092007.8  1.0  0.9  5  0 301336920
[18]  B13 1f 36   -813.3 4092002.1  1.0  1.1  5  0 301336875
[19]  B19 1f 41   1070.1 4091997.2  1.0  1.0  5  0 301336926
lsq: nits= 2
$GNGGA,114214.000,3112.7260,N,12136.4332,E,1,07,1.8,69.4,M,,,,0000*24
$GNRMC,114214.000,A,3112.7260,N,12136.4332,E,0.21,0.00,220519,,*13
$GPGSA,A,3,02,05,06,09,12,23,25,,,,,,2.6,1.8,1.8*3B
$BDGSA,A,3,,,,,,,,,,,,,2.6,1.8,1.8*27
$GPGSV,2,1,07,02,51,328,39,05,45,251,45,06,55,045,41,09,37,063,38*7A
$GPGSV,2,2,07,12,26,274,46,23,09,040,40,25,10,308,40*4B
$BDGSV,1,1,04,05,00,000,33,12,00,000,37,13,00,000,36,19,00,000,41*64
$LOGTIM,1,-887.715517,0.000000,0.000000,0.000000,-65.668*37
EndT:        2
---00000046--- Acq_st=3 2019-5-22 11:42:14 
[00]  G02  f 40  -1695.9 2046002.2  1.0  1.0  5  0 301351927
[01]  G05  f 45  -2243.8 2046002.9  1.0  1.0  5  0 301351928
[02]  G06  f 41    167.9 2045999.7  1.0  1.0  5  0 301351929
[03]  G09  f 37    888.8 2045998.9  1.0  1.0  5  0 301351926
[04]  G12  f 46    620.8 2045999.2  1.0  1.0  5  0 301351923
[05]  G23  f 40   2227.4 2045997.1  1.0  1.0  5  0 301351916
[06]  G25  f 40  -1032.0 2046001.4  1.0  1.0  5  0 301351917
[16]  B05 1f 33   -348.4 4092001.0  0.9  0.0  2  0 301337866
[17]  B12 1f 37  -2981.2 4092007.8  1.0  1.0  5  0 301337920
[18]  B13 1f 36   -810.2 4092002.1  1.0  0.9  5  0 301337875
[19]  B19 1f 40   1072.6 4091997.2  1.0  1.0  5  0 301337926
lsq: nits= 2
$GNGGA,114215.000,3112.7284,N,12136.4318,E,1,10,1.8,71.9,M,,,,0000*25
$GNRMC,114215.000,A,3112.7284,N,12136.4318,E,0.26,0.00,220519,,*17
$GPGSA,A,3,02,05,06,09,12,23,25,,,,,,2.6,1.8,1.8*3B
$BDGSA,A,3,12,13,19,,,,,,,,,,2.6,1.8,1.8*2E
$GPGSV,2,1,07,02,51,328,40,05,45,251,45,06,55,045,41,09,37,063,37*7B
$GPGSV,2,2,07,12,26,274,46,23,09,040,40,25,10,308,40*4B
$BDGSV,1,1,04,05,00,000,33,12,00,000,37,13,00,000,36,19,00,000,40*65
$LOGTIM,3,-951.249916,-1075.627831,0.000000,0.000000,-65.351*26
EndT:        3
---00000047--- Acq_st=3 2019-5-22 11:42:15 
[00]  G02  f 40  -1695.0 2046002.2  1.0  1.0  5  0 301352927
[01]  G05  f 45  -2242.0 2046002.9  1.0  1.0  5  0 301352928
[02]  G06  f 41    169.1 2045999.8  1.0  1.0  5  0 301352929
[03]  G09  f 37    889.9 2045998.9  1.0  1.0  5  0 301352926
[04]  G12  f 46    622.4 2045999.2  1.0  1.0  5  0 301352923
[05]  G23  f 40   2229.6 2045997.1  1.0  1.0  5  0 301352916
[06]  G25  f 40  -1030.5 2046001.3  1.0  1.0  5  0 301352917
[16]  B05 1f 30   -347.3 4092000.8  0.9  0.0  2  0 301338866
[17]  B12 1f 38  -2978.6 4092007.7  1.0  1.0  5  0 301338920
[18]  B13 1f 36   -809.7 4092002.2  1.0  1.0  5  0 301338875
[19]  B19 1f 41   1074.5 4091997.2  1.0  1.0  5  0 301338926
lsq: nits= 2
$GNGGA,114216.000,3112.7329,N,12136.4289,E,1,10,1.1,75.0,M,,,,0000*2D
$GNRMC,114216.000,A,3112.7329,N,12136.4289,E,0.33,0.00,220519,,*1F
$GPGSA,A,3,02,05,06,09,12,23,25,,,,,,1.3,1.1,0.8*35
$BDGSA,A,3,12,13,19,,,,,,,,,,1.3,1.1,0.8*20
$GPGSV,2,1,07,02,51,328,40,05,45,251,45,06,55,045,41,09,37,063,37*7B
$GPGSV,2,2,07,12,26,274,46,23,09,040,40,25,10,308,40*4B
$BDGSV,1,1,04,05,00,000,30,12,33,320,38,13,50,326,36,19,63,038,41*65
$LOGTIM,3,-1011.795478,-1157.965670,0.000000,0.000000,-64.843*11
EndT:        3
---00000048--- Acq_st=3 2019-5-22 11:42:16 
[00]  G02  f 40  -1690.5 2046002.2  1.0  1.0  5  0 301353927
[01]  G05  f 46  -2237.5 2046002.9  1.0  1.0  5  0 301353928
[02]  G06  f 40    173.6 2045999.8  1.0  1.0  5  0 301353929
[03]  G09  f 37    894.7 2045998.8  1.0  1.0  5  0 301353926
[04]  G12  f 46    627.3 2045999.2  1.0  1.0  5  0 301353923
[05]  G23  f 40   2233.6 2045997.1  1.0  1.0  5  0 301353916
[06]  G25  f 40  -1025.2 2046001.3  1.0  1.0  5  0 301353917
[16]  B05 1f 33   -343.5 4092000.9  0.9  0.0  2  0 301339866
[17]  B12 1f 37  -2975.0 4092007.8  1.0  1.0  5  0 301339920
[18]  B13 1f 36   -805.4 4092002.1  1.0  1.0  5  0 301339875
[19]  B19 1f 41   1078.8 4091997.2  1.0  1.0  5  0 301339926
lsq: nits= 2
$GNGGA,114217.000,3112.7326,N,12136.4287,E,1,10,1.1,75.8,M,,,,0000*25
$GNRMC,114217.000,A,3112.7326,N,12136.4287,E,0.29,0.00,220519,,*14
$GPGSA,A,3,02,05,06,09,12,23,25,,,,,,1.3,1.1,0.8*35
$BDGSA,A,3,12,13,19,,,,,,,,,,1.3,1.1,0.8*20
$GPGSV,2,1,07,02,51,328,40,05,45,251,46,06,55,045,40,09,37,063,37*79
$GPGSV,2,2,07,12,26,274,46,23,09,040,40,25,10,308,40*4B
$BDGSV,1,1,04,05,00,000,33,12,33,320,37,13,50,326,36,19,63,038,41*69
$LOGTIM,3,-1075.360532,-1221.246643,0.000000,0.000000,-64.010*14
EndT:        3
---00000049--- Acq_st=3 2019-5-22 11:42:17 
[00]  G02  f 40  -1686.5 2046002.1  1.0  1.0  5  0 301354927
[01]  G05  f 46  -2232.7 2046002.9  1.0  1.0  5  0 301354928
[02]  G06  f 40    177.9 2045999.8  1.0  1.0  5  0 301354929
[03]  G09  f 37    900.3 2045998.8  1.0  1.0  5  0 301354926
[04]  G12  f 46    631.9 2045999.2  1.0  1.0  5  0 301354923
[05]  G23  f 40   2238.2 2045997.1  1.0  1.0  5  0 301354916
[06]  G25  f 39  -1020.8 2046001.3  1.0  1.0  5  0 301354917
[16]  B05 1f 32   -338.9 4092001.0  0.9  0.0  2  0 301340866
[17]  B12 1f 38  -2970.2 4092007.8  1.0  1.0  5  0 301340920
[18]  B13 1f 36   -801.7 4092002.1  1.0  0.9  5  0 301340875
[19]  B19 1f 41   1083.9 4091997.1  1.0  1.0  5  0 301340926
lsq: nits= 2
$GNGGA,114218.000,3112.7317,N,12136.4264,E,1,10,1.1,83.4,M,,,,0000*20
$GNRMC,114218.000,A,3112.7317,N,12136.4264,E,0.24,0.00,220519,,*19
$GPGSA,A,3,02,05,06,09,12,23,25,,,,,,1.3,1.1,0.8*35
$BDGSA,A,3,12,13,19,,,,,,,,,,1.3,1.1,0.8*20
$GPGSV,2,1,07,02,51,328,40,05,45,251,46,06,55,045,40,09,37,063,37*79
$GPGSV,2,2,07,12,26,274,46,23,09,040,40,25,10,308,39*45
$BDGSV,1,1,04,05,00,000,32,12,33,320,38,13,50,326,36,19,63,038,41*67
$LOGTIM,3,-1132.601381,-1279.343228,0.000000,0.000000,-63.800*14
EndT:        3
---00000050--- Acq_st=3 2019-5-22 11:42:18 
[00]  G02  f 40  -1690.1 2046002.2  1.0  1.0  5  0 301355927
[01]  G05  f 46  -2236.1 2046002.9  1.0  1.0  5  0 301355928
[02]  G06  f 41    174.5 2045999.8  1.0  1.0  5  0 301355929
[03]  G09  f 37    896.6 2045998.8  1.0  1.0  5  0 301355926
[04]  G12  f 46    628.7 2045999.2  1.0  1.0  5  0 301355923
[05]  G23  f 41   2235.3 2045997.1  1.0  1.0  5  0 301355916
[06]  G25  f 39  -1023.5 2046001.3  1.0  1.0  5  0 301355917
[16]  B05 1f 32   -342.5 4092000.9  0.9  0.0  2  0 301341866
[17]  B12 1f 38  -2974.1 4092007.8  1.0  0.9  5  0 301341920
[18]  B13 1f 35   -804.5 4092002.2  1.0  1.0  5  0 301341875
[19]  B19 1f 41   1080.3 4091997.1  1.0  0.9  5  0 301341926
lsq: nits= 2
$GNGGA,114219.000,3112.7310,N,12136.4262,E,1,10,1.1,88.2,M,,,,0000*2D
$GNRMC,114219.000,A,3112.7310,N,12136.4262,E,0.51,0.00,220519,,*1B
$GPGSA,A,3,02,05,06,09,12,23,25,,,,,,1.3,1.1,0.8*35
$BDGSA,A,3,12,13,19,,,,,,,,,,1.3,1.1,0.8*20
$GPGSV,2,1,07,02,51,328,40,05,45,251,46,06,55,045,41,09,37,063,37*78
$GPGSV,2,2,07,12,26,274,46,23,09,040,41,25,10,308,39*44
$BDGSV,1,1,04,05,00,000,32,12,33,320,38,13,50,326,35,19,63,038,41*64
$LOGTIM,3,-1194.118235,-1340.344889,0.000000,0.000000,-64.086*15
EndT:        3
---00000051--- Acq_st=3 2019-5-22 11:42:19 
[00]  G02  f 41  -1693.8 2046002.2  1.0  1.0  5  0 301356927
[01]  G05  f 46  -2239.5 2046002.9  1.0  1.0  5  0 301356928
[02]  G06  f 41    170.8 2045999.8  1.0  1.0  5  0 301356929
[03]  G09  f 37    894.0 2045998.8  1.0  1.0  5  0 301356926
[04]  G12  f 46    625.5 2045999.2  1.0  1.0  5  0 301356923
[05]  G23  f 41   2232.0 2045997.1  1.0  1.0  5  0 301356916
[06]  G25  f 39  -1027.1 2046001.3  1.0  1.0  5  0 301356917
[16]  B05 1f 31   -345.4 4092000.9  0.8  0.0  2  0 301342866
[17]  B12 1f 38  -2977.8 4092007.7  1.0  1.0  5  0 301342920
[18]  B13 1f 36   -808.5 4092002.1  1.0  1.0  5  0 301342875
[19]  B19 1f 41   1077.1 4091997.2  1.0  1.0  5  0 301342926
lsq: nits= 2
$GNGGA,114220.000,3112.7301,N,12136.4266,E,1,10,1.1,91.8,M,,,,0000*21
$GNRMC,114220.000,A,3112.7301,N,12136.4266,E,0.80,0.00,220519,,*19
$GPGSA,A,3,02,05,06,09,12,23,25,,,,,,1.3,1.1,0.8*35
$BDGSA,A,3,12,13,19,,,,,,,,,,1.3,1.1,0.8*20
$GPGSV,2,1,07,02,51,328,41,05,45,251,46,06,55,045,41,09,37,063,37*79
$GPGSV,2,2,07,12,26,274,46,23,09,040,41,25,10,308,39*44
$BDGSV,1,1,04,05,00,000,31,12,33,320,38,13,50,326,36,19,63,038,41*64
$LOGTIM,3,-1257.727956,-1403.241244,0.000000,0.000000,-64.732*1A
EndT:        3
---00000052--- Acq_st=3 2019-5-22 11:42:20 
[00]  G02  f 41  -1697.6 2046002.2  1.0  1.0  5  0 301357927
[01]  G05  f 46  -2243.1 2046002.9  1.0  1.0  5  0 301357928
[02]  G06  f 41    167.5 2045999.8  1.0  1.0  5  0 301357929
[03]  G09  f 38    890.4 2045998.9  1.0  1.0  5  0 301357926
[04]  G12  f 46    622.2 2045999.2  1.0  1.0  5  0 301357923
[05]  G23  f 40   2228.3 2045997.1  1.0  1.0  5  0 301357916
[06]  G25  f 39  -1030.1 2046001.3  1.0  1.0  5  0 301357917
[16]  B05 1f 32   -350.1 4092000.9  0.9  0.0  2  0 301343866
[17]  B12 1f 38  -2980.9 4092007.8  1.0  1.0  5  0 301343920
[18]  B13 1f 36   -812.3 4092002.2  1.0  1.0  5  0 301343875
[19]  B19 1f 41   1073.7 4091997.1  1.0  1.0  5  0 301343926
lsq: nits= 2
$GNGGA,114221.000,3112.7308,N,12136.4276,E,1,10,1.1,94.2,M,,,,0000*27
$GNRMC,114221.000,A,3112.7308,N,12136.4276,E,0.98,0.00,220519,,*19
$GPGSA,A,3,02,05,06,09,12,23,25,,,,,,1.3,1.1,0.8*35
$BDGSA,A,3,12,13,19,,,,,,,,,,1.3,1.1,0.8*20
$GPGSV,2,1,07,02,51,328,41,05,45,251,46,06,55,045,41,09,37,063,38*76
$GPGSV,2,2,07,12,26,274,46,23,09,040,40,25,10,308,39*45
$BDGSV,1,1,04,05,00,000,32,12,33,320,38,13,50,326,36,19,63,038,41*67
$LOGTIM,3,-1323.186442,-1468.345136,0.000000,0.000000,-65.277*16
EndT:        3
---00000053--- Acq_st=3 2019-5-22 11:42:21 
[00]  G02  f 41  -1699.5 2046002.2  1.0  1.0  5  0 301358927
[01]  G05  f 46  -2244.6 2046002.9  1.0  1.0  5  0 301358928
[02]  G06  f 41    165.2 2045999.8  1.0  1.0  5  0 301358929
[03]  G09  f 38    888.9 2045998.8  1.0  1.0  5  0 301358926
[04]  G12  f 46    620.7 2045999.2  1.0  1.0  5  0 301358923
[05]  G23  f 40   2226.2 2045997.1  1.0  1.0  5  0 301358916
[06]  G25  f 39  -1032.1 2046001.4  1.0  1.0  5  0 301358917
[16]  B05 1f 31   -352.4 4092000.8  0.9  0.0  2  0 301344866
[17]  B12 1f 38  -2982.8 4092007.9  1.0  1.0  5  0 301344920
[18]  B13 1f 36   -814.3 4092002.1  1.0  1.0  5  0 301344875
[19]  B19 1f 41   1071.9 4091997.2  1.0  1.0  5  0 301344926
lsq: nits= 2
$GNGGA,114222.000,3112.7306,N,12136.4278,E,1,10,1.1,92.5,M,,,,0000*25
$GNRMC,114222.000,A,3112.7306,N,12136.4278,E,0.75,0.00,220519,,*19
$GPGSA,A,3,02,05,06,09,12,23,25,,,,,,1.3,1.1,0.8*35
$BDGSA,A,3,12,13,19,,,,,,,,,,1.3,1.1,0.8*20
$GPGSV,2,1,07,02,51,328,41,05,45,251,46,06,55,045,41,09,37,063,38*76
$GPGSV,2,2,07,12,26,273,46,23,09,040,40,25,10,307,39*4D
$BDGSV,1,1,04,05,00,000,31,12,33,320,38,13,50,326,36,19,63,038,41*64
$LOGTIM,3,-1389.795529,-1534.927534,0.000000,0.000000,-65.510*18
EndT:        3
---00000054--- Acq_st=3 2019-5-22 11:42:23 
[00]  G02  f 41  -1698.2 2046002.2  1.0  1.0  5  0 301359927
[01]  G05  f 46  -2243.2 2046002.9  1.0  1.0  5  0 301359928
[02]  G06  f 40    166.3 2045999.8  1.0  1.0  5  0 301359929
[03]  G09  f 37    890.8 2045998.8  1.0  1.0  5  0 301359926
[04]  G12  f 46    622.4 2045999.2  1.0  1.0  5  0 301359923
[05]  G23  f 40   2228.3 2045997.1  1.0  1.0  5  0 301359916
[06]  G25  f 38  -1030.1 2046001.3  1.0  1.0  5  0 301359917
[16]  B05 1f 33   -351.0 4092001.0  0.9  0.0  2  0 301345866
[17]  B12 1f 38  -2981.5 4092007.7  1.0  1.0  5  0 301345920
[18]  B13 1f 36   -813.2 4092002.1  1.0  1.0  5  0 301345875
[19]  B19 1f 41   1073.2 4091997.2  1.0  1.0  5  0 301345926
lsq: nits= 2
$GNGGA,114223.000,3112.7325,N,12136.4270,E,1,09,1.1,91.2,M,,,,0000*21
$GNRMC,114223.000,A,3112.7325,N,12136.4270,E,0.86,0.00,220519,,*1D
$GPGSA,A,3,02,05,06,09,12,23,25,,,,,,1.5,1.1,1.0*3A
$BDGSA,A,3,12,13,,,,,,,,,,,1.5,1.1,1.0*27
$GPGSV,2,1,07,02,51,328,41,05,45,251,46,06,55,045,40,09,37,063,37*78
$GPGSV,2,2,07,12,26,273,46,23,09,040,40,25,10,307,38*4C
$BDGSV,1,1,04,05,00,000,33,12,33,320,38,13,50,326,36,19,63,038,41*66
$LOGTIM,3,-1455.959134,-1602.874023,0.000000,0.000000,-65.572*1E
EndT:        3

