FlashID=0x1 0x20 0x18
BBram_blkflag1:  5a5: fa5a
FW Ver: 1.30  
GPS00 Init Dop:   5000, 40
GPS01 Init Dop:   5000, 40
GPS02 Init Dop:   5000, 40
GPS03 Init Dop:   5000, 40
GPS04 Init Dop:   5000, 40
GPS05 Init Dop:   5000, 40
GPS06 Init Dop:   5000, 40
GPS07 Init Dop:   5000, 40
GPS08 Init Dop:   5000, 40
GPS09 Init Dop:   5000, 40
GPS10 Init Dop:   5000, 40
GPS11 Init Dop:   5000, 40
GPS12 Init Dop:   5000, 40
GPS13 Init Dop:   5000, 40
GPS14 Init Dop:   5000, 40
GPS15 Init Dop:   5000, 40
GPS16 Init Dop:   5000, 40
GPS17 Init Dop:   5000, 40
GPS18 Init Dop:   5000, 40
GPS19 Init Dop:   5000, 40
GPS20 Init Dop:   5000, 40
GPS21 Init Dop:   5000, 40
GPS22 Init Dop:   5000, 40
GPS23 Init Dop:   5000, 40
GPS24 Init Dop:   5000, 40
GPS25 Init Dop:   5000, 40
GPS26 Init Dop:   5000, 40
GPS27 Init Dop:   5000, 40
GPS28 Init Dop:   5000, 40
GPS29 Init Dop:   5000, 40
GPS30 Init Dop:   5000, 40
GPS31 Init Dop:   5000, 40
BDS00 Init Dop:   5000, 40
BDS01 Init Dop:   5000, 40
BDS02 Init Dop:   5000, 40
BDS03 Init Dop:   5000, 40
BDS04 Init Dop:   5000, 40
BDS05 Init Dop:   5000, 40
BDS06 Init Dop:   5000, 40
BDS07 Init Dop:   5000, 40
BDS08 Init Dop:   5000, 40
BDS09 Init Dop:   5000, 40
BDS10 Init Dop:   5000, 40
BDS11 Init Dop:   5000, 40
BDS12 Init Dop:   5000, 40
BDS13 Init Dop:   5000, 40
BDS14 Init Dop:   5000, 40
BDS15 Init Dop:   5000, 40
BDS16 Init Dop:   5000, 40
BDS17 Init Dop:   5000, 40
BDS18 Init Dop:   5000, 40
BDS19 Init Dop:   5000, 40
BDS20 Init Dop:   5000, 40
BDS21 Init Dop:   5000, 40
BDS22 Init Dop:   5000, 40
BDS23 Init Dop:   5000, 40
BDS24 Init Dop:   5000, 40
BDS25 Init Dop:   5000, 40
BDS26 Init Dop:   5000, 40
BDS27 Init Dop:   5000, 40
BDS28 Init Dop:   5000, 40
BDS29 Init Dop:   5000, 40
BDS30 Init Dop:   5000, 40
BDS31 Init Dop:   5000, 40
good luck!
---00000001--- Acq_st=3 2019-5-22 11:43:14 
[00]  G02  1  7  -1728.1 2046004.4  0.1  0.0  1  0         0
$GNGGA,000000.000,,,,,0,00,,,M,,,,0000*2B
$GNRMC,000000.000,A,,,,,,,000000,,*26
$GPGSA,A,1,,,,,,,,,,,,,,,*1E
$BDGSA,A,1,,,,,,,,,,,,,,,*0F
$LOGTIM,0,0.000000,0.000000,0.000000,0.000000,0.000*0A
EndT:        0
---00000002--- Acq_st=3 2019-5-22 11:43:15 
[00]  G02  1 33  -1699.6 2046002.6  0.1  0.0  1  0        15
[01]  G05  1  7  -2241.1 2046004.1  0.1  0.0  1  0         0
$GNGGA,000000.000,,,,,0,00,,,M,,,,0000*2B
$GNRMC,000000.000,A,,,,,,,000000,,*26
$GPGSA,A,1,,,,,,,,,,,,,,,*1E
$BDGSA,A,1,,,,,,,,,,,,,,,*0F
$LOGTIM,0,0.000000,0.000000,0.000000,0.000000,0.000*0A
EndT:        0
---00000003--- Acq_st=3 2019-5-22 11:43:16 
[00]  G02  7 38  -1701.5 2046002.1  0.8  1.0  5  0        15
[01]  G05  1 28  -2228.6 2046003.5  0.3  0.0  1  0        11
[02]  G06  1 26    170.5 2045999.9 -0.1  0.0  1  0         0
$GNGGA,000000.000,,,,,0,00,,,M,,,,0000*2B
$GNRMC,000000.000,A,,,,,,,000000,,*26
$GPGSA,A,1,,,,,,,,,,,,,,,*1E
$BDGSA,A,1,,,,,,,,,,,,,,,*0F
$GPGSV,1,1,01,02,00,000,38*41
$LOGTIM,0,0.000000,0.000000,0.000000,0.000000,0.000*0A
EndT:        0
---00000004--- Acq_st=3 2019-5-22 11:43:17 
[00]  G02  7 43  -1700.1 2046002.2  1.0  1.0  5  0        17
[01]  G05  7 35  -2226.3 2046002.8  0.8  1.0  5  0        11
[02]  G06  7 28    172.8 2045999.7  0.3  1.0 10  0         3
[03]  G09  1 19    908.1 2045999.0 -0.0  0.0  1  0         0
$GNGGA,000000.000,,,,,0,00,,,M,,,,0000*2B
$GNRMC,000000.000,A,,,,,,,000000,,*26
$GPGSA,A,1,,,,,,,,,,,,,,,*1E
$BDGSA,A,1,,,,,,,,,,,,,,,*0F
$GPGSV,1,1,03,02,00,000,43,05,00,000,35,06,00,000,28*40
$LOGTIM,0,0.000000,0.000000,0.000000,0.000000,0.000*0A
EndT:        0
---00000005--- Acq_st=3 2019-5-22 11:43:18 
[00]  G02  7 42  -1698.3 2046002.2  1.0  1.0  5  0        17
[01]  G05  7 44  -2224.4 2046002.9  1.0  1.0  5  0        19
[02]  G06  7 42    174.4 2045999.7  1.0  1.0  5  0         0
[03]  G09  7 25    920.9 2045998.7  0.1  0.0 20  0        19
[04]  G12  1 19    665.9 2045999.8 -0.1  0.0  1  0         0
$GNGGA,000000.000,,,,,0,00,,,M,,,,0000*2B
$GNRMC,000000.000,A,,,,,,,000000,,*26
$GPGSA,A,1,,,,,,,,,,,,,,,*1E
$BDGSA,A,1,,,,,,,,,,,,,,,*0F
$GPGSV,1,1,04,02,00,000,42,05,00,000,44,06,00,000,42,09,00,000,25*72
$LOGTIM,0,0.000000,0.000000,0.000000,0.000000,0.000*0A
EndT:        0
---00000006--- Acq_st=3 2019-5-22 11:43:19 
[00]  G02  7 43  -1697.6 2046002.2  1.0  1.0  5  0        17
[01]  G05  7 44  -2223.3 2046002.9  1.0  1.0  5  0        19
[02]  G06  7 42    175.3 2045999.8  1.0  1.0  5  0         0
[03]  G09  7 36    922.8 2045998.7  0.8  0.9  5  0        17
[04]  G12  7 24    650.6 2045999.1  0.2  0.0 20  0        14
$GNGGA,000000.000,,,,,0,00,,,M,,,,0000*2B
$GNRMC,000000.000,A,,,,,,,000000,,*26
$GPGSA,A,1,,,,,,,,,,,,,,,*1E
$BDGSA,A,1,,,,,,,,,,,,,,,*0F
$GPGSV,2,1,05,02,00,000,43,05,00,000,44,06,00,000,42,09,00,000,36*73
$GPGSV,2,2,05,12,00,000,24*49
$LOGTIM,0,0.000000,0.000000,0.000000,0.000000,0.000*0A
EndT:        1
---00000007--- Acq_st=3 2019-5-22 11:43:20 
[00]  G02  f 43  -1696.5 2046002.2  1.0  1.0  5  0        17
[01]  G05  f 44  -2222.2 2046002.9  1.0  1.0  5  0        19
[02]  G06  f 42    176.0 2045999.8  1.0  1.0  5  0         0
[03]  G09  f 37    923.4 2045998.7  1.0  0.9  5  0        17
[04]  G12  7 45    652.3 2045999.1  0.9  1.0  5  0        14
$GNGGA,000000.000,,,,,0,00,,,M,,,,0000*2B
$GNRMC,000000.000,A,,,,,,,000000,,*26
$GPGSA,A,1,,,,,,,,,,,,,,,*1E
$BDGSA,A,1,,,,,,,,,,,,,,,*0F
$GPGSV,2,1,05,02,00,000,43,05,00,000,44,06,00,000,42,09,00,000,37*72
$GPGSV,2,2,05,12,00,000,45*4E
$LOGTIM,0,0.000000,0.000000,0.000000,0.000000,0.000*0A
EndT:        0
---00000008--- Acq_st=3 2019-5-22 11:43:21 
[00]  G02  f 43  -1696.0 2046002.2  1.0  1.0  5  0 301418057
[01]  G05  f 44  -2221.4 2046002.9  1.0  1.0  5  0 301418059
[02]  G06  f 42    177.0 2045999.8  1.0  1.0  5  0 301418060
[03]  G09  f 37    925.1 2045998.7  1.0  1.0  5  0 301418057
[04]  G12  7 45    653.4 2045999.1  1.0  1.0  5  0        14
$GNGGA,000000.000,,,,,0,00,,,M,,,,0000*2B
$GNRMC,000000.000,A,,,,,,,000000,,*26
$GPGSA,A,1,,,,,,,,,,,,,,,*1E
$BDGSA,A,1,,,,,,,,,,,,,,,*0F
$GPGSV,2,1,05,02,00,000,43,05,00,000,44,06,00,000,42,09,00,000,37*72
$GPGSV,2,2,05,12,00,000,45*4E
$LOGTIM,0,0.000000,0.000000,0.000000,0.000000,0.000*0A
EndT:        0
---00000009--- Acq_st=3 2019-5-22 11:43:22 
[00]  G02  f 43  -1699.7 2046002.2  1.0  1.0  5  0 301419057
[01]  G05  f 44  -2224.4 2046002.9  1.0  1.0  5  0 301419059
[02]  G06  f 42    173.2 2045999.8  1.0  1.0  5  0 301419060
[03]  G09  f 37    921.5 2045998.8  1.0  1.0  5  0 301419057
[04]  G12  7 45    650.0 2045999.1  1.0  1.0  5  0        14
[05]  G23  1 27   2240.4 2045997.4  0.0  0.0  1  0         0
$GNGGA,000000.000,,,,,0,00,,,M,,,,0000*2B
$GNRMC,000000.000,A,,,,,,,000000,,*26
$GPGSA,A,1,,,,,,,,,,,,,,,*1E
$BDGSA,A,1,,,,,,,,,,,,,,,*0F
$GPGSV,2,1,05,02,00,000,43,05,00,000,44,06,00,000,42,09,00,000,37*72
$GPGSV,2,2,05,12,00,000,45*4E
$LOGTIM,0,0.000000,0.000000,0.000000,0.000000,0.000*0A
EndT:        0
---00000010--- Acq_st=3 2019-5-22 11:43:23 
[00]  G02  f 43  -1699.2 2046002.2  1.0  1.0  5  0 301420057
[01]  G05  f 44  -2223.9 2046002.9  1.0  1.0  5  0 301420059
[02]  G06  f 42    173.8 2045999.8  1.0  1.0  5  0 301420060
[03]  G09  f 37    923.1 2045998.8  1.0  1.0  5  0 301420057
[04]  G12  7 45    650.9 2045999.1  1.0  1.0  5  0        14
[05]  G23  7 21   2242.0 2045997.0  0.3  0.0 20  0         4
[06]  G25  1 28   -998.7 2046002.6 -0.1  0.0  1  0         0
$GNGGA,000000.000,,,,,0,00,,,M,,,,0000*2B
$GNRMC,000000.000,A,,,,,,,000000,,*26
$GPGSA,A,1,,,,,,,,,,,,,,,*1E
$BDGSA,A,1,,,,,,,,,,,,,,,*0F
$GPGSV,2,1,06,02,00,000,43,05,00,000,44,06,00,000,42,09,00,000,37*71
$GPGSV,2,2,06,12,00,000,45,23,00,000,21*7F
$LOGTIM,0,0.000000,0.000000,0.000000,0.000000,0.000*0A
EndT:        0
---00000011--- Acq_st=3 2019-5-22 11:43:24 
[00]  G02  f 42  -1695.1 2046002.2  1.0  1.0  5  0 301421057
[01]  G05  f 44  -2219.0 2046002.9  1.0  1.0  5  0 301421059
[02]  G06  f 42    178.6 2045999.8  1.0  1.0  5  0 301421060
[03]  G09  f 38    927.8 2045998.8  1.0  1.0  5  0 301421057
[04]  G12  7 44    655.5 2045999.1  1.0  1.0  5  0        14
[05]  G23  7 40   2246.7 2045997.0  0.9  1.0  5  0         6
[06]  G25  7 27   -995.6 2046001.2  0.2  1.0 10  0         8
$GNGGA,000000.000,,,,,0,00,,,M,,,,0000*2B
$GNRMC,000000.000,A,,,,,,,000000,,*26
$GPGSA,A,1,,,,,,,,,,,,,,,*1E
$BDGSA,A,1,,,,,,,,,,,,,,,*0F
$GPGSV,2,1,07,02,00,000,42,05,00,000,44,06,00,000,42,09,00,000,38*7E
$GPGSV,2,2,07,12,00,000,44,23,00,000,40,25,00,000,27*4A
$LOGTIM,0,0.000000,0.000000,0.000000,0.000000,0.000*0A
EndT:        0
---00000012--- Acq_st=3 2019-5-22 11:43:25 
[00]  G02  f 42  -1689.2 2046002.2  1.0  1.0  5  0 301422057
[01]  G05  f 44  -2212.7 2046002.9  1.0  1.0  5  0 301422059
[02]  G06  f 42    184.8 2045999.8  1.0  1.0  5  0 301422060
[03]  G09  f 37    934.3 2045998.8  1.0  1.0  5  0 301422057
[04]  G12  7 45    662.4 2045999.1  1.0  1.0  5  0        14
[05]  G23  7 40   2252.6 2045997.0  1.0  1.0  5  0         6
[06]  G25  7 38   -988.3 2046001.2  0.8  1.0  5  0         7
$GNGGA,000000.000,,,,,0,00,,,M,,,,0000*2B
$GNRMC,000000.000,A,,,,,,,000000,,*26
$GPGSA,A,1,,,,,,,,,,,,,,,*1E
$BDGSA,A,1,,,,,,,,,,,,,,,*0F
$GPGSV,2,1,07,02,00,000,42,05,00,000,44,06,00,000,42,09,00,000,37*71
$GPGSV,2,2,07,12,00,000,45,23,00,000,40,25,00,000,38*45
$LOGTIM,0,0.000000,0.000000,0.000000,0.000000,0.000*0A
EndT:        0
---00000013--- Acq_st=3 2019-5-22 11:43:26 
[00]  G02  f 42  -1685.0 2046002.2  1.0  1.0  5  0 301423057
[01]  G05  f 44  -2208.2 2046002.9  1.0  1.0  5  0 301423059
[02]  G06  f 42    189.3 2045999.8  1.0  1.0  5  0 301423060
[03]  G09  f 38    938.9 2045998.8  1.0  1.0  5  0 301423057
[04]  G12  f 44    667.0 2045999.1  1.0  1.0  5  0        14
[05]  G23  f 40   2257.3 2045997.0  1.0  1.0  5  0         6
[06]  G25  f 39   -983.2 2046001.2  1.0  1.0  5  0         7
$GNGGA,000000.000,,,,,0,00,,,M,,,,0000*2B
$GNRMC,000000.000,A,,,,,,,000000,,*26
$GPGSA,A,1,,,,,,,,,,,,,,,*1E
$BDGSA,A,1,,,,,,,,,,,,,,,*0F
$GPGSV,2,1,07,02,00,000,42,05,00,000,44,06,00,000,42,09,00,000,38*7E
$GPGSV,2,2,07,12,00,000,44,23,00,000,40,25,00,000,39*45
$LOGTIM,0,0.000000,0.000000,0.000000,0.000000,0.000*0A
EndT:        0
---00000014--- Acq_st=3 2019-5-22 11:43:27 
[00]  G02  f 41  -1687.8 2046002.2  1.0  1.0  5  0 301424057
[01]  G05  f 44  -2210.5 2046002.9  1.0  1.0  5  0 301424059
[02]  G06  f 42    185.9 2045999.8  1.0  1.0  5  0 301424060
[03]  G09  f 38    937.4 2045998.8  1.0  0.9  5  0 301424057
[04]  G12  f 45    664.7 2045999.1  1.0  1.0  5  0 301424054
[05]  G23  f 41   2254.7 2045997.1  1.0  1.0  5  0 301424046
[06]  G25  f 39   -986.3 2046001.3  1.0  1.0  5  0 301424047
$GNGGA,000000.000,,,,,0,00,,,M,,,,0000*2B
$GNRMC,000000.000,A,,,,,,,000000,,*26
$GPGSA,A,1,,,,,,,,,,,,,,,*1E
$BDGSA,A,1,,,,,,,,,,,,,,,*0F
$GPGSV,2,1,07,02,00,000,41,05,00,000,44,06,00,000,42,09,00,000,38*7D
$GPGSV,2,2,07,12,00,000,45,23,00,000,41,25,00,000,39*45
$LOGTIM,0,0.000000,0.000000,0.000000,0.000000,0.000*0A
EndT:        0
---00000015--- Acq_st=3 2019-5-22 11:43:28 
[00]  G02  f 41  -1688.5 2046002.2  1.0  1.0  5  0 301425057
[01]  G05  f 44  -2211.7 2046002.8  1.0  1.0  5  0 301425059
[02]  G06  f 41    184.9 2045999.8  1.0  1.0  5  0 301425060
[03]  G09  f 38    936.7 2045998.8  1.0  1.0  5  0 301425057
[04]  G12  f 45    663.8 2045999.1  1.0  1.0  5  0 301425054
[05]  G23  f 40   2254.1 2045997.0  1.0  1.0  5  0 301425046
[06]  G25  f 39   -986.5 2046001.3  1.0  1.0  5  0 301425047
$GNGGA,000000.000,,,,,0,00,,,M,,,,0000*2B
$GNRMC,000000.000,A,,,,,,,000000,,*26
$GPGSA,A,1,,,,,,,,,,,,,,,*1E
$BDGSA,A,1,,,,,,,,,,,,,,,*0F
$GPGSV,2,1,07,02,00,000,41,05,00,000,44,06,00,000,41,09,00,000,38*7E
$GPGSV,2,2,07,12,00,000,45,23,00,000,40,25,00,000,39*44
$LOGTIM,0,0.000000,0.000000,0.000000,0.000000,0.000*0A
EndT:        0
---00000016--- Acq_st=3 2019-5-22 11:43:29 
[00]  G02  f 42  -1685.6 2046002.2  1.0  1.0  5  0 301426057
[01]  G05  f 45  -2208.3 2046002.8  1.0  1.0  5  0 301426059
[02]  G06  f 42    188.8 2045999.8  1.0  1.0  5  0 301426060
[03]  G09  f 38    940.0 2045998.7  1.0  1.0  5  0 301426057
[04]  G12  f 45    667.4 2045999.1  1.0  1.0  5  0 301426054
[05]  G23  f 40   2256.6 2045997.1  1.0  1.0  5  0 301426046
[06]  G25  f 38   -983.0 2046001.3  1.0  1.0  5  0 301426047
[16]  B05  1 10   -454.8 4092001.7  0.2  0.0  1  0         0
$GNGGA,000000.000,,,,,0,00,,,M,,,,0000*2B
$GNRMC,000000.000,A,,,,,,,000000,,*26
$GPGSA,A,1,,,,,,,,,,,,,,,*1E
$BDGSA,A,1,,,,,,,,,,,,,,,*0F
$GPGSV,2,1,07,02,00,000,42,05,00,000,45,06,00,000,42,09,00,000,38*7F
$GPGSV,2,2,07,12,00,000,45,23,00,000,40,25,00,000,38*45
$LOGTIM,0,0.000000,0.000000,0.000000,0.000000,0.000*0A
EndT:        0
---00000017--- Acq_st=3 2019-5-22 11:43:30 
[00]  G02  f 42  -1683.3 2046002.2  1.0  1.0  5  0 301427057
[01]  G05  f 45  -2205.2 2046002.8  1.0  1.0  5  0 301427059
[02]  G06  f 42    191.1 2045999.8  1.0  1.0  5  0 301427060
[03]  G09  f 38    942.8 2045998.8  1.0  1.0  5  0 301427057
[04]  G12  f 45    670.3 2045999.1  1.0  1.0  5  0 301427054
[05]  G23  f 40   2259.9 2045997.1  1.0  1.0  5  0 301427046
[06]  G25  f 38   -979.7 2046001.3  1.0  1.0  5  0 301427047
[16]  B05  1 10   -339.9 4092001.3  0.4  0.0  1  0       260
$GNGGA,000000.000,,,,,0,00,,,M,,,,0000*2B
$GNRMC,000000.000,A,,,,,,,000000,,*26
$GPGSA,A,1,,,,,,,,,,,,,,,*1E
$BDGSA,A,1,,,,,,,,,,,,,,,*0F
$GPGSV,2,1,07,02,00,000,42,05,00,000,45,06,00,000,42,09,00,000,38*7F
$GPGSV,2,2,07,12,00,000,45,23,00,000,40,25,00,000,38*45
$LOGTIM,0,0.000000,0.000000,0.000000,0.000000,0.000*0A
EndT:        0
---00000018--- Acq_st=3 2019-5-22 11:43:31 
[00]  G02  f 42  -1688.8 2046002.2  1.0  1.0  5  0 301428057
[01]  G05  f 45  -2210.8 2046002.9  1.0  1.0  5  0 301428059
[02]  G06  f 41    185.4 2045999.8  1.0  1.0  5  0 301428060
[03]  G09  f 38    937.6 2045998.8  1.0  1.0  5  0 301428057
[04]  G12  f 44    665.3 2045999.1  1.0  1.0  5  0 301428054
[05]  G23  f 40   2254.5 2045997.1  1.0  1.0  5  0 301428046
[06]  G25  f 38   -985.1 2046001.3  1.0  1.0  5  0 301428047
[16]  B05  f 33   -345.4 4092000.7  0.9  0.0  2  0      1260
$GNGGA,000000.000,,,,,0,00,,,M,,,,0000*2B
$GNRMC,000000.000,A,,,,,,,000000,,*26
$GPGSA,A,1,,,,,,,,,,,,,,,*1E
$BDGSA,A,1,,,,,,,,,,,,,,,*0F
$GPGSV,2,1,07,02,00,000,42,05,00,000,45,06,00,000,41,09,00,000,38*7C
$GPGSV,2,2,07,12,00,000,44,23,00,000,40,25,00,000,38*44
$BDGSV,1,1,01,05,00,000,33*5C
$LOGTIM,0,0.000000,0.000000,0.000000,0.000000,0.000*0A
EndT:        0
---00000019--- Acq_st=3 2019-5-22 11:43:32 
[00]  G02  f 41  -1693.1 2046002.2  1.0  1.0  5  0 301429057
[01]  G05  f 45  -2214.3 2046002.9  1.0  1.0  5  0 301429059
[02]  G06  f 41    181.5 2045999.8  1.0  1.0  5  0 301429060
[03]  G09  f 39    934.6 2045998.8  1.0  1.0  5  0 301429057
[04]  G12  f 44    661.9 2045999.2  1.0  1.0  5  0 301429054
[05]  G23  f 39   2251.0 2045997.0  1.0  1.0  5  0 301429046
[06]  G25  f 38   -988.4 2046001.3  1.0  1.0  5  0 301429047
[16]  B05  f 34   -349.3 4092000.8  0.9  0.0  2  0 301415597
$GNGGA,000000.000,,,,,0,00,,,M,,,,0000*2B
$GNRMC,000000.000,A,,,,,,,000000,,*26
$GPGSA,A,1,,,,,,,,,,,,,,,*1E
$BDGSA,A,1,,,,,,,,,,,,,,,*0F
$GPGSV,2,1,07,02,00,000,41,05,00,000,45,06,00,000,41,09,00,000,39*7E
$GPGSV,2,2,07,12,00,000,44,23,00,000,39,25,00,000,38*4A
$BDGSV,1,1,01,05,00,000,34*5B
$LOGTIM,0,0.000000,0.000000,0.000000,0.000000,0.000*0A
EndT:        0
---00000020--- Acq_st=3 2019-5-22 11:43:33 
[00]  G02  f 42  -1694.8 2046002.2  1.0  1.0  5  0 301430057
[01]  G05  f 45  -2216.3 2046002.9  1.0  1.0  5  0 301430059
[02]  G06  f 41    179.8 2045999.7  1.0  1.0  5  0 301430060
[03]  G09  f 39    932.5 2045998.8  1.0  1.0  5  0 301430057
[04]  G12  f 44    660.2 2045999.1  1.0  1.0  5  0 301430054
[05]  G23  f 39   2249.2 2045997.1  1.0  1.0  5  0 301430046
[06]  G25  f 38   -990.3 2046001.3  1.0  1.0  5  0 301430047
[16]  B05 1f 34   -351.9 4092000.9  0.9  0.0  2  0 301416597
$GNGGA,000000.000,,,,,0,00,,,M,,,,0000*2B
$GNRMC,000000.000,A,,,,,,,000000,,*26
$GPGSA,A,1,,,,,,,,,,,,,,,*1E
$BDGSA,A,1,,,,,,,,,,,,,,,*0F
$GPGSV,2,1,07,02,00,000,42,05,00,000,45,06,00,000,41,09,00,000,39*7D
$GPGSV,2,2,07,12,00,000,44,23,00,000,39,25,00,000,38*4A
$BDGSV,1,1,01,05,00,000,34*5B
$LOGTIM,0,0.000000,0.000000,0.000000,0.000000,0.000*0A
EndT:        0
---00000021--- Acq_st=3 2019-5-22 11:43:34 
[00]  G02  f 41  -1694.6 2046002.2  1.0  1.0  5  0 301431057
[01]  G05  f 46  -2215.5 2046002.9  1.0  1.0  5  0 301431059
[02]  G06  f 41    180.4 2045999.8  1.0  1.0  5  0 301431060
[03]  G09  f 39    933.3 2045998.7  1.0  1.0  5  0 301431057
[04]  G12  f 45    660.8 2045999.1  1.0  1.0  5  0 301431054
[05]  G23  f 39   2248.8 2045997.1  1.0  0.9  5  0 301431046
[06]  G25  f 38   -989.7 2046001.3  1.0  1.0  5  0 301431047
[16]  B05 1f 32   -352.2 4092000.9  0.9  0.0  2  0 301416997
$GNGGA,000000.000,,,,,0,00,,,M,,,,0000*2B
$GNRMC,000000.000,A,,,,,,,000000,,*26
$GPGSA,A,1,,,,,,,,,,,,,,,*1E
$BDGSA,A,1,,,,,,,,,,,,,,,*0F
$GPGSV,2,1,07,02,00,000,41,05,00,000,46,06,00,000,41,09,00,000,39*7D
$GPGSV,2,2,07,12,00,000,45,23,00,000,39,25,00,000,38*4B
$BDGSV,1,1,01,05,00,000,32*5D
$LOGTIM,0,0.000000,0.000000,0.000000,0.000000,0.000*0A
EndT:        0
---00000022--- Acq_st=3 2019-5-22 11:43:35 
[00]  G02  f 41  -1692.1 2046002.2  1.0  1.0  5  0 301432057
[01]  G05  f 46  -2213.0 2046002.9  1.0  1.0  5  0 301432059
[02]  G06  f 41    182.2 2045999.7  1.0  1.0  5  0 301432060
[03]  G09  f 39    936.0 2045998.8  1.0  1.0  5  0 301432057
[04]  G12  f 45    663.8 2045999.1  1.0  1.0  5  0 301432054
[05]  G23  f 39   2251.5 2045997.0  1.0  1.0  5  0 301432046
[06]  G25  f 38   -986.3 2046001.3  1.0  1.0  5  0 301432047
[16]  B05 1f 33   -349.3 4092000.9  0.9  0.0  2  0 301417997
[17]  B12  1  7  -2987.8 4092009.5  0.0  0.0  1  0         0
$GNGGA,000000.000,,,,,0,00,,,M,,,,0000*2B
$GNRMC,000000.000,A,,,,,,,000000,,*26
$GPGSA,A,1,,,,,,,,,,,,,,,*1E
$BDGSA,A,1,,,,,,,,,,,,,,,*0F
$GPGSV,2,1,07,02,00,000,41,05,00,000,46,06,00,000,41,09,00,000,39*7D
$GPGSV,2,2,07,12,00,000,45,23,00,000,39,25,00,000,38*4B
$BDGSV,1,1,01,05,00,000,33*5C
$LOGTIM,0,0.000000,0.000000,0.000000,0.000000,0.000*0A
EndT:        0
---00000023--- Acq_st=3 2019-5-22 11:43:36 
[00]  G02  f 41  -1695.2 2046002.2  1.0  1.0  5  0 301433057
[01]  G05  f 45  -2215.2 2046002.9  1.0  1.0  5  0 301433059
[02]  G06  f 42    179.8 2045999.8  1.0  1.0  5  0 301433060
[03]  G09  f 39    934.3 2045998.8  1.0  1.0  5  0 301433057
[04]  G12  f 45    661.4 2045999.1  1.0  1.0  5  0 301433054
[05]  G23  f 39   2249.8 2045997.1  1.0  1.0  5  0 301433046
[06]  G25  f 38   -988.2 2046001.3  1.0  1.0  5  0 301433047
[16]  B05 1f 33   -352.4 4092000.9  0.9  0.0  2  0 301418997
[17]  B12  7 25  -2973.1 4092007.7  0.4  0.0 20  0       727
$GNGGA,000000.000,,,,,0,00,,,M,,,,0000*2B
$GNRMC,000000.000,A,,,,,,,000000,,*26
$GPGSA,A,1,,,,,,,,,,,,,,,*1E
$BDGSA,A,1,,,,,,,,,,,,,,,*0F
$GPGSV,2,1,07,02,00,000,41,05,00,000,45,06,00,000,42,09,00,000,39*7D
$GPGSV,2,2,07,12,00,000,45,23,00,000,39,25,00,000,38*4B
$BDGSV,1,1,02,05,00,000,34,12,00,000,25*6C
$LOGTIM,0,0.000000,0.000000,0.000000,0.000000,0.000*0A
EndT:        0
---00000024--- Acq_st=3 2019-5-22 11:43:37 
[00]  G02  f 41  -1693.2 2046002.2  1.0  1.0  5  0 301434057
[01]  G05  f 45  -2213.0 2046002.9  1.0  1.0  5  0 301434059
[02]  G06  f 42    182.2 2045999.7  1.0  1.0  5  0 301434060
[03]  G09  f 39    937.0 2045998.8  1.0  1.0  5  0 301434057
[04]  G12  f 45    663.8 2045999.1  1.0  1.0  5  0 301434054
[05]  G23  f 39   2251.2 2045997.1  1.0  1.0  5  0 301434046
[06]  G25  f 38   -986.2 2046001.3  1.0  1.0  5  0 301434047
[16]  B05 1f 33   -350.5 4092000.9  0.9  0.0  2  0 301419997
[17]  B12  7 38  -2971.0 4092007.7  0.9  1.0  5  0      1711
$GNGGA,000000.000,,,,,0,00,,,M,,,,0000*2B
$GNRMC,000000.000,A,,,,,,,000000,,*26
$GPGSA,A,1,,,,,,,,,,,,,,,*1E
$BDGSA,A,1,,,,,,,,,,,,,,,*0F
$GPGSV,2,1,07,02,00,000,41,05,00,000,45,06,00,000,42,09,00,000,39*7D
$GPGSV,2,2,07,12,00,000,45,23,00,000,39,25,00,000,38*4B
$BDGSV,1,1,02,05,00,000,33,12,00,000,38*67
$LOGTIM,0,0.000000,0.000000,0.000000,0.000000,0.000*0A
EndT:        0
---00000025--- Acq_st=3 2019-5-22 11:43:38 
[00]  G02  f 42  -1695.9 2046002.2  1.0  1.0  5  0 301435057
[01]  G05  f 46  -2215.5 2046002.9  1.0  1.0  5  0 301435059
[02]  G06  f 42    179.3 2045999.8  1.0  1.0  5  0 301435060
[03]  G09  f 38    934.0 2045998.8  1.0  1.0  5  0 301435057
[04]  G12  f 45    661.5 2045999.1  1.0  1.0  5  0 301435054
[05]  G23  f 39   2249.3 2045997.0  1.0  0.9  5  0 301435046
[06]  G25  f 38   -988.9 2046001.3  1.0  0.9  5  0 301435047
[16]  B05 1f 34   -352.9 4092000.7  0.9  0.0  2  0 301420997
[17]  B12  7 38  -2973.9 4092007.8  1.0  1.0  5  0      2711
$GNGGA,000000.000,,,,,0,00,,,M,,,,0000*2B
$GNRMC,000000.000,A,,,,,,,000000,,*26
$GPGSA,A,1,,,,,,,,,,,,,,,*1E
$BDGSA,A,1,,,,,,,,,,,,,,,*0F
$GPGSV,2,1,07,02,00,000,42,05,00,000,46,06,00,000,42,09,00,000,38*7C
$GPGSV,2,2,07,12,00,000,45,23,00,000,39,25,00,000,38*4B
$BDGSV,1,1,02,05,00,000,34,12,00,000,38*60
$LOGTIM,0,0.000000,0.000000,0.000000,0.000000,0.000*0A
EndT:        0
---00000026--- Acq_st=3 2019-5-22 11:43:39 
[00]  G02  f 42  -1688.8 2046002.2  1.0  1.0  5  0 301436057
[01]  G05  f 46  -2208.0 2046002.9  1.0  1.0  5  0 301436059
[02]  G06  f 42    185.9 2045999.7  1.0  1.0  5  0 301436060
[03]  G09  f 38    941.5 2045998.8  1.0  1.0  5  0 301436057
[04]  G12  f 45    669.2 2045999.1  1.0  1.0  5  0 301436054
[05]  G23  f 39   2256.9 2045997.0  1.0  1.0  5  0 301436046
[06]  G25  f 38   -980.8 2046001.2  1.0  1.0  5  0 301436047
[16]  B05 1f 33   -346.4 4092001.0  0.9  0.0  2  0 301421997
[17]  B12  7 38  -2966.8 4092007.8  1.0  0.9  5  0      3711
$GNGGA,000000.000,,,,,0,00,,,M,,,,0000*2B
$GNRMC,000000.000,A,,,,,,,000000,,*26
$GPGSA,A,1,,,,,,,,,,,,,,,*1E
$BDGSA,A,1,,,,,,,,,,,,,,,*0F
$GPGSV,2,1,07,02,00,000,42,05,00,000,46,06,00,000,42,09,00,000,38*7C
$GPGSV,2,2,07,12,00,000,45,23,00,000,39,25,00,000,38*4B
$BDGSV,1,1,02,05,00,000,33,12,00,000,38*67
$LOGTIM,0,0.000000,0.000000,0.000000,0.000000,0.000*0A
EndT:        0
---00000027--- Acq_st=3 2019-5-22 11:43:40 
[00]  G02  f 41  -1694.0 2046002.2  1.0  1.0  5  0 301437057
[01]  G05  f 45  -2212.9 2046002.9  1.0  1.0  5  0 301437059
[02]  G06  f 42    181.7 2045999.7  1.0  1.0  5  0 301437060
[03]  G09  f 38    937.1 2045998.8  1.0  1.0  5  0 301437057
[04]  G12  f 45    664.5 2045999.1  1.0  1.0  5  0 301437054
[05]  G23  f 38   2250.8 2045997.2  1.0  1.0  5  0 301437046
[06]  G25  f 38   -985.2 2046001.3  1.0  1.0  5  0 301437047
[16]  B05 1f 34   -351.0 4092000.9  0.9  0.0  2  0 301422997
[17]  B12 1f 38  -2971.2 4092007.8  1.0  0.9  5  0      4711
[18]  B19  1  7   1044.1 4091997.8  0.0  0.0  1  0         0
$GNGGA,000000.000,,,,,0,00,,,M,,,,0000*2B
$GNRMC,000000.000,A,,,,,,,000000,,*26
$GPGSA,A,1,,,,,,,,,,,,,,,*1E
$BDGSA,A,1,,,,,,,,,,,,,,,*0F
$GPGSV,2,1,07,02,00,000,41,05,00,000,45,06,00,000,42,09,00,000,38*7C
$GPGSV,2,2,07,12,00,000,45,23,00,000,38,25,00,000,38*4A
$BDGSV,1,1,02,05,00,000,34,12,00,000,38*60
$LOGTIM,0,0.000000,0.000000,0.000000,0.000000,0.000*0A
EndT:        0
---00000028--- Acq_st=3 2019-5-22 11:43:41 
[00]  G02  f 41  -1698.4 2046002.2  1.0  1.0  5  0 301438057
[01]  G05  f 46  -2216.9 2046002.9  1.0  1.0  5  0 301438059
[02]  G06  f 42    177.5 2045999.8  1.0  1.0  5  0 301438060
[03]  G09  f 37    933.4 2045998.8  1.0  1.0  5  0 301438057
[04]  G12  f 44    660.6 2045999.2  1.0  1.0  5  0 301438054
[05]  G23  f 38   2247.7 2045997.1  1.0  1.0  5  0 301438046
[06]  G25  f 38   -989.3 2046001.4  1.0  1.0  5  0 301438047
[16]  B05 1f 33   -355.7 4092000.9  0.9  0.0  2  0 301423997
[17]  B12 1f 38  -2975.4 4092007.8  1.0  0.9  5  0 301424051
[18]  B19  1  7   1097.1 4091996.9 -0.1  0.0  1  0       196
$GNGGA,000000.000,,,,,0,00,,,M,,,,0000*2B
$GNRMC,000000.000,A,,,,,,,000000,,*26
$GPGSA,A,1,,,,,,,,,,,,,,,*1E
$BDGSA,A,1,,,,,,,,,,,,,,,*0F
$GPGSV,2,1,07,02,00,000,41,05,00,000,46,06,00,000,42,09,00,000,37*70
$GPGSV,2,2,07,12,00,000,44,23,00,000,38,25,00,000,38*4B
$BDGSV,1,1,02,05,00,000,33,12,00,000,38*67
$LOGTIM,0,0.000000,0.000000,0.000000,0.000000,0.000*0A
EndT:        0
---00000029--- Acq_st=3 2019-5-22 11:43:42 
[00]  G02  f 42  -1702.1 2046002.2  1.0  1.0  5  0 301439057
[01]  G05  f 45  -2220.4 2046002.9  1.0  1.0  5  0 301439059
[02]  G06  f 42    173.4 2045999.7  1.0  1.0  5  0 301439060
[03]  G09  f 37    930.6 2045998.8  1.0  1.0  5  0 301439057
[04]  G12  f 44    657.5 2045999.1  1.0  1.0  5  0 301439054
[05]  G23  f 37   2244.0 2045997.2  1.0  0.9  5  0 301439046
[06]  G25  f 37   -992.6 2046001.3  1.0  1.0  5  0 301439047
[16]  B05 1f 33   -359.2 4092001.0  0.9  0.0  2  0 301424997
[17]  B12 1f 38  -2979.9 4092007.9  1.0  1.0  5  0 301425051
[18]  B19  7 34   1093.9 4091997.1  0.7  1.0  5  0      1196
$GNGGA,000000.000,,,,,0,00,,,M,,,,0000*2B
$GNRMC,000000.000,A,,,,,,,000000,,*26
$GPGSA,A,1,,,,,,,,,,,,,,,*1E
$BDGSA,A,1,,,,,,,,,,,,,,,*0F
$GPGSV,2,1,07,02,00,000,42,05,00,000,45,06,00,000,42,09,00,000,37*70
$GPGSV,2,2,07,12,00,000,44,23,00,000,37,25,00,000,37*4B
$BDGSV,1,1,03,05,00,000,33,12,00,000,38,19,00,000,34*59
$LOGTIM,0,0.000000,0.000000,0.000000,0.000000,0.000*0A
EndT:        0
---00000030--- Acq_st=3 2019-5-22 11:43:43 
[00]  G02  f 41  -1703.4 2046002.2  1.0  1.0  5  0 301440057
[01]  G05  f 45  -2221.2 2046002.9  1.0  1.0  5  0 301440059
[02]  G06  f 42    172.3 2045999.8  1.0  1.0  5  0 301440060
[03]  G09  f 37    929.6 2045998.8  1.0  1.0  5  0 301440057
[04]  G12  f 45    656.4 2045999.1  1.0  1.0  5  0 301440054
[05]  G23  f 37   2242.8 2045997.1  1.0  1.0  5  0 301440046
[06]  G25  f 37   -993.8 2046001.3  1.0  1.0  5  0 301440047
[16]  B05 1f 33   -360.8 4092000.9  0.9  0.0  2  0 301425997
[17]  B12 1f 38  -2980.5 4092007.8  1.0  1.0  5  0 301426051
[18]  B19  7 41   1092.8 4091997.0  1.0  1.0  5  0      2177
$GNGGA,000000.000,,,,,0,00,,,M,,,,0000*2B
$GNRMC,000000.000,A,,,,,,,000000,,*26
$GPGSA,A,1,,,,,,,,,,,,,,,*1E
$BDGSA,A,1,,,,,,,,,,,,,,,*0F
$GPGSV,2,1,07,02,00,000,41,05,00,000,45,06,00,000,42,09,00,000,37*73
$GPGSV,2,2,07,12,00,000,45,23,00,000,37,25,00,000,37*4A
$BDGSV,1,1,03,05,00,000,33,12,00,000,38,19,00,000,41*5B
$LOGTIM,0,0.000000,0.000000,0.000000,0.000000,0.000*0A
EndT:        0
---00000031--- Acq_st=3 2019-5-22 11:43:44 
[00]  G02  f 42  -1703.3 2046002.2  1.0  1.0  5  0 301441057
[01]  G05  f 46  -2220.5 2046002.9  1.0  1.0  5  0 301441059
[02]  G06  f 42    173.0 2045999.8  1.0  1.0  5  0 301441060
[03]  G09  f 36    930.5 2045998.9  1.0  1.0  5  0 301441057
[04]  G12  f 45    657.1 2045999.1  1.0  1.0  5  0 301441054
[05]  G23  f 37   2243.7 2045997.1  1.0  1.0  5  0 301441046
[06]  G25  f 37   -993.2 2046001.3  1.0  1.0  5  0 301441047
[16]  B05 1f 35   -360.7 4092000.9  0.9  0.0  2  0 301426997
[17]  B12 1f 38  -2980.7 4092007.8  1.0  1.0  5  0 301427051
[18]  B19  7 42   1093.0 4091997.1  1.0  1.0  5  0      3177
$GNGGA,000000.000,,,,,0,00,,,M,,,,0000*2B
$GNRMC,000000.000,A,,,,,,,000000,,*26
$GPGSA,A,1,,,,,,,,,,,,,,,*1E
$BDGSA,A,1,,,,,,,,,,,,,,,*0F
$GPGSV,2,1,07,02,00,000,42,05,00,000,46,06,00,000,42,09,00,000,36*72
$GPGSV,2,2,07,12,00,000,45,23,00,000,37,25,00,000,37*4A
$BDGSV,1,1,03,05,00,000,35,12,00,000,38,19,00,000,42*5E
$LOGTIM,0,0.000000,0.000000,0.000000,0.000000,0.000*0A
EndT:        0
---00000032--- Acq_st=3 2019-5-22 11:43:45 
[00]  G02  f 42  -1699.2 2046002.2  1.0  1.0  5  0 301442057
[01]  G05  f 45  -2216.3 2046002.9  1.0  1.0  5  0 301442059
[02]  G06  f 42    177.1 2045999.7  1.0  1.0  5  0 301442060
[03]  G09  f 37    935.2 2045998.9  1.0  1.0  5  0 301442057
[04]  G12  f 45    661.9 2045999.1  1.0  1.0  5  0 301442054
[05]  G23  f 37   2247.6 2045997.0  1.0  1.0  5  0 301442046
[06]  G25  f 37   -988.2 2046001.3  1.0  1.0  5  0 301442047
[16]  B05 1f 33   -356.6 4092000.8  0.9  0.0  2  0 301427997
[17]  B12 1f 38  -2976.8 4092007.8  1.0  1.0  5  0 301428051
[18]  B19  7 42   1097.5 4091997.1  1.0  1.0  5  0      4177
$GNGGA,000000.000,,,,,0,00,,,M,,,,0000*2B
$GNRMC,000000.000,A,,,,,,,000000,,*26
$GPGSA,A,1,,,,,,,,,,,,,,,*1E
$BDGSA,A,1,,,,,,,,,,,,,,,*0F
$GPGSV,2,1,07,02,00,000,42,05,00,000,45,06,00,000,42,09,00,000,37*70
$GPGSV,2,2,07,12,00,000,45,23,00,000,37,25,00,000,37*4A
$BDGSV,1,1,03,05,00,000,33,12,00,000,38,19,00,000,42*58
$LOGTIM,0,0.000000,0.000000,0.000000,0.000000,0.000*0A
EndT:        0
---00000033--- Acq_st=3 2019-5-22 11:43:46 
[00]  G02  f 42  -1693.9 2046002.2  1.0  1.0  5  0 301443057
[01]  G05  f 45  -2211.0 2046002.9  1.0  1.0  5  0 301443059
[02]  G06  f 43    182.8 2045999.8  1.0  1.0  5  0 301443060
[03]  G09  f 36    940.0 2045998.7  1.0  1.0  5  0 301443057
[04]  G12  f 45    667.7 2045999.1  1.0  1.0  5  0 301443054
[05]  G23  f 38   2252.6 2045997.1  1.0  1.0  5  0 301443046
[06]  G25  f 38   -982.3 2046001.2  1.0  1.0  5  0 301443047
[16]  B05 1f 34   -351.4 4092000.9  0.9  0.0  2  0 301428997
[17]  B12 1f 38  -2971.5 4092007.7  1.0  1.0  5  0 301429051
[18]  B19 1f 42   1103.5 4091997.1  1.0  1.0  5  0      5177
$GNGGA,000000.000,,,,,0,00,,,M,,,,0000*2B
$GNRMC,000000.000,A,,,,,,,000000,,*26
$GPGSA,A,1,,,,,,,,,,,,,,,*1E
$BDGSA,A,1,,,,,,,,,,,,,,,*0F
$GPGSV,2,1,07,02,00,000,42,05,00,000,45,06,00,000,43,09,00,000,36*70
$GPGSV,2,2,07,12,00,000,45,23,00,000,38,25,00,000,38*4A
$BDGSV,1,1,03,05,00,000,34,12,00,000,38,19,00,000,42*5F
$LOGTIM,0,0.000000,0.000000,0.000000,0.000000,0.000*0A
EndT:        0
---00000034--- Acq_st=3 2019-5-22 11:43:47 
[00]  G02  f 42  -1691.0 2046002.2  1.0  1.0  5  0 301444057
[01]  G05  f 45  -2207.6 2046002.9  1.0  1.0  5  0 301444059
[02]  G06  f 42    185.7 2045999.8  1.0  1.0  5  0 301444060
[03]  G09  f 37    944.2 2045998.8  1.0  1.0  5  0 301444057
[04]  G12  f 45    670.8 2045999.1  1.0  1.0  5  0 301444054
[05]  G23  f 38   2256.6 2045997.1  1.0  1.0  5  0 301444046
[06]  G25  f 39   -979.0 2046001.3  1.0  1.0  5  0 301444047
[16]  B05 1f 33   -349.0 4092001.0  0.9  0.0  2  0 301429997
[17]  B12 1f 38  -2968.5 4092007.8  1.0  1.0  5  0 301430051
[18]  B19 1f 42   1106.1 4091997.1  1.0  1.0  5  0 301430057
$GNGGA,000000.000,,,,,0,00,,,M,,,,0000*2B
$GNRMC,000000.000,A,,,,,,,000000,,*26
$GPGSA,A,1,,,,,,,,,,,,,,,*1E
$BDGSA,A,1,,,,,,,,,,,,,,,*0F
$GPGSV,2,1,07,02,00,000,42,05,00,000,45,06,00,000,42,09,00,000,37*70
$GPGSV,2,2,07,12,00,000,45,23,00,000,38,25,00,000,39*4B
$BDGSV,1,1,03,05,00,000,33,12,00,000,38,19,00,000,42*58
$LOGTIM,0,0.000000,0.000000,0.000000,0.000000,0.000*0A
EndT:        0
---00000035--- Acq_st=3 2019-5-22 11:43:48 
[00]  G02  f 42  -1692.9 2046002.2  1.0  1.0  5  0 301445057
[01]  G05  f 45  -2208.8 2046002.9  1.0  1.0  5  0 301445059
[02]  G06  f 42    183.9 2045999.8  1.0  1.0  5  0 301445060
[03]  G09  f 37    943.2 2045998.8  1.0  1.0  5  0 301445056
[04]  G12  f 45    669.7 2045999.1  1.0  1.0  5  0 301445054
[05]  G23  f 38   2254.4 2045997.1  1.0  1.0  5  0 301445046
[06]  G25  f 38   -979.8 2046001.3  1.0  1.0  5  0 301445047
[16]  B05 1f 33   -350.7 4092000.8  0.9  0.0  2  0 301430997
[17]  B12 1f 38  -2969.5 4092007.8  1.0  0.9  5  0 301431051
[18]  B19 1f 42   1104.8 4091997.0  1.0  1.0  5  0 301431057
lsq: nits= 4
$GNGGA,114348.131,3112.7162,N,12136.4338,E,1,04,2.9,16.3,M,,,,0000*2A
$GNRMC,114348.131,A,3112.7162,N,12136.4338,E,0.19,0.00,220519,,*18
$GPGSA,A,3,02,05,06,09,,,,,,,,,8.0,2.9,7.4*3A
$BDGSA,A,3,,,,,,,,,,,,,8.0,2.9,7.4*23
$GPGSV,2,1,07,02,00,000,42,05,00,000,45,06,00,000,42,09,00,000,37*70
$GPGSV,2,2,07,12,00,000,45,23,00,000,38,25,00,000,38*4A
$BDGSV,1,1,03,05,00,000,33,12,00,000,38,19,00,000,42*58
$LOGTIM,1,8903268.469359,0.000000,0.000000,0.000000,-65.873*13
EndT:        1
---00000036--- Acq_st=3 2019-5-22 11:43:49 
[00]  G02  f 42  -1694.6 2046002.2  1.0  1.0  5  0 301446057
[01]  G05  f 45  -2210.4 2046002.9  1.0  1.0  5  0 301446059
[02]  G06  f 42    182.6 2045999.8  1.0  1.0  5  0 301446060
[03]  G09  f 37    941.7 2045998.8  1.0  1.0  5  0 301446056
[04]  G12  f 46    668.2 2045999.1  1.0  1.0  5  0 301446054
[05]  G23  f 38   2252.9 2045997.1  1.0  1.0  5  0 301446046
[06]  G25  f 38   -981.1 2046001.3  1.0  1.1  5  0 301446047
[16]  B05 1f 32   -351.9 4092001.0  0.9  0.0  2  0 301431997
[17]  B12 1f 37  -2971.9 4092007.8  1.0  1.0  5  0 301432051
[18]  B19 1f 43   1102.9 4091997.1  1.0  1.0  5  0 301432057
lsq: nits= 4
$GNGGA,114350.000,3112.7154,N,12136.4350,E,1,04,2.9,18.4,M,,,,0000*22
$GNRMC,114350.000,A,3112.7154,N,12136.4350,E,0.13,0.00,220519,,*13
$GPGSA,A,3,02,05,06,09,,,,,,,,,8.0,2.9,7.4*3A
$BDGSA,A,3,,,,,,,,,,,,,8.0,2.9,7.4*23
$GPGSV,2,1,07,02,00,000,42,05,00,000,45,06,00,000,42,09,00,000,37*70
$GPGSV,2,2,07,12,00,000,46,23,00,000,38,25,00,000,38*49
$BDGSV,1,1,03,05,00,000,32,12,00,000,37,19,00,000,43*57
$LOGTIM,1,-124.285733,0.000000,0.000000,0.000000,-66.437*34
EndT:        2
---00000037--- Acq_st=3 2019-5-22 11:43:50 
[00]  G02  f 42  -1693.4 2046002.2  1.0  1.0  5  0 301447927
[01]  G05  f 45  -2209.2 2046002.9  1.0  1.0  5  0 301447928
[02]  G06  f 42    183.2 2045999.7  1.0  1.0  5  0 301447929
[03]  G09  f 37    942.9 2045998.8  1.0  1.0  5  0 301447926
[04]  G12  f 46    669.8 2045999.1  1.0  1.0  5  0 301447923
[05]  G23  f 39   2254.1 2045997.1  1.0  1.0  5  0 301447915
[06]  G25  f 39   -980.5 2046001.3  1.0  1.0  5  0 301447917
[16]  B05 1f 32   -351.3 4092000.8  0.9  0.0  2  0 301433866
[17]  B12 1f 37  -2970.7 4092007.7  1.0  0.9  5  0 301433920
[18]  B19 1f 43   1104.2 4091997.1  1.0  1.0  5  0 301433926
lsq: nits= 4
$GNGGA,114351.000,3112.7153,N,12136.4355,E,1,04,2.9,18.8,M,,,,0000*2D
$GNRMC,114351.000,A,3112.7153,N,12136.4355,E,0.11,0.00,220519,,*12
$GPGSA,A,3,02,05,06,09,,,,,,,,,8.0,2.9,7.4*3A
$BDGSA,A,3,,,,,,,,,,,,,8.0,2.9,7.4*23
$GPGSV,2,1,07,02,52,329,42,05,45,252,45,06,54,047,42,09,36,062,37*78
$GPGSV,2,2,07,12,00,000,46,23,00,000,39,25,00,000,39*49
$BDGSV,1,1,04,05,00,000,32,12,00,000,37,19,00,000,43,01,47,147,00*60
$LOGTIM,1,-190.924301,0.000000,0.000000,0.000000,-66.623*39
EndT:        2
---00000038--- Acq_st=7 2019-5-22 11:43:51 
[00]  G02  f 42  -1697.2 2046002.2  1.0  1.0  5  0 301448927
[01]  G05  f 45  -2212.1 2046002.9  1.0  1.0  5  0 301448928
[02]  G06  f 42    180.0 2045999.8  1.0  1.0  5  0 301448929
[03]  G09  f 36    939.2 2045998.8  1.0  1.0  5  0 301448926
[04]  G12  f 45    666.7 2045999.1  1.0  1.0  5  0 301448923
[05]  G23  f 39   2250.9 2045997.1  1.0  1.0  5  0 301448915
[06]  G25  f 39   -983.2 2046001.3  1.0  1.0  5  0 301448917
[16]  B05 1f 33   -354.7 4092000.9  0.9  0.0  2  0 301434866
[17]  B12 1f 37  -2974.2 4092007.8  1.0  1.0  5  0 301434920
[18]  B19 1f 43   1101.1 4091997.1  1.0  1.0  5  0 301434926
lsq: nits= 4
$GNGGA,114352.000,3112.7154,N,12136.4363,E,1,04,2.9,19.4,M,,,,0000*21
$GNRMC,114352.000,A,3112.7154,N,12136.4363,E,0.04,0.00,220519,,*17
$GPGSA,A,3,02,05,06,09,,,,,,,,,8.0,2.9,7.4*3A
$BDGSA,A,3,,,,,,,,,,,,,8.0,2.9,7.4*23
$GPGSV,2,1,07,02,52,329,42,05,45,252,45,06,54,047,42,09,36,062,36*79
$GPGSV,2,2,07,12,00,000,45,23,00,000,39,25,00,000,39*4A
$BDGSV,2,1,07,05,00,000,33,12,00,000,37,19,00,000,43,01,47,147,00*61
$BDGSV,2,2,07,02,36,237,00,16,37,182,00,18,37,182,00*50
$LOGTIM,1,-257.715150,0.000000,0.000000,0.000000,-66.657*38
EndT:        2
---00000039--- Acq_st=7 2019-5-22 11:43:52 
[00]  G02  f 41  -1695.1 2046002.2  1.0  1.0  5  0 301449927
[01]  G05  f 45  -2210.3 2046002.9  1.0  1.0  5  0 301449928
[02]  G06  f 42    181.6 2045999.8  1.0  1.0  5  0 301449929
[03]  G09  f 37    942.5 2045998.8  1.0  0.9  5  0 301449926
[04]  G12  f 46    669.1 2045999.2  1.0  1.0  5  0 301449923
[05]  G23  f 39   2253.1 2045997.0  1.0  1.0  5  0 301449915
[06]  G25  f 39   -981.0 2046001.3  1.0  1.0  5  0 301449917
[16]  B05 1f 32   -353.2 4092001.1  0.9  0.0  2  0 301435866
[17]  B12 1f 37  -2972.3 4092007.8  1.0  1.0  5  0 301435920
[18]  B19 1f 43   1103.3 4091997.1  1.0  1.0  5  0 301435926
lsq: nits= 4
$GNGGA,114353.000,3112.7151,N,12136.4374,E,1,04,2.9,20.9,M,,,,0000*24
$GNRMC,114353.000,A,3112.7151,N,12136.4374,E,0.47,0.00,220519,,*12
$GPGSA,A,3,02,05,06,09,,,,,,,,,8.0,2.9,7.4*3A
$BDGSA,A,3,,,,,,,,,,,,,8.0,2.9,7.4*23
$GPGSV,2,1,07,02,52,329,41,05,45,252,45,06,54,047,42,09,36,062,37*7B
$GPGSV,2,2,07,12,00,000,46,23,00,000,39,25,00,000,39*49
$BDGSV,2,1,07,05,00,000,32,12,00,000,37,19,00,000,43,01,47,147,00*60
$BDGSV,2,2,07,02,36,237,00,16,37,182,00,18,37,182,00*50
$LOGTIM,1,-323.161527,0.000000,0.000000,0.000000,-65.734*3C
EndT:        2
---00000040--- Acq_st=7 2019-5-22 11:43:53 
[00]  G02  f 42  -1687.7 2046002.2  1.0  1.0  5  0 301450927
[01]  G05  f 45  -2202.0 2046002.8  1.0  1.0  5  0 301450928
[02]  G06  f 42    189.6 2045999.7  1.0  1.0  5  0 301450929
[03]  G09  f 37    950.8 2045998.8  1.0  1.0  5  0 301450926
[04]  G12  f 46    677.1 2045999.1  1.0  1.0  5  0 301450923
[05]  G23  f 38   2260.7 2045997.0  1.0  1.0  5  0 301450915
[06]  G25  f 39   -972.8 2046001.3  1.0  1.0  5  0 301450917
[16]  B05 1f 32   -345.6 4092000.8  0.9  0.0  2  0 301436866
[17]  B12 1f 38  -2964.5 4092007.8  1.0  1.0  5  0 301436920
[18]  B19 1f 43   1111.2 4091997.1  1.0  1.0  5  0 301436926
lsq: nits= 4
$GNGGA,114354.000,3112.7151,N,12136.4385,E,1,04,2.9,22.5,M,,,,0000*23
$GNRMC,114354.000,A,3112.7151,N,12136.4385,E,0.44,0.00,220519,,*18
$GPGSA,A,3,02,05,06,09,,,,,,,,,8.0,2.9,7.4*3A
$BDGSA,A,3,,,,,,,,,,,,,8.0,2.9,7.4*23
$GPGSV,2,1,07,02,52,329,42,05,45,252,45,06,54,047,42,09,36,062,37*78
$GPGSV,2,2,07,12,00,000,46,23,00,000,38,25,00,000,39*48
$BDGSV,2,1,07,05,00,000,32,12,00,000,38,19,00,000,43,01,47,147,00*6F
$BDGSV,2,2,07,02,36,237,00,16,37,182,00,18,37,182,00*50
$LOGTIM,1,-387.834726,0.000000,0.000000,0.000000,-65.400*3C
EndT:        2
---00000041--- Acq_st=3 2019-5-22 11:43:54 
[00]  G02  f 42  -1688.9 2046002.2  1.0  1.0  5  0 301451927
[01]  G05  f 45  -2203.0 2046002.9  1.0  1.0  5  0 301451928
[02]  G06  f 42    188.7 2045999.8  1.0  1.0  5  0 301451929
[03]  G09  f 37    950.0 2045998.8  1.0  1.0  5  0 301451926
[04]  G12  f 46    676.3 2045999.1  1.0  1.0  5  0 301451923
[05]  G23  f 39   2260.1 2045997.0  1.0  1.0  5  0 301451915
[06]  G25  f 39   -973.4 2046001.3  1.0  1.0  5  0 301451917
[16]  B05 1f 32   -346.7 4092000.9  0.9  0.0  2  0 301437866
[17]  B12 1f 38  -2965.5 4092007.8  1.0  1.0  5  0 301437920
[18]  B19 1f 43   1110.2 4091997.1  1.0  1.0  5  0 301437926
lsq: nits= 4
$GNGGA,114355.000,3112.7136,N,12136.4401,E,1,07,1.9,31.8,M,,,,0000*27
$GNRMC,114355.000,A,3112.7136,N,12136.4401,E,0.29,0.00,220519,,*18
$GPGSA,A,3,02,05,06,09,12,23,25,,,,,,2.6,1.9,1.8*3A
$BDGSA,A,3,,,,,,,,,,,,,2.6,1.9,1.8*26
$GPGSV,2,1,07,02,52,329,42,05,45,252,45,06,54,047,42,09,36,062,37*78
$GPGSV,2,2,07,12,00,000,46,23,00,000,39,25,00,000,39*49
$BDGSV,2,1,08,05,00,000,32,12,00,000,38,19,00,000,43,01,47,147,00*60
$BDGSV,2,2,08,02,36,237,00,03,52,200,00,16,37,182,00,18,37,182,00*69
$LOGTIM,1,-447.554295,0.000000,0.000000,0.000000,-65.879*33
EndT:        3
---00000042--- Acq_st=3 2019-5-22 11:43:55 
[00]  G02  f 42  -1694.1 2046002.2  1.0  1.0  5  0 301452927
[01]  G05  f 45  -2207.6 2046002.9  1.0  1.0  5  0 301452928
[02]  G06  f 42    183.7 2045999.8  1.0  1.0  5  0 301452929
[03]  G09  f 37    945.5 2045998.8  1.0  0.9  5  0 301452926
[04]  G12  f 46    671.6 2045999.1  1.0  1.0  5  0 301452923
[05]  G23  f 39   2255.3 2045997.1  1.0  1.0  5  0 301452915
[06]  G25  f 39   -978.2 2046001.2  1.0  1.0  5  0 301452917
[16]  B05 1f 33   -352.1 4092001.1  0.9  0.0  2  0 301438866
[17]  B12 1f 38  -2970.6 4092007.8  1.0  1.0  5  0 301438920
[18]  B19 1f 43   1105.2 4091997.1  1.0  1.0  5  0 301438926
lsq: nits= 2
$GNGGA,114356.000,3112.7137,N,12136.4403,E,1,07,1.9,36.1,M,,,,0000*29
$GNRMC,114356.000,A,3112.7137,N,12136.4403,E,0.48,0.00,220519,,*1F
$GPGSA,A,3,02,05,06,09,12,23,25,,,,,,2.6,1.9,1.8*3A
$BDGSA,A,3,,,,,,,,,,,,,2.6,1.9,1.8*26
$GPGSV,2,1,07,02,52,329,42,05,45,252,45,06,54,047,42,09,36,062,37*78
$GPGSV,2,2,07,12,26,273,46,23,08,039,39,25,10,307,39*4C
$BDGSV,2,1,08,05,00,000,33,12,00,000,38,19,00,000,43,01,47,147,00*61
$BDGSV,2,2,08,02,36,237,00,03,52,200,00,16,37,182,00,18,37,182,00*69
$LOGTIM,1,-510.843639,0.000000,0.000000,0.000000,-66.083*37
EndT:        3
---00000043--- Acq_st=3 2019-5-22 11:43:56 
[00]  G02  f 42  -1695.3 2046002.2  1.0  1.0  5  0 301453927
[01]  G05  f 45  -2208.7 2046002.9  1.0  1.0  5  0 301453928
[02]  G06  f 41    182.9 2045999.7  1.0  1.0  5  0 301453929
[03]  G09  f 38    945.1 2045998.8  1.0  1.0  5  0 301453926
[04]  G12  f 46    671.0 2045999.1  1.0  1.0  5  0 301453923
[05]  G23  f 39   2254.0 2045997.1  1.0  1.0  5  0 301453915
[06]  G25  f 39   -979.3 2046001.3  1.0  1.0  5  0 301453917
[16]  B05 1f 33   -353.4 4092000.8  0.9  0.0  2  0 301439866
[17]  B12 1f 38  -2972.3 4092007.8  1.0  1.0  5  0 301439920
[18]  B19 1f 44   1104.3 4091997.1  1.0  1.0  5  0 301439926
lsq: nits= 2
$GNGGA,114357.000,3112.7141,N,12136.4405,E,1,07,1.9,39.1,M,,,,0000*20
$GNRMC,114357.000,A,3112.7141,N,12136.4405,E,0.30,0.00,220519,,*16
$GPGSA,A,3,02,05,06,09,12,23,25,,,,,,2.6,1.9,1.8*3A
$BDGSA,A,3,,,,,,,,,,,,,2.6,1.9,1.8*26
$GPGSV,2,1,07,02,52,329,42,05,45,252,45,06,54,047,41,09,36,062,38*74
$GPGSV,2,2,07,12,26,273,46,23,08,039,39,25,10,307,39*4C
$BDGSV,2,1,08,05,00,000,33,12,00,000,38,19,00,000,44,01,47,147,00*66
$BDGSV,2,2,08,02,36,237,00,03,52,200,00,16,37,182,00,18,37,182,00*69
$LOGTIM,1,-574.928846,0.000000,0.000000,0.000000,-65.780*38
EndT:        3
---00000044--- Acq_st=3 2019-5-22 11:43:57 
[00]  G02  f 42  -1691.9 2046002.2  1.0  1.0  5  0 301454927
[01]  G05  f 45  -2205.1 2046002.9  1.0  1.0  5  0 301454928
[02]  G06  f 42    185.5 2045999.7  1.0  1.0  5  0 301454929
[03]  G09  f 37    948.5 2045998.8  1.0  1.0  5  0 301454926
[04]  G12  f 46    674.7 2045999.1  1.0  1.0  5  0 301454923
[05]  G23  f 39   2257.4 2045997.0  1.0  1.0  5  0 301454915
[06]  G25  f 39   -974.7 2046001.3  1.0  1.0  5  0 301454917
[16]  B05 1f 33   -349.7 4092001.0  0.9  0.0  2  0 301440866
[17]  B12 1f 38  -2968.4 4092007.8  1.0  1.0  5  0 301440920
[18]  B19 1f 44   1108.6 4091997.1  1.0  1.0  5  0 301440926
lsq: nits= 2
$GNGGA,114358.000,3112.7145,N,12136.4403,E,1,07,1.9,41.6,M,,,,0000*25
$GNRMC,114358.000,A,3112.7145,N,12136.4403,E,0.20,0.00,220519,,*1A
$GPGSA,A,3,02,05,06,09,12,23,25,,,,,,2.6,1.9,1.8*3A
$BDGSA,A,3,,,,,,,,,,,,,2.6,1.9,1.8*26
$GPGSV,2,1,07,02,52,329,42,05,45,252,45,06,54,047,42,09,36,062,37*78
$GPGSV,2,2,07,12,26,273,46,23,08,039,39,25,10,307,39*4C
$BDGSV,3,1,09,05,00,000,33,12,00,000,38,19,00,000,44,01,47,147,00*66
$BDGSV,3,2,09,02,36,237,00,03,52,200,00,04,35,123,00,16,37,182,00*6D
$BDGSV,3,3,09,18,37,182,00*57
$LOGTIM,1,-638.571237,0.000000,0.000000,0.000000,-65.412*37
EndT:        3
---00000045--- Acq_st=3 2019-5-22 11:43:58 
[00]  G02  f 42  -1690.3 2046002.2  1.0  1.0  5  0 301455927
[01]  G05  f 45  -2203.3 2046002.9  1.0  1.0  5  0 301455928
[02]  G06  f 41    187.6 2045999.7  1.0  1.0  5  0 301455929
[03]  G09  f 38    951.0 2045998.7  1.0  1.0  5  0 301455926
[04]  G12  f 46    676.6 2045999.1  1.0  1.0  5  0 301455923
[05]  G23  f 40   2259.4 2045997.1  1.0  1.0  5  0 301455915
[06]  G25  f 39   -972.8 2046001.3  1.0  1.0  5  0 301455917
[16]  B05 1f 33   -348.8 4092001.1  0.9  0.0  2  0 301441866
[17]  B12 1f 38  -2967.5 4092007.8  1.0  1.0  5  0 301441920
[18]  B19 1f 44   1109.9 4091997.1  1.0  1.0  5  0 301441926
lsq: nits= 2
$GNGGA,114359.000,3112.7149,N,12136.4400,E,1,07,1.9,42.3,M,,,,0000*2D
$GNRMC,114359.000,A,3112.7149,N,12136.4400,E,0.68,0.00,220519,,*18
$GPGSA,A,3,02,05,06,09,12,23,25,,,,,,2.6,1.9,1.8*3A
$BDGSA,A,3,,,,,,,,,,,,,2.6,1.9,1.8*26
$GPGSV,2,1,07,02,52,329,42,05,45,252,45,06,54,047,41,09,36,062,38*74
$GPGSV,2,2,07,12,26,273,46,23,08,039,40,25,10,307,39*42
$BDGSV,3,1,09,05,00,000,33,12,00,000,38,19,00,000,44,01,47,147,00*66
$BDGSV,3,2,09,02,36,237,00,03,52,200,00,04,35,123,00,16,37,182,00*6D
$BDGSV,3,3,09,18,37,182,00*57
$LOGTIM,1,-703.976475,0.000000,0.000000,0.000000,-66.101*31
EndT:        3
---00000046--- Acq_st=3 2019-5-22 11:43:59 
[00]  G02  f 43  -1696.5 2046002.2  1.0  1.0  5  0 301456927
[01]  G05  f 45  -2209.2 2046002.9  1.0  1.0  5  0 301456928
[02]  G06  f 42    181.3 2045999.7  1.0  1.0  5  0 301456929
[03]  G09  f 38    945.1 2045998.8  1.0  1.0  5  0 301456926
[04]  G12  f 45    671.0 2045999.1  1.0  1.0  5  0 301456923
[05]  G23  f 40   2253.5 2045997.1  1.0  1.0  5  0 301456915
[06]  G25  f 39   -978.6 2046001.3  1.0  1.0  5  0 301456917
[16]  B05 1f 33   -355.0 4092000.9  0.9  0.0  2  0 301442866
[17]  B12 1f 38  -2973.5 4092007.7  1.0  1.0  5  0 301442920
[18]  B19 1f 44   1103.9 4091997.1  1.0  1.0  5  0 301442926
lsq: nits= 2
$GNGGA,114400.000,3112.7148,N,12136.4398,E,1,07,1.9,42.1,M,,,,0000*23
$GNRMC,114400.000,A,3112.7148,N,12136.4398,E,0.79,0.00,220519,,*14
$GPGSA,A,3,02,05,06,09,12,23,25,,,,,,2.6,1.9,1.8*3A
$BDGSA,A,3,,,,,,,,,,,,,2.6,1.9,1.8*26
$GPGSV,2,1,07,02,52,329,43,05,45,252,45,06,54,047,42,09,36,062,38*76
$GPGSV,2,2,07,12,26,273,45,23,08,039,40,25,10,307,39*41
$BDGSV,3,1,09,05,00,000,33,12,00,000,38,19,00,000,44,01,47,147,00*66
$BDGSV,3,2,09,02,36,237,00,03,52,200,00,04,35,123,00,16,37,182,00*6D
$BDGSV,3,3,09,18,37,182,00*57
$LOGTIM,1,-770.988430,0.000000,0.000000,0.000000,-66.706*34
EndT:        3
---00000047--- Acq_st=3 2019-5-22 11:44:0 
[00]  G02  f 43  -1699.4 2046002.2  1.0  1.0  5  0 301457927
[01]  G05  f 45  -2211.8 2046002.9  1.0  1.0  5  0 301457928
[02]  G06  f 42    178.8 2045999.8  1.0  1.0  5  0 301457929
[03]  G09  f 38    941.9 2045998.8  1.0  1.0  5  0 301457926
[04]  G12  f 45    668.5 2045999.1  1.0  1.0  5  0 301457923
[05]  G23  f 39   2250.9 2045997.1  1.0  1.0  5  0 301457915
[06]  G25  f 38   -981.3 2046001.3  1.0  0.9  5  0 301457917
[16]  B05 1f 34   -358.0 4092000.9  0.9  0.0  2  0 301443866
[17]  B12 1f 38  -2976.0 4092007.8  1.0  1.0  5  0 301443920
[18]  B19 1f 44   1101.6 4091997.1  1.0  1.0  5  0 301443926
lsq: nits= 2
$GNGGA,114401.000,3112.7146,N,12136.4395,E,1,07,1.9,41.7,M,,,,0000*24
$GNRMC,114401.000,A,3112.7146,N,12136.4395,E,0.63,0.00,220519,,*1D
$GPGSA,A,3,02,05,06,09,12,23,25,,,,,,2.6,1.9,1.8*3A
$BDGSA,A,3,,,,,,,,,,,,,2.6,1.9,1.8*26
$GPGSV,2,1,07,02,52,329,43,05,45,252,45,06,54,047,42,09,36,062,38*76
$GPGSV,2,2,07,12,26,273,45,23,08,039,39,25,10,307,38*4E
$BDGSV,3,1,09,05,15,256,34,12,00,000,38,19,00,000,44,01,47,147,00*64
$BDGSV,3,2,09,02,36,237,00,03,52,200,00,04,35,123,00,16,37,182,00*6D
$BDGSV,3,3,09,18,37,182,00*57
$LOGTIM,1,-838.393619,0.000000,0.000000,0.000000,-66.902*34
EndT:        3
---00000048--- Acq_st=3 2019-5-22 11:44:1 
[00]  G02  f 44  -1698.8 2046002.2  1.0  1.0  5  0 301458927
[01]  G05  f 45  -2210.6 2046002.9  1.0  1.0  5  0 301458928
[02]  G06  f 42    179.5 2045999.8  1.0  1.0  5  0 301458929
[03]  G09  f 38    943.5 2045998.8  1.0  1.0  5  0 301458926
[04]  G12  f 45    669.9 2045999.1  1.0  1.0  5  0 301458923
[05]  G23  f 40   2251.9 2045997.1  1.0  1.0  5  0 301458915
[06]  G25  f 38   -979.4 2046001.3  1.0  1.0  5  0 301458917
[16]  B05 1f 33   -357.7 4092000.9  0.9  0.0  2  0 301444866
[17]  B12 1f 38  -2975.3 4092007.8  1.0  1.0  5  0 301444920
[18]  B19 1f 44   1102.7 4091997.1  1.0  1.0  5  0 301444926
lsq: nits= 2
$GNGGA,114402.000,3112.7140,N,12136.4391,E,1,07,1.9,41.2,M,,,,0000*20
$GNRMC,114402.000,A,3112.7140,N,12136.4391,E,0.29,0.00,220519,,*12
$GPGSA,A,3,02,05,06,09,12,23,25,,,,,,2.6,1.9,1.8*3A
$BDGSA,A,3,,,,,,,,,,,,,2.6,1.9,1.8*26
$GPGSV,2,1,07,02,52,329,44,05,45,252,45,06,54,047,42,09,36,062,38*71
$GPGSV,2,2,07,12,26,273,45,23,08,039,40,25,10,307,38*40
$BDGSV,3,1,09,05,15,256,33,12,00,000,38,19,00,000,44,01,47,147,00*63
$BDGSV,3,2,09,02,36,237,00,03,52,200,00,04,35,123,00,16,37,182,00*6D
$BDGSV,3,3,09,18,37,182,00*57
$LOGTIM,1,-904.869755,0.000000,0.000000,0.000000,-65.997*32
EndT:        3
---00000049--- Acq_st=3 2019-5-22 11:44:2 
[00]  G02  f 44  -1690.1 2046002.2  1.0  1.0  5  0 301459927
[01]  G05  f 45  -2201.8 2046002.8  1.0  1.0  5  0 301459928
[02]  G06  f 42    188.7 2045999.7  1.0  1.0  5  0 301459929
[03]  G09  f 39    952.9 2045998.7  1.0  1.0  5  0 301459926
[04]  G12  f 45    678.9 2045999.1  1.0  1.0  5  0 301459923
[05]  G23  f 40   2260.3 2045997.0  1.0  1.0  5  0 301459915
[06]  G25  f 38   -970.3 2046001.3  1.0  1.0  5  0 301459917
[16]  B05 1f 34   -348.5 4092000.8  0.9  0.0  2  0 301445866
[17]  B12 1f 38  -2966.6 4092007.8  1.0  1.0  5  0 301445920
[18]  B19 1f 44   1111.2 4091997.1  1.0  1.0  5  0 301445926
lsq: nits= 2
$GNGGA,114403.000,3112.7132,N,12136.4388,E,1,07,1.9,40.4,M,,,,0000*2B
$GNRMC,114403.000,A,3112.7132,N,12136.4388,E,0.80,0.00,220519,,*1D
$GPGSA,A,3,02,05,06,09,12,23,25,,,,,,2.6,1.9,1.8*3A
$BDGSA,A,3,,,,,,,,,,,,,2.6,1.9,1.8*26
$GPGSV,2,1,07,02,52,329,44,05,45,252,45,06,54,047,42,09,36,062,39*70
$GPGSV,2,2,07,12,26,273,45,23,08,039,40,25,10,307,38*40
$BDGSV,3,1,09,05,15,256,34,12,00,000,38,19,00,000,44,01,47,147,00*64
$BDGSV,3,2,09,02,36,237,00,03,52,200,00,04,35,123,00,16,37,182,00*6D
$BDGSV,3,3,09,18,37,182,00*57
$LOGTIM,1,-970.417913,0.000000,0.000000,0.000000,-65.208*35
EndT:        3
---00000050--- Acq_st=3 2019-5-22 11:44:3 
[00]  G02  f 44  -1685.6 2046002.2  1.0  1.0  5  0 301460927
[01]  G05  f 45  -2196.8 2046002.9  1.0  1.0  5  0 301460928
[02]  G06  f 42    192.8 2045999.7  1.0  1.0  5  0 301460929
[03]  G09  f 38    958.0 2045998.7  1.0  0.9  5  0 301460926
[04]  G12  f 45    683.7 2045999.1  1.0  1.0  5  0 301460923
[05]  G23  f 40   2265.2 2045997.1  1.0  1.0  5  0 301460915
[06]  G25  f 38   -965.9 2046001.3  1.0  1.0  5  0 301460917
[16]  B05 1f 34   -344.5 4092000.8  0.9  0.0  2  0 301446866
[17]  B12 1f 38  -2961.9 4092007.7  1.0  0.9  5  0 301446920
[18]  B19 1f 45   1116.1 4091997.1  1.0  1.0  5  0 301446926
lsq: nits= 2
$GNGGA,114404.000,3112.7124,N,12136.4387,E,1,07,1.9,39.3,M,,,,0000*2D
$GNRMC,114404.000,A,3112.7124,N,12136.4387,E,0.19,0.00,220519,,*12
$GPGSA,A,3,02,05,06,09,12,23,25,,,,,,2.6,1.9,1.8*3A
$BDGSA,A,3,,,,,,,,,,,,,2.6,1.9,1.8*26
$GPGSV,2,1,07,02,52,329,44,05,45,252,45,06,54,047,42,09,36,062,38*71
$GPGSV,2,2,07,12,26,273,45,23,08,039,40,25,10,307,38*40
$BDGSV,3,1,10,05,15,256,34,12,00,000,38,19,00,000,45,01,47,147,00*6D
$BDGSV,3,2,10,02,36,237,00,03,52,200,00,04,35,123,00,06,44,175,00*68
$BDGSV,3,3,10,16,37,182,00,18,37,182,00*67
$LOGTIM,1,-1036.369636,0.000000,0.000000,0.000000,-65.811*0B
EndT:        3
---00000051--- Acq_st=3 2019-5-22 11:44:4 
[00]  G02  f 44  -1693.0 2046002.2  1.0  1.0  5  0 301461927
[01]  G05  f 45  -2203.8 2046002.8  1.0  1.0  5  0 301461928
[02]  G06  f 41    186.1 2045999.7  1.0  1.0  5  0 301461929
[03]  G09  f 38    951.2 2045998.7  1.0  1.0  5  0 301461926
[04]  G12  f 45    677.3 2045999.1  1.0  1.0  5  0 301461923
[05]  G23  f 40   2258.1 2045997.1  1.0  0.9  5  0 301461915
[06]  G25  f 38   -971.9 2046001.3  1.0  1.0  5  0 301461917
[16]  B05 1f 35   -351.7 4092000.9  0.9  0.0  2  0 301447866
[17]  B12 1f 38  -2969.1 4092007.8  1.0  1.0  5  0 301447920
[18]  B19 1f 45   1109.4 4091997.1  1.0  1.0  5  0 301447926
lsq: nits= 2
$GNGGA,114405.000,3112.7118,N,12136.4385,E,1,07,1.9,38.5,M,,,,0000*26
$GNRMC,114405.000,A,3112.7118,N,12136.4385,E,0.28,0.00,220519,,*1C
$GPGSA,A,3,02,05,06,09,12,23,25,,,,,,2.6,1.9,1.8*3A
$BDGSA,A,3,,,,,,,,,,,,,2.6,1.9,1.8*26
$GPGSV,2,1,07,02,52,329,44,05,45,252,45,06,54,047,41,09,36,062,38*72
$GPGSV,2,2,07,12,26,273,45,23,08,039,40,25,10,307,38*40
$BDGSV,3,1,10,05,15,256,35,12,00,000,38,19,00,000,45,01,47,147,00*6C
$BDGSV,3,2,10,02,36,237,00,03,52,200,00,04,35,123,00,06,44,175,00*68
$BDGSV,3,3,10,16,37,182,00,18,37,182,00*67
$LOGTIM,1,-1102.807662,0.000000,0.000000,0.000000,-66.291*0E
EndT:        3
---00000052--- Acq_st=3 2019-5-22 11:44:5 
[00]  G02  f 44  -1694.6 2046002.2  1.0  1.0  5  0 301462927
[01]  G05  f 45  -2205.4 2046002.9  1.0  1.0  5  0 301462928
[02]  G06  f 42    184.3 2045999.7  1.0  1.0  5  0 301462929
[03]  G09  f 38    949.8 2045998.7  1.0  1.0  5  0 301462926
[04]  G12  f 45    675.6 2045999.1  1.0  1.0  5  0 301462923
[05]  G23  f 40   2256.6 2045997.1  1.0  1.0  5  0 301462915
[06]  G25  f 38   -973.5 2046001.3  1.0  1.0  5  0 301462917
[16]  B05 1f 35   -353.4 4092001.0  0.9  0.0  2  0 301448866
[17]  B12 1f 38  -2971.1 4092007.8  1.0  1.0  5  0 301448920
[18]  B19 1f 45   1107.6 4091997.1  1.0  1.0  5  0 301448926
lsq: nits= 2
$GNGGA,114406.000,3112.7114,N,12136.4383,E,1,07,1.9,37.9,M,,,,0000*2C
$GNRMC,114406.000,A,3112.7114,N,12136.4383,E,0.08,0.00,220519,,*17
$GPGSA,A,3,02,05,06,09,12,23,25,,,,,,2.6,1.9,1.8*3A
$BDGSA,A,3,,,,,,,,,,,,,2.6,1.9,1.8*26
$GPGSV,2,1,07,02,52,329,44,05,45,252,45,06,54,047,42,09,36,062,38*71
$GPGSV,2,2,07,12,26,273,45,23,08,039,40,25,10,307,38*40
$BDGSV,3,1,10,05,15,256,35,12,00,000,38,19,00,000,45,01,47,147,00*6C
$BDGSV,3,2,10,02,36,237,00,03,52,200,00,04,35,123,00,06,44,175,00*68
$BDGSV,3,3,10,16,37,182,00,18,37,182,00*67
$LOGTIM,1,-1169.228997,0.000000,0.000000,0.000000,-66.279*07
EndT:        3
---00000053--- Acq_st=3 2019-5-22 11:44:6 
[00]  G02  f 44  -1693.5 2046002.2  1.0  1.0  5  0 301463927
[01]  G05  f 45  -2203.6 2046002.9  1.0  1.0  5  0 301463928
[02]  G06  f 42    186.2 2045999.7  1.0  1.0  5  0 301463929
[03]  G09  f 39    951.4 2045998.7  1.0  1.0  5  0 301463926
[04]  G12  f 45    677.4 2045999.1  1.0  1.0  5  0 301463923
[05]  G23  f 40   2258.1 2045997.1  1.0  1.0  5  0 301463915
[06]  G25  f 38   -971.8 2046001.3  1.0  1.0  5  0 301463917
[16]  B05 1f 34   -352.5 4092000.9  0.9  0.0  2  0 301449866
[17]  B12 1f 38  -2969.9 4092007.8  1.0  1.0  5  0 301449920
[18]  B19 1f 45   1109.0 4091997.1  1.0  1.0  5  0 301449926
lsq: nits= 2
$GNGGA,114407.000,3112.7111,N,12136.4381,E,1,07,1.9,37.7,M,,,,0000*24
$GNRMC,114407.000,A,3112.7111,N,12136.4381,E,0.05,0.00,220519,,*1C
$GPGSA,A,3,02,05,06,09,12,23,25,,,,,,2.6,1.9,1.8*3A
$BDGSA,A,3,,,,,,,,,,,,,2.6,1.9,1.8*26
$GPGSV,2,1,07,02,52,329,44,05,45,252,45,06,54,047,42,09,36,062,39*70
$GPGSV,2,2,07,12,26,273,45,23,08,039,40,25,10,307,38*40
$BDGSV,3,1,11,05,15,256,34,12,00,000,38,19,00,000,45,01,47,147,00*6C
$BDGSV,3,2,11,02,36,237,00,03,52,200,00,04,35,123,00,06,44,175,00*69
$BDGSV,3,3,11,07,09,192,00,16,37,182,00,18,37,182,00*52
$LOGTIM,1,-1235.426629,0.000000,0.000000,0.000000,-66.239*0B
EndT:        3
---00000054--- Acq_st=3 2019-5-22 11:44:7 
[00]  G02  f 44  -1693.7 2046002.2  1.0  1.0  5  0 301464927
[01]  G05  f 44  -2203.6 2046002.9  1.0  1.0  5  0 301464928
[02]  G06  f 42    185.4 2045999.7  1.0  1.0  5  0 301464929
[03]  G09  f 39    952.0 2045998.8  1.0  1.0  5  0 301464926
[04]  G12  f 46    677.9 2045999.1  1.0  1.0  5  0 301464923
[05]  G23  f 39   2258.5 2045997.1  1.0  1.0  5  0 301464915
[06]  G25  f 38   -971.4 2046001.3  1.0  1.0  5  0 301464917
[16]  B05 1f 34   -352.5 4092000.9  0.9  0.0  2  0 301450866
[17]  B12 1f 38  -2969.6 4092007.8  1.0  0.9  5  0 301450920
[18]  B19 1f 45   1109.5 4091997.1  1.0  1.0  5  0 301450926
lsq: nits= 2
$GNGGA,114408.000,3112.7108,N,12136.4376,E,1,07,1.9,38.1,M,,,,0000*22
$GNRMC,114408.000,A,3112.7108,N,12136.4376,E,0.05,0.00,220519,,*13
$GPGSA,A,3,02,05,06,09,12,23,25,,,,,,2.6,1.9,1.8*3A
$BDGSA,A,3,,,,,,,,,,,,,2.6,1.9,1.8*26
$GPGSV,2,1,07,02,52,329,44,05,45,252,44,06,54,047,42,09,36,062,39*71
$GPGSV,2,2,07,12,26,273,46,23,08,039,39,25,10,307,38*4D
$BDGSV,3,1,11,05,15,256,34,12,00,000,38,19,00,000,45,01,47,147,00*6C
$BDGSV,3,2,11,02,36,237,00,03,52,200,00,04,35,123,00,06,44,175,00*69
$BDGSV,3,3,11,07,09,192,00,16,37,182,00,18,37,182,00*52
$LOGTIM,1,-1301.310806,0.000000,0.000000,0.000000,-66.176*04
EndT:        3
---00000055--- Acq_st=3 2019-5-22 11:44:8 
[00]  G02  f 45  -1692.5 2046002.2  1.0  1.0  5  0 301465927
[01]  G05  f 44  -2202.0 2046002.9  1.0  1.0  5  0 301465928
[02]  G06  f 42    187.0 2045999.8  1.0  1.0  5  0 301465929
[03]  G09  f 39    953.7 2045998.7  1.0  1.0  5  0 301465926
[04]  G12  f 46    679.4 2045999.1  1.0  1.0  5  0 301465923
[05]  G23  f 39   2259.9 2045997.0  1.0  1.0  5  0 301465915
[06]  G25  f 39   -969.6 2046001.3  1.0  1.0  5  0 301465917
[16]  B05 1f 35   -351.4 4092000.9  0.9  0.0  2  0 301451866
[17]  B12 1f 37  -2968.2 4092007.8  1.0  0.9  5  0 301451920
[18]  B19 1f 45   1110.9 4091997.1  1.0  1.0  5  0 301451926
lsq: nits= 2
$GNGGA,114409.000,3112.7100,N,12136.4362,E,1,07,1.9,40.0,M,,,,0000*20
$GNRMC,114409.000,A,3112.7100,N,12136.4362,E,0.51,0.00,220519,,*1E
$GPGSA,A,3,02,05,06,09,12,23,25,,,,,,2.6,1.9,1.8*3A
$BDGSA,A,3,,,,,,,,,,,,,2.6,1.9,1.8*26
$GPGSV,2,1,07,02,52,329,45,05,45,252,44,06,54,047,42,09,36,062,39*70
$GPGSV,2,2,07,12,26,273,46,23,08,039,39,25,10,307,39*4C
$BDGSV,3,1,11,05,15,256,35,12,00,000,37,19,00,000,45,01,47,147,00*62
$BDGSV,3,2,11,02,36,237,00,03,52,200,00,04,35,123,00,06,44,175,00*69
$BDGSV,3,3,11,07,09,192,00,16,37,182,00,18,37,182,00*52
$LOGTIM,1,-1365.880954,0.000000,0.000000,0.000000,-65.560*02
EndT:        3
---00000056--- Acq_st=3 2019-5-22 11:44:9 
[00]  G02  f 44  -1687.7 2046002.2  1.0  1.0  5  0 301466927
[01]  G05  f 44  -2196.7 2046002.9  1.0  1.0  5  0 301466928
[02]  G06  f 42    192.3 2045999.7  1.0  1.0  5  0 301466929
[03]  G09  f 38    959.5 2045998.8  1.0  1.0  5  0 301466926
[04]  G12  f 45    684.7 2045999.1  1.0  1.0  5  0 301466923
[05]  G23  f 39   2264.8 2045997.0  1.0  1.0  5  0 301466915
[06]  G25  f 39   -964.5 2046001.3  1.0  1.0  5  0 301466917
[16]  B05 1f 34   -346.2 4092001.0  0.9  0.0  2  0 301452866
[17]  B12 1f 38  -2963.5 4092007.7  1.0  1.0  5  0 301452921
[18]  B19 1f 44   1116.2 4091997.1  1.0  1.0  5  0 301452926
lsq: nits= 2
$GNGGA,114410.000,3112.7099,N,12136.4360,E,1,07,1.9,40.7,M,,,,0000*2C
$GNRMC,114410.000,A,3112.7099,N,12136.4360,E,0.72,0.00,220519,,*14
$GPGSA,A,3,02,05,06,09,12,23,25,,,,,,2.6,1.9,1.8*3A
$BDGSA,A,3,,,,,,,,,,,,,2.6,1.9,1.8*26
$GPGSV,2,1,07,02,52,329,44,05,45,252,44,06,54,047,42,09,36,062,38*70
$GPGSV,2,2,07,12,26,273,45,23,08,039,39,25,10,307,39*4F
$BDGSV,3,1,12,05,15,256,34,12,00,000,38,19,00,000,44,01,47,147,00*6E
$BDGSV,3,2,12,02,36,237,00,03,52,200,00,04,35,123,00,06,44,175,00*6A
$BDGSV,3,3,12,07,09,192,00,08,61,016,00,16,37,182,00,18,37,182,00*69
$LOGTIM,1,-1430.462332,0.000000,0.000000,0.000000,-64.987*0B
EndT:        3
---00000057--- Acq_st=3 2019-5-22 11:44:10 
[00]  G02  f 44  -1684.6 2046002.2  1.0  1.0  5  0 301467927
[01]  G05  f 45  -2193.6 2046002.8  1.0  1.0  5  0 301467928
[02]  G06  f 42    195.0 2045999.8  1.0  1.0  5  0 301467929
[03]  G09  f 39    962.6 2045998.8  1.0  1.0  5  0 301467926
[04]  G12  f 46    688.3 2045999.1  1.0  1.0  5  0 301467923
[05]  G23  f 39   2268.5 2045997.1  1.0  1.0  5  0 301467915
[06]  G25  f 39   -961.1 2046001.2  1.0  1.0  5  0 301467917
[16]  B05 1f 34   -343.5 4092000.8  0.9  0.0  2  0 301453866
[17]  B12 1f 37  -2960.4 4092007.8  1.0  0.9  5  0 301453921
[18]  B19 1f 44   1119.3 4091997.1  1.0  1.0  5  0 301453926
lsq: nits= 2
$GNGGA,114411.000,3112.7096,N,12136.4357,E,1,07,1.9,42.3,M,,,,0000*20
$GNRMC,114411.000,A,3112.7096,N,12136.4357,E,0.37,0.00,220519,,*1F
$GPGSA,A,3,02,05,06,09,12,23,25,,,,,,2.6,1.9,1.8*3A
$BDGSA,A,3,,,,,,,,,,,,,2.6,1.9,1.8*26
