FlashID=0x1 0x20 0x18
BBram_blkflag1:  9fb: f604
FW Ver: 1.30  
GPS00 Init Dop:   5000, 40
GPS01 Init Dop:   5000, 40
GPS02 Init Dop:   5000, 40
GPS03 Init Dop:   5000, 40
GPS04 Init Dop:   5000, 40
GPS05 Init Dop:   5000, 40
GPS06 Init Dop:   5000, 40
GPS07 Init Dop:   5000, 40
GPS08 Init Dop:   5000, 40
GPS09 Init Dop:   5000, 40
GPS10 Init Dop:   5000, 40
GPS11 Init Dop:   5000, 40
GPS12 Init Dop:   5000, 40
GPS13 Init Dop:   5000, 40
GPS14 Init Dop:   5000, 40
GPS15 Init Dop:   5000, 40
GPS16 Init Dop:   5000, 40
GPS17 Init Dop:   5000, 40
GPS18 Init Dop:   5000, 40
GPS19 Init Dop:   5000, 40
GPS20 Init Dop:   5000, 40
GPS21 Init Dop:   5000, 40
GPS22 Init Dop:   5000, 40
GPS23 Init Dop:   5000, 40
GPS24 Init Dop:   5000, 40
GPS25 Init Dop:   5000, 40
GPS26 Init Dop:   5000, 40
GPS27 Init Dop:   5000, 40
GPS28 Init Dop:   5000, 40
GPS29 Init Dop:   5000, 40
GPS30 Init Dop:   5000, 40
GPS31 Init Dop:   5000, 40
BDS00 Init Dop:   5000, 40
BDS01 Init Dop:   5000, 40
BDS02 Init Dop:   5000, 40
BDS03 Init Dop:   5000, 40
BDS04 Init Dop:   5000, 40
BDS05 Init Dop:   5000, 40
BDS06 Init Dop:   5000, 40
BDS07 Init Dop:   5000, 40
BDS08 Init Dop:   5000, 40
BDS09 Init Dop:   5000, 40
BDS10 Init Dop:   5000, 40
BDS11 Init Dop:   5000, 40
BDS12 Init Dop:   5000, 40
BDS13 Init Dop:   5000, 40
BDS14 Init Dop:   5000, 40
BDS15 Init Dop:   5000, 40
BDS16 Init Dop:   5000, 40
BDS17 Init Dop:   5000, 40
BDS18 Init Dop:   5000, 40
BDS19 Init Dop:   5000, 40
BDS20 Init Dop:   5000, 40
BDS21 Init Dop:   5000, 40
BDS22 Init Dop:   5000, 40
BDS23 Init Dop:   5000, 40
BDS24 Init Dop:   5000, 40
BDS25 Init Dop:   5000, 40
BDS26 Init Dop:   5000, 40
BDS27 Init Dop:   5000, 40
BDS28 Init Dop:   5000, 40
BDS29 Init Dop:   5000, 40
BDS30 Init Dop:   5000, 40
BDS31 Init Dop:   5000, 40
good luck!
FlashID=0x1 0x20 0x18
BBram_blkflag1:  9fb: f604
FW Ver: 1.30  
GPS00 Init Dop:   5000, 40
GPS01 Init Dop:   5000, 40
GPS02 Init Dop:   5000, 40
GPS03 Init Dop:   5000, 40
GPS04 Init Dop:   5000, 40
GPS05 Init Dop:   5000, 40
GPS06 Init Dop:   5000, 40
GPS07 Init Dop:   5000, 40
GPS08 Init Dop:   5000, 40
GPS09 Init Dop:   5000, 40
GPS10 Init Dop:   5000, 40
GPS11 Init Dop:   5000, 40
GPS12 Init Dop:   5000, 40
GPS13 Init Dop:   5000, 40
GPS14 Init Dop:   5000, 40
GPS15 Init Dop:   5000, 40
GPS16 Init Dop:   5000, 40
GPS17 Init Dop:   5000, 40
GPS18 Init Dop:   5000, 40
GPS19 Init Dop:   5000, 40
GPS20 Init Dop:   5000, 40
GPS21 Init Dop:   5000, 40
GPS22 Init Dop:   5000, 40
GPS23 Init Dop:   5000, 40
GPS24 Init Dop:   5000, 40
GPS25 Init Dop:   5000, 40
GPS26 Init Dop:   5000, 40
GPS27 Init Dop:   5000, 40
GPS28 Init Dop:   5000, 40
GPS29 Init Dop:   5000, 40
GPS30 Init Dop:   5000, 40
GPS31 Init Dop:   5000, 40
BDS00 Init Dop:   5000, 40
BDS01 Init Dop:   5000, 40
BDS02 Init Dop:   5000, 40
BDS03 Init Dop:   5000, 40
BDS04 Init Dop:   5000, 40
BDS05 Init Dop:   5000, 40
BDS06 Init Dop:   5000, 40
BDS07 Init Dop:   5000, 40
BDS08 Init Dop:   5000, 40
BDS09 Init Dop:   5000, 40
BDS10 Init Dop:   5000, 40
BDS11 Init Dop:   5000, 40
BDS12 Init Dop:   5000, 40
BDS13 Init Dop:   5000, 40
BDS14 Init Dop:   5000, 40
BDS15 Init Dop:   5000, 40
BDS16 Init Dop:   5000, 40
BDS17 Init Dop:   5000, 40
BDS18 Init Dop:   5000, 40
BDS19 Init Dop:   5000, 40
BDS20 Init Dop:   5000, 40
BDS21 Init Dop:   5000, 40
BDS22 Init Dop:   5000, 40
BDS23 Init Dop:   5000, 40
BDS24 Init Dop:   5000, 40
BDS25 Init Dop:   5000, 40
BDS26 Init Dop:   5000, 40
BDS27 Init Dop:   5000, 40
BDS28 Init Dop:   5000, 40
BDS29 Init Dop:   5000, 40
BDS30 Init Dop:   5000, 40
BDS31 Init Dop:   5000, 40
good luck!
---00000001--- Acq_st=3 2019-5-22 11:52:9 
[00]  G02  1  7  -1733.2 2046003.0  0.0  0.0  1  0         0
$GNGGA,000000.000,,,,,0,00,,,M,,,,0000*2B
$GNRMC,000000.000,A,,,,,,,000000,,*26
$GPGSA,A,1,,,,,,,,,,,,,,,*1E
$BDGSA,A,1,,,,,,,,,,,,,,,*0F
$LOGTIM,0,0.000000,0.000000,0.000000,0.000000,0.000*0A
EndT:        0
---00000002--- Acq_st=3 2019-5-22 11:52:10 
[00]  G02  1 21  -1655.2 2046002.7 -0.1  0.0  1  0         0
[01]  G05  1  7  -1909.7 2046003.9 -0.0  0.0  1  0         0
$GNGGA,000000.000,,,,,0,00,,,M,,,,0000*2B
$GNRMC,000000.000,A,,,,,,,000000,,*26
$GPGSA,A,1,,,,,,,,,,,,,,,*1E
$BDGSA,A,1,,,,,,,,,,,,,,,*0F
$LOGTIM,0,0.000000,0.000000,0.000000,0.000000,0.000*0A
EndT:        0
---00000003--- Acq_st=3 2019-5-22 11:52:11 
[00]  G02  7 33  -1652.5 2046002.1  0.6  1.0  5  0         0
[01]  G05  1 21  -2004.7 2046003.5  0.1  0.0  1  0        13
[02]  G06  1 27    294.5 2046000.4 -0.1  0.0  1  0         0
$GNGGA,000000.000,,,,,0,00,,,M,,,,0000*2B
$GNRMC,000000.000,A,,,,,,,000000,,*26
$GPGSA,A,1,,,,,,,,,,,,,,,*1E
$BDGSA,A,1,,,,,,,,,,,,,,,*0F
$GPGSV,1,1,01,02,00,000,33*4A
$LOGTIM,0,0.000000,0.000000,0.000000,0.000000,0.000*0A
EndT:        0
---00000004--- Acq_st=3 2019-5-22 11:52:12 
[00]  G02  7 35  -1648.0 2046002.2  1.0  1.0  5  0        15
[01]  G05  7 34  -2000.1 2046002.5  0.4  1.0  5  0        13
[02]  G06  7 23    280.3 2045999.5 -0.1  0.0 20  0        18
[03]  G09  1 27   1245.7 2045999.0  0.1  0.0  1  0         0
$GNGGA,000000.000,,,,,0,00,,,M,,,,0000*2B
$GNRMC,000000.000,A,,,,,,,000000,,*26
$GPGSA,A,1,,,,,,,,,,,,,,,*1E
$BDGSA,A,1,,,,,,,,,,,,,,,*0F
$GPGSV,1,1,03,02,00,000,35,05,00,000,34,06,00,000,23*4B
$LOGTIM,0,0.000000,0.000000,0.000000,0.000000,0.000*0A
EndT:        0
---00000005--- Acq_st=3 2019-5-22 11:52:13 
[00]  G02  7 36  -1650.7 2046002.1  1.0  1.0  5  0        15
[01]  G05  7 46  -2002.2 2046002.5  1.0  1.0  5  0        16
[02]  G06  7 26    270.4 2045999.6  0.7 -0.0 10  0        17
[03]  G09  7 23   1247.8 2045998.3  0.3  0.0 20  0        11
[04]  G12  1 20    952.7 2045999.5 -0.0  0.0  1  0         0
$GNGGA,000000.000,,,,,0,00,,,M,,,,0000*2B
$GNRMC,000000.000,A,,,,,,,000000,,*26
$GPGSA,A,1,,,,,,,,,,,,,,,*1E
$BDGSA,A,1,,,,,,,,,,,,,,,*0F
$GPGSV,1,1,04,02,00,000,36,05,00,000,46,06,00,000,26,09,00,000,23*77
$LOGTIM,0,0.000000,0.000000,0.000000,0.000000,0.000*0A
EndT:        0
---00000006--- Acq_st=3 2019-5-22 11:52:14 
[00]  G02  f 37  -1652.5 2046002.1  1.0  1.0  5  0        15
[01]  G05  f 46  -2004.0 2046002.5  1.0  1.0  5  0        16
[02]  G06  7 26    268.2 2045999.6  0.9 -0.0 10  0        17
[03]  G09  7 35   1246.3 2045998.3  0.6  1.0  5  0        13
$GNGGA,000000.000,,,,,0,00,,,M,,,,0000*2B
$GNRMC,000000.000,A,,,,,,,000000,,*26
$GPGSA,A,1,,,,,,,,,,,,,,,*1E
$BDGSA,A,1,,,,,,,,,,,,,,,*0F
$GPGSV,1,1,04,02,00,000,37,05,00,000,46,06,00,000,26,09,00,000,35*71
$LOGTIM,0,0.000000,0.000000,0.000000,0.000000,0.000*0A
EndT:        0
---00000007--- Acq_st=3 2019-5-22 11:52:15 
[00]  G02  f 37  -1651.9 2046002.2  1.0  0.9  5  0 301952075
[01]  G05  f 47  -2003.4 2046002.5  1.0  1.0  5  0 301952076
[02]  G06  7 26    268.0 2045999.6  0.9 -0.0 10  0        17
[03]  G09  7 35   1247.5 2045998.3  1.0  1.0  5  0        13
$GNGGA,000000.000,,,,,0,00,,,M,,,,0000*2B
$GNRMC,000000.000,A,,,,,,,000000,,*26
$GPGSA,A,1,,,,,,,,,,,,,,,*1E
$BDGSA,A,1,,,,,,,,,,,,,,,*0F
$GPGSV,1,1,04,02,00,000,37,05,00,000,47,06,00,000,26,09,00,000,35*70
$LOGTIM,0,0.000000,0.000000,0.000000,0.000000,0.000*0A
EndT:        0
---00000008--- Acq_st=3 2019-5-22 11:52:16 
[00]  G02  f 37  -1651.2 2046002.2  1.0  1.0  5  0 301953075
[01]  G05  f 46  -2002.5 2046002.6  1.0  1.0  5  0 301953076
[02]  G06  7 26    268.8 2045999.6  1.0 -0.0 10  0        17
[03]  G09  7 36   1248.5 2045998.4  1.0  0.9  5  0        13
$GNGGA,000000.000,,,,,0,00,,,M,,,,0000*2B
$GNRMC,000000.000,A,,,,,,,000000,,*26
$GPGSA,A,1,,,,,,,,,,,,,,,*1E
$BDGSA,A,1,,,,,,,,,,,,,,,*0F
$GPGSV,1,1,04,02,00,000,37,05,00,000,46,06,00,000,26,09,00,000,36*72
$LOGTIM,0,0.000000,0.000000,0.000000,0.000000,0.000*0A
EndT:        0
---00000009--- Acq_st=3 2019-5-22 11:52:17 
[00]  G02  f 37  -1651.5 2046002.1  1.0  0.9  5  0 301954075
[01]  G05  f 47  -2002.1 2046002.6  1.0  1.0  5  0 301954076
[02]  G06  7 26    268.9 2045999.5  0.9 -0.1 10  0        17
[03]  G09  7 35   1248.3 2045998.4  1.0  1.0  5  0        13
[04]  G23  1  7   2440.7 2045998.0 -0.0  0.0  1  0         4
$GNGGA,000000.000,,,,,0,00,,,M,,,,0000*2B
$GNRMC,000000.000,A,,,,,,,000000,,*26
$GPGSA,A,1,,,,,,,,,,,,,,,*1E
$BDGSA,A,1,,,,,,,,,,,,,,,*0F
$GPGSV,1,1,04,02,00,000,37,05,00,000,47,06,00,000,26,09,00,000,35*70
$LOGTIM,0,0.000000,0.000000,0.000000,0.000000,0.000*0A
EndT:        0
---00000010--- Acq_st=3 2019-5-22 11:52:18 
[00]  G02  f 37  -1654.8 2046002.2  1.0  1.0  5  0 301955075
[01]  G05  f 46  -2005.2 2046002.6  1.0  1.0  5  0 301955076
[02]  G06  7 26    265.8 2045999.6  0.9  0.0 10  0        17
[03]  G09  7 36   1246.0 2045998.3  1.0  1.0  5  0        13
[04]  G23  7  7   2404.3 2045996.7 -0.1  0.0 10  0        12
[05]  G25  1  7   -733.9 2046002.8 -0.1  0.0  1  0         0
$GNGGA,000000.000,,,,,0,00,,,M,,,,0000*2B
$GNRMC,000000.000,A,,,,,,,000000,,*26
$GPGSA,A,1,,,,,,,,,,,,,,,*1E
$BDGSA,A,1,,,,,,,,,,,,,,,*0F
$GPGSV,1,1,04,02,00,000,37,05,00,000,46,06,00,000,26,09,00,000,36*72
$LOGTIM,0,0.000000,0.000000,0.000000,0.000000,0.000*0A
EndT:        0
---00000011--- Acq_st=3 2019-5-22 11:52:19 
[00]  G02  f 37  -1654.4 2046002.2  1.0  0.9  5  0 301956075
[01]  G05  f 46  -2004.6 2046002.6  1.0  1.0  5  0 301956076
[02]  G06  7 26    266.6 2045999.6  0.9 -0.0 10  0        17
[03]  G09  7 35   1246.4 2045998.5  1.0  1.0  5  0        13
[04]  G23  7 35   2404.1 2045996.9  0.9  0.9  5  0         2
[05]  G25  7 24   -684.8 2046000.9  0.2  0.0 20  0         0
$GNGGA,000000.000,,,,,0,00,,,M,,,,0000*2B
$GNRMC,000000.000,A,,,,,,,000000,,*26
$GPGSA,A,1,,,,,,,,,,,,,,,*1E
$BDGSA,A,1,,,,,,,,,,,,,,,*0F
$GPGSV,2,1,06,02,00,000,37,05,00,000,46,06,00,000,26,09,00,000,35*70
$GPGSV,2,2,06,23,00,000,35,25,00,000,24*79
$LOGTIM,0,0.000000,0.000000,0.000000,0.000000,0.000*0A
EndT:        0
---00000012--- Acq_st=3 2019-5-22 11:52:20 
[00]  G02  f 37  -1656.1 2046002.2  1.0  1.0  5  0 301957075
[01]  G05  f 46  -2005.6 2046002.6  1.0  1.0  5  0 301957076
[02]  G06  7 26    264.1 2045999.7  0.9  0.0 10  0        17
[03]  G09  f 35   1245.5 2045998.3  1.0  0.9  5  0        13
[04]  G23  7 35   2401.9 2045996.8  1.0  0.9  5  0         2
[05]  G25  7 42   -685.2 2046000.9  0.9  1.0  5  0         4
$GNGGA,000000.000,,,,,0,00,,,M,,,,0000*2B
$GNRMC,000000.000,A,,,,,,,000000,,*26
$GPGSA,A,1,,,,,,,,,,,,,,,*1E
$BDGSA,A,1,,,,,,,,,,,,,,,*0F
$GPGSV,2,1,06,02,00,000,37,05,00,000,46,06,00,000,26,09,00,000,35*70
$GPGSV,2,2,06,23,00,000,35,25,00,000,42*79
$LOGTIM,0,0.000000,0.000000,0.000000,0.000000,0.000*0A
EndT:        0
---00000013--- Acq_st=3 2019-5-22 11:52:21 
[00]  G02  f 38  -1656.4 2046002.1  1.0  1.0  5  0 301958075
[01]  G05  f 46  -2006.4 2046002.6  1.0  1.0  5  0 301958076
[02]  G06  7 26    263.2 2045999.6  0.9  0.0 10  0        17
[03]  G09  f 34   1244.5 2045998.4  1.0  0.9  5  0 301958073
[04]  G23  7 35   2401.2 2045996.9  1.0  0.9  5  0         2
[05]  G25  7 41   -685.5 2046000.9  1.0  1.0  5  0         4
$GNGGA,000000.000,,,,,0,00,,,M,,,,0000*2B
$GNRMC,000000.000,A,,,,,,,000000,,*26
$GPGSA,A,1,,,,,,,,,,,,,,,*1E
$BDGSA,A,1,,,,,,,,,,,,,,,*0F
$GPGSV,2,1,06,02,00,000,38,05,00,000,46,06,00,000,26,09,00,000,34*7E
$GPGSV,2,2,06,23,00,000,35,25,00,000,41*7A
$LOGTIM,0,0.000000,0.000000,0.000000,0.000000,0.000*0A
EndT:        0
---00000014--- Acq_st=3 2019-5-22 11:52:22 
[00]  G02  f 37  -1660.0 2046002.2  1.0  1.0  5  0 301959075
[01]  G05  f 46  -2008.9 2046002.6  1.0  1.0  5  0 301959076
[02]  G06  7 26    260.3 2045999.6  0.9  0.0 10  0        17
[03]  G09  f 35   1241.9 2045998.5  1.0  1.0  5  0 301959073
[04]  G23  7 34   2398.6 2045996.9  1.0  1.0  5  0         2
[05]  G25  7 41   -688.3 2046000.9  1.0  1.0  5  0         4
$GNGGA,000000.000,,,,,0,00,,,M,,,,0000*2B
$GNRMC,000000.000,A,,,,,,,000000,,*26
$GPGSA,A,1,,,,,,,,,,,,,,,*1E
$BDGSA,A,1,,,,,,,,,,,,,,,*0F
$GPGSV,2,1,06,02,00,000,37,05,00,000,46,06,00,000,26,09,00,000,35*70
$GPGSV,2,2,06,23,00,000,34,25,00,000,41*7B
$LOGTIM,0,0.000000,0.000000,0.000000,0.000000,0.000*0A
EndT:        0
---00000015--- Acq_st=3 2019-5-22 11:52:23 
[00]  G02  f 37  -1661.8 2046002.1  1.0  1.0  5  0 301960075
[01]  G05  f 46  -2011.0 2046002.6  1.0  1.0  5  0 301960076
[02]  G06  7 26    258.3 2045999.7  0.9 -0.0 10  0        17
[03]  G09  f 34   1240.4 2045998.3  1.0  0.9  5  0 301960073
[04]  G23  7 33   2396.3 2045996.8  1.0  1.0  5  0         2
[05]  G25  7 41   -689.7 2046000.9  1.0  1.0  5  0         4
$GNGGA,000000.000,,,,,0,00,,,M,,,,0000*2B
$GNRMC,000000.000,A,,,,,,,000000,,*26
$GPGSA,A,1,,,,,,,,,,,,,,,*1E
$BDGSA,A,1,,,,,,,,,,,,,,,*0F
$GPGSV,2,1,06,02,00,000,37,05,00,000,46,06,00,000,26,09,00,000,34*71
$GPGSV,2,2,06,23,00,000,33,25,00,000,41*7C
$LOGTIM,0,0.000000,0.000000,0.000000,0.000000,0.000*0A
EndT:        0
---00000016--- Acq_st=3 2019-5-22 11:52:24 
[00]  G02  f 37  -1661.2 2046002.2  1.0  1.0  5  0 301961075
[01]  G05  f 46  -2009.6 2046002.6  1.0  1.0  5  0 301961076
[02]  G06  7 26    259.2 2045999.7  1.0 -0.0 10  0        17
[03]  G09  f 34   1242.7 2045998.4  1.0  0.9  5  0 301961073
[04]  G23  7 34   2397.3 2045996.9  1.0  0.9  5  0         2
[05]  G25  7 41   -688.2 2046000.9  1.0  1.0  5  0         4
$GNGGA,000000.000,,,,,0,00,,,M,,,,0000*2B
$GNRMC,000000.000,A,,,,,,,000000,,*26
$GPGSA,A,1,,,,,,,,,,,,,,,*1E
$BDGSA,A,1,,,,,,,,,,,,,,,*0F
$GPGSV,2,1,06,02,00,000,37,05,00,000,46,06,00,000,26,09,00,000,34*71
$GPGSV,2,2,06,23,00,000,34,25,00,000,41*7B
$LOGTIM,0,0.000000,0.000000,0.000000,0.000000,0.000*0A
EndT:        0
---00000017--- Acq_st=3 2019-5-22 11:52:25 
[00]  G02  f 36  -1663.1 2046002.2  1.0  1.0  5  0 301962075
[01]  G05  f 46  -2011.2 2046002.6  1.0  1.0  5  0 301962076
[02]  G06  7 26    257.6 2045999.7  0.9 -0.0 10  0        17
[03]  G09  f 34   1240.7 2045998.4  1.0  1.0  5  0 301962073
[04]  G23  7 34   2395.8 2045996.9  1.0  0.9  5  0         2
[05]  G25  7 42   -689.6 2046000.9  1.0  1.0  5  0         4
[16]  B05  1 35   -356.2 4092001.9 -0.2  0.0  1  0         0
$GNGGA,000000.000,,,,,0,00,,,M,,,,0000*2B
$GNRMC,000000.000,A,,,,,,,000000,,*26
$GPGSA,A,1,,,,,,,,,,,,,,,*1E
$BDGSA,A,1,,,,,,,,,,,,,,,*0F
$GPGSV,2,1,06,02,00,000,36,05,00,000,46,06,00,000,26,09,00,000,34*70
$GPGSV,2,2,06,23,00,000,34,25,00,000,42*78
$LOGTIM,0,0.000000,0.000000,0.000000,0.000000,0.000*0A
EndT:        0
---00000018--- Acq_st=3 2019-5-22 11:52:26 
[00]  G02  f 37  -1663.6 2046002.2  1.0  1.0  5  0 301963075
[01]  G05  f 46  -2012.2 2046002.6  1.0  1.0  5  0 301963076
[02]  G06  7 26    256.3 2045999.6  0.9  0.0 10  0        17
[03]  G09  f 34   1240.3 2045998.3  1.0  0.9  5  0 301963073
[04]  G23  f 34   2395.3 2045996.9  1.0  1.0  5  0         2
[05]  G25  f 42   -690.7 2046000.9  1.0  1.0  5  0         4
[16]  B05  f 34   -357.1 4092000.8  0.9  0.0  2  0       213
$GNGGA,000000.000,,,,,0,00,,,M,,,,0000*2B
$GNRMC,000000.000,A,,,,,,,000000,,*26
$GPGSA,A,1,,,,,,,,,,,,,,,*1E
$BDGSA,A,1,,,,,,,,,,,,,,,*0F
$GPGSV,2,1,06,02,00,000,37,05,00,000,46,06,00,000,26,09,00,000,34*71
$GPGSV,2,2,06,23,00,000,34,25,00,000,42*78
$BDGSV,1,1,01,05,00,000,34*5B
$LOGTIM,0,0.000000,0.000000,0.000000,0.000000,0.000*0A
EndT:        0
---00000019--- Acq_st=3 2019-5-22 11:52:27 
[00]  G02  f 38  -1660.3 2046002.2  1.0  0.9  5  0 301964075
[01]  G05  f 46  -2008.4 2046002.6  1.0  1.0  5  0 301964076
[02]  G06  7 26    261.2 2045999.6  0.9 -0.0 10  0        17
[03]  G09  f 34   1244.2 2045998.4  1.0  1.0  5  0 301964073
[04]  G23  f 34   2398.2 2045996.8  1.0  1.0  5  0 301964062
[05]  G25  f 42   -686.5 2046000.9  1.0  1.0  5  0 301964064
[16]  B05 1f 35   -354.2 4092000.9  0.9  0.0  2  0 301950613
$GNGGA,000000.000,,,,,0,00,,,M,,,,0000*2B
$GNRMC,000000.000,A,,,,,,,000000,,*26
$GPGSA,A,1,,,,,,,,,,,,,,,*1E
$BDGSA,A,1,,,,,,,,,,,,,,,*0F
$GPGSV,2,1,06,02,00,000,38,05,00,000,46,06,00,000,26,09,00,000,34*7E
$GPGSV,2,2,06,23,00,000,34,25,00,000,42*78
$BDGSV,1,1,01,05,00,000,35*5A
$LOGTIM,0,0.000000,0.000000,0.000000,0.000000,0.000*0A
EndT:        0
---00000020--- Acq_st=3 2019-5-22 11:52:28 
[00]  G02  f 37  -1653.1 2046002.2  1.0  1.0  5  0 301965075
[01]  G05  f 46  -2000.3 2046002.6  1.0  1.0  5  0 301965076
[02]  G06  7 24    263.7 2045999.6  0.2 -0.1 10  0        17
[03]  G09  f 34   1252.5 2045998.4  1.0  1.1  5  0 301965073
[04]  G23  f 34   2406.5 2045996.8  1.0  1.0  5  0 301965062
[05]  G25  f 41   -677.9 2046000.9  1.0  1.0  5  0 301965064
[16]  B05 1f 35   -345.9 4092000.9  0.8  0.0  2  0 301951013
$GNGGA,000000.000,,,,,0,00,,,M,,,,0000*2B
$GNRMC,000000.000,A,,,,,,,000000,,*26
$GPGSA,A,1,,,,,,,,,,,,,,,*1E
$BDGSA,A,1,,,,,,,,,,,,,,,*0F
$GPGSV,2,1,06,02,00,000,37,05,00,000,46,06,00,000,24,09,00,000,34*73
$GPGSV,2,2,06,23,00,000,34,25,00,000,41*7B
$BDGSV,1,1,01,05,00,000,35*5A
$LOGTIM,0,0.000000,0.000000,0.000000,0.000000,0.000*0A
EndT:        0
---00000021--- Acq_st=3 2019-5-22 11:52:29 
[00]  G02  f 37  -1653.8 2046002.2  1.0  1.0  5  0 301966075
[01]  G05  f 46  -2000.9 2046002.6  1.0  1.0  5  0 301966076
[02]  G06  7 26    268.2 2045999.6  0.9 -0.0 10  0        17
[03]  G09  f 34   1251.7 2045998.3  1.0  0.9  5  0 301966073
[04]  G23  f 34   2405.8 2045996.9  1.0  0.9  5  0 301966062
[05]  G25  f 41   -678.4 2046000.9  1.0  1.0  5  0 301966064
[16]  B05 1f 35   -347.2 4092001.0  0.9  0.0  2  0 301952013
$GNGGA,000000.000,,,,,0,00,,,M,,,,0000*2B
$GNRMC,000000.000,A,,,,,,,000000,,*26
$GPGSA,A,1,,,,,,,,,,,,,,,*1E
$BDGSA,A,1,,,,,,,,,,,,,,,*0F
$GPGSV,2,1,06,02,00,000,37,05,00,000,46,06,00,000,26,09,00,000,34*71
$GPGSV,2,2,06,23,00,000,34,25,00,000,41*7B
$BDGSV,1,1,01,05,00,000,35*5A
$LOGTIM,0,0.000000,0.000000,0.000000,0.000000,0.000*0A
EndT:        0
---00000022--- Acq_st=3 2019-5-22 11:52:30 
[00]  G02  f 37  -1651.7 2046002.2  1.0  1.0  5  0 301967075
[01]  G05  f 46  -1998.1 2046002.6  1.0  1.0  5  0 301967076
[02]  G06  7 26    270.8 2045999.6  0.9  0.0 10  0        17
[03]  G09  f 34   1254.4 2045998.4  1.0  1.0  5  0 301967073
[04]  G23  f 34   2409.2 2045996.9  1.0  0.9  5  0 301967062
[05]  G25  f 42   -675.6 2046000.9  1.0  1.0  5  0 301967064
[16]  B05 1f 36   -345.3 4092000.9  0.9  0.0  2  0 301953013
$GNGGA,000000.000,,,,,0,00,,,M,,,,0000*2B
$GNRMC,000000.000,A,,,,,,,000000,,*26
$GPGSA,A,1,,,,,,,,,,,,,,,*1E
$BDGSA,A,1,,,,,,,,,,,,,,,*0F
$GPGSV,2,1,06,02,00,000,37,05,00,000,46,06,00,000,26,09,00,000,34*71
$GPGSV,2,2,06,23,00,000,34,25,00,000,42*78
$BDGSV,1,1,01,05,00,000,36*59
$LOGTIM,0,0.000000,0.000000,0.000000,0.000000,0.000*0A
EndT:        0
---00000023--- Acq_st=3 2019-5-22 11:52:31 
[00]  G02  f 37  -1650.2 2046002.2  1.0  1.0  5  0 301968075
[01]  G05  f 47  -1997.2 2046002.6  1.0  1.0  5  0 301968076
[02]  G06  7 26    271.3 2045999.6  0.9  0.0 10  0        17
[03]  G09  f 34   1255.8 2045998.4  1.0  1.1  5  0 301968073
[04]  G23  f 33   2408.8 2045996.8  1.0  0.9  5  0 301968062
[05]  G25  f 42   -674.8 2046000.9  1.0  1.0  5  0 301968064
[16]  B05 1f 34   -344.8 4092000.8  0.9  0.0  2  0 301954013
$GNGGA,000000.000,,,,,0,00,,,M,,,,0000*2B
$GNRMC,000000.000,A,,,,,,,000000,,*26
$GPGSA,A,1,,,,,,,,,,,,,,,*1E
$BDGSA,A,1,,,,,,,,,,,,,,,*0F
$GPGSV,2,1,06,02,00,000,37,05,00,000,47,06,00,000,26,09,00,000,34*70
$GPGSV,2,2,06,23,00,000,33,25,00,000,42*7F
$BDGSV,1,1,01,05,00,000,34*5B
$LOGTIM,0,0.000000,0.000000,0.000000,0.000000,0.000*0A
EndT:        0
---00000024--- Acq_st=3 2019-5-22 11:52:32 
[00]  G02  f 37  -1651.7 2046002.1  1.0  1.0  5  0 301969075
[01]  G05  f 46  -1998.2 2046002.6  1.0  1.0  5  0 301969076
[02]  G06  7 26    270.4 2045999.6  1.0 -0.0 10  0        17
[03]  G09  f 35   1255.2 2045998.4  1.0  1.0  5  0 301969073
[04]  G23  f 33   2408.2 2045997.0  1.0  1.0  5  0 301969062
[05]  G25  f 42   -675.8 2046000.9  1.0  1.0  5  0 301969064
[16]  B05 1f 34   -346.2 4092000.9  0.9  0.0  2  0 301955013
$GNGGA,000000.000,,,,,0,00,,,M,,,,0000*2B
$GNRMC,000000.000,A,,,,,,,000000,,*26
$GPGSA,A,1,,,,,,,,,,,,,,,*1E
$BDGSA,A,1,,,,,,,,,,,,,,,*0F
$GPGSV,2,1,06,02,00,000,37,05,00,000,46,06,00,000,26,09,00,000,35*70
$GPGSV,2,2,06,23,00,000,33,25,00,000,42*7F
$BDGSV,1,1,01,05,00,000,34*5B
$LOGTIM,0,0.000000,0.000000,0.000000,0.000000,0.000*0A
EndT:        0
---00000025--- Acq_st=3 2019-5-22 11:52:33 
[00]  G02  f 37  -1655.0 2046002.1  1.0  1.0  5  0 301970075
[01]  G05  f 46  -2000.3 2046002.6  1.0  1.0  5  0 301970076
[02]  G06  7 26    267.0 2045999.6  0.9  0.0 10  0        17
[03]  G09  f 35   1253.4 2045998.4  1.0  1.0  5  0 301970073
[04]  G23  f 34   2406.6 2045996.8  1.0  1.0  5  0 301970062
[05]  G25  f 42   -677.4 2046000.9  1.0  1.0  5  0 301970064
[16]  B05 1f 36   -348.3 4092000.9  0.9  0.0  2  0 301956013
$GNGGA,000000.000,,,,,0,00,,,M,,,,0000*2B
$GNRMC,000000.000,A,,,,,,,000000,,*26
$GPGSA,A,1,,,,,,,,,,,,,,,*1E
$BDGSA,A,1,,,,,,,,,,,,,,,*0F
$GPGSV,2,1,06,02,00,000,37,05,00,000,46,06,00,000,26,09,00,000,35*70
$GPGSV,2,2,06,23,00,000,34,25,00,000,42*78
$BDGSV,1,1,01,05,00,000,36*59
$LOGTIM,0,0.000000,0.000000,0.000000,0.000000,0.000*0A
EndT:        0
---00000026--- Acq_st=3 2019-5-22 11:52:34 
[00]  G02  f 37  -1654.4 2046002.1  1.0  1.0  5  0 301971075
[01]  G05  f 46  -2000.1 2046002.6  1.0  1.0  5  0 301971076
[02]  G06  7 26    266.6 2045999.7  1.0 -0.0 10  0        17
[03]  G09  f 35   1253.5 2045998.4  1.0  1.0  5  0 301971073
[04]  G23  f 34   2406.0 2045996.9  1.0  0.9  5  0 301971062
[05]  G25  f 42   -677.3 2046000.9  1.0  1.0  5  0 301971064
[16]  B05 1f 34   -348.5 4092000.9  0.9  0.0  2  0 301957013
$GNGGA,000000.000,,,,,0,00,,,M,,,,0000*2B
$GNRMC,000000.000,A,,,,,,,000000,,*26
$GPGSA,A,1,,,,,,,,,,,,,,,*1E
$BDGSA,A,1,,,,,,,,,,,,,,,*0F
$GPGSV,2,1,06,02,00,000,37,05,00,000,46,06,00,000,26,09,00,000,35*70
$GPGSV,2,2,06,23,00,000,34,25,00,000,42*78
$BDGSV,1,1,01,05,00,000,34*5B
$LOGTIM,0,0.000000,0.000000,0.000000,0.000000,0.000*0A
EndT:        0
---00000027--- Acq_st=3 2019-5-22 11:52:35 
[00]  G02  f 37  -1652.9 2046002.1  1.0  1.0  5  0 301972075
[01]  G05  f 47  -1998.6 2046002.6  1.0  1.0  5  0 301972076
[02]  G06  7 26    268.7 2045999.6  1.0 -0.0 10  0        17
[03]  G09  f 34   1255.3 2045998.3  1.0  1.0  5  0 301972073
[04]  G23  f 35   2407.9 2045996.8  1.0  1.0  5  0 301972062
[05]  G25  f 42   -675.2 2046000.9  1.0  1.0  5  0 301972064
[16]  B05 1f 34   -347.2 4092000.9  0.9  0.0  2  0 301958013
$GNGGA,000000.000,,,,,0,00,,,M,,,,0000*2B
$GNRMC,000000.000,A,,,,,,,000000,,*26
$GPGSA,A,1,,,,,,,,,,,,,,,*1E
$BDGSA,A,1,,,,,,,,,,,,,,,*0F
$GPGSV,2,1,06,02,00,000,37,05,00,000,47,06,00,000,26,09,00,000,34*70
$GPGSV,2,2,06,23,00,000,35,25,00,000,42*79
$BDGSV,1,1,01,05,00,000,34*5B
$LOGTIM,0,0.000000,0.000000,0.000000,0.000000,0.000*0A
EndT:        0
---00000028--- Acq_st=3 2019-5-22 11:52:36 
[00]  G02  f 37  -1651.2 2046002.1  1.0  1.0  5  0 301973075
[01]  G05  f 47  -1996.5 2046002.6  1.0  1.0  5  0 301973076
[02]  G06  7 26    270.0 2045999.5  1.0 -0.0 10  0        17
[03]  G09  f 34   1257.0 2045998.3  1.0  0.9  5  0 301973073
[04]  G23  f 35   2409.5 2045996.8  1.0  0.9  5  0 301973062
[05]  G25  f 42   -673.0 2046000.9  1.0  1.0  5  0 301973064
[16]  B05 1f 32   -346.0 4092000.8  0.9  0.0  2  0 301959013
[17]  B19  1  7   1282.8 4091996.6  0.1  0.0  1  0         0
$GNGGA,000000.000,,,,,0,00,,,M,,,,0000*2B
$GNRMC,000000.000,A,,,,,,,000000,,*26
$GPGSA,A,1,,,,,,,,,,,,,,,*1E
$BDGSA,A,1,,,,,,,,,,,,,,,*0F
$GPGSV,2,1,06,02,00,000,37,05,00,000,47,06,00,000,26,09,00,000,34*70
$GPGSV,2,2,06,23,00,000,35,25,00,000,42*79
$BDGSV,1,1,01,05,00,000,32*5D
$LOGTIM,0,0.000000,0.000000,0.000000,0.000000,0.000*0A
EndT:        0
---00000029--- Acq_st=3 2019-5-22 11:52:37 
[00]  G02  f 37  -1648.5 2046002.2  1.0  0.9  5  0 301974075
[01]  G05  f 47  -1992.9 2046002.6  1.0  1.0  5  0 301974076
[02]  G06  7 26    273.5 2045999.5  0.9 -0.0 10  0        17
[03]  G09  f 35   1260.6 2045998.4  1.0  0.9  5  0 301974073
[04]  G23  f 35   2413.6 2045996.9  1.0  1.0  5  0 301974062
[05]  G25  f 41   -669.6 2046000.9  1.0  1.0  5  0 301974064
[16]  B05 1f 33   -342.7 4092000.9  0.9  0.0  2  0 301960013
[17]  B19  7 22   1291.7 4091996.6  0.2  0.0 20  0       577
$GNGGA,000000.000,,,,,0,00,,,M,,,,0000*2B
$GNRMC,000000.000,A,,,,,,,000000,,*26
$GPGSA,A,1,,,,,,,,,,,,,,,*1E
$BDGSA,A,1,,,,,,,,,,,,,,,*0F
$GPGSV,2,1,06,02,00,000,37,05,00,000,47,06,00,000,26,09,00,000,35*71
$GPGSV,2,2,06,23,00,000,35,25,00,000,41*7A
$BDGSV,1,1,02,05,00,000,33,19,00,000,22*67
$LOGTIM,0,0.000000,0.000000,0.000000,0.000000,0.000*0A
EndT:        0
---00000030--- Acq_st=3 2019-5-22 11:52:38 
[00]  G02  f 36  -1652.0 2046002.2  1.0  0.9  5  0 301975075
[01]  G05  f 47  -1995.9 2046002.6  1.0  1.0  5  0 301975076
[02]  G06  7 26    270.3 2045999.5  0.8 -0.0 10  0        17
[03]  G09  f 34   1258.9 2045998.4  1.0  1.0  5  0 301975073
[04]  G23  f 35   2409.8 2045996.9  1.0  1.0  5  0 301975062
[05]  G25  f 42   -672.2 2046000.9  1.0  1.0  5  0 301975064
[16]  B05 1f 33   -346.1 4092001.1  0.9  0.0  2  0 301961013
[17]  B19  7 41   1288.2 4091996.6  0.6  1.0  5  0      1573
$GNGGA,000000.000,,,,,0,00,,,M,,,,0000*2B
$GNRMC,000000.000,A,,,,,,,000000,,*26
$GPGSA,A,1,,,,,,,,,,,,,,,*1E
$BDGSA,A,1,,,,,,,,,,,,,,,*0F
$GPGSV,2,1,06,02,00,000,36,05,00,000,47,06,00,000,26,09,00,000,34*71
$GPGSV,2,2,06,23,00,000,35,25,00,000,42*79
$BDGSV,1,1,02,05,00,000,33,19,00,000,41*62
$LOGTIM,0,0.000000,0.000000,0.000000,0.000000,0.000*0A
EndT:        0
---00000031--- Acq_st=3 2019-5-22 11:52:39 
[00]  G02  f 36  -1658.8 2046002.2  1.0  1.0  5  0 301976075
[01]  G05  f 47  -2002.2 2046002.6  1.0  1.0  5  0 301976076
[02]  G06  7 27    263.6 2045999.6  0.5  0.0 10  0        17
[03]  G09  f 35   1252.4 2045998.4  1.0  1.0  5  0 301976073
[04]  G23  f 35   2403.3 2045996.9  1.0  1.0  5  0 301976062
[05]  G25  f 41   -678.7 2046000.9  1.0  1.0  5  0 301976064
[16]  B05 1f 33   -352.8 4092000.9  0.9  0.0  2  0 301962013
[17]  B19  7 41   1282.3 4091996.6  1.0  1.0  5  0      2573
$GNGGA,000000.000,,,,,0,00,,,M,,,,0000*2B
$GNRMC,000000.000,A,,,,,,,000000,,*26
$GPGSA,A,1,,,,,,,,,,,,,,,*1E
$BDGSA,A,1,,,,,,,,,,,,,,,*0F
$GPGSV,2,1,06,02,00,000,36,05,00,000,47,06,00,000,27,09,00,000,35*71
$GPGSV,2,2,06,23,00,000,35,25,00,000,41*7A
$BDGSV,1,1,02,05,00,000,33,19,00,000,41*62
$LOGTIM,0,0.000000,0.000000,0.000000,0.000000,0.000*0A
EndT:        0
---00000032--- Acq_st=3 2019-5-22 11:52:40 
[00]  G02  f 36  -1658.6 2046002.2  1.0  1.0  5  0 301977075
[01]  G05  f 47  -2002.5 2046002.6  1.0  1.0  5  0 301977076
[02]  G06  7 27    264.6 2045999.7  0.9  0.0 10  0        17
[03]  G09  f 35   1252.0 2045998.3  1.0  1.0  5  0 301977073
[04]  G23  f 36   2402.8 2045996.8  1.0  1.0  5  0 301977062
[05]  G25  f 42   -678.8 2046000.9  1.0  1.0  5  0 301977064
[16]  B05 1f 35   -353.5 4092000.6  0.9  0.0  2  0 301963013
[17]  B19 1f 41   1282.6 4091996.6  1.0  1.0  5  0      3573
$GNGGA,000000.000,,,,,0,00,,,M,,,,0000*2B
$GNRMC,000000.000,A,,,,,,,000000,,*26
$GPGSA,A,1,,,,,,,,,,,,,,,*1E
$BDGSA,A,1,,,,,,,,,,,,,,,*0F
$GPGSV,2,1,06,02,00,000,36,05,00,000,47,06,00,000,27,09,00,000,35*71
$GPGSV,2,2,06,23,00,000,36,25,00,000,42*7A
$BDGSV,1,1,02,05,00,000,35,19,00,000,41*64
$LOGTIM,0,0.000000,0.000000,0.000000,0.000000,0.000*0A
EndT:        0
---00000033--- Acq_st=3 2019-5-22 11:52:41 
[00]  G02  f 36  -1660.3 2046002.1  1.0  0.9  5  0 301978075
[01]  G05  f 47  -2003.1 2046002.6  1.0  1.0  5  0 301978076
[02]  G06  7 26    263.9 2045999.6  1.0 -0.0 10  0        17
[03]  G09  f 35   1252.0 2045998.5  1.0  1.0  5  0 301978073
[04]  G23  f 35   2402.2 2045996.9  1.0  1.0  5  0 301978062
[05]  G25  f 41   -679.1 2046000.9  1.0  1.0  5  0 301978064
[16]  B05 1f 35   -354.4 4092000.7  0.9  0.0  2  0 301964013
[17]  B19 1f 42   1281.3 4091996.6  1.0  1.0  5  0 301964073
$GNGGA,000000.000,,,,,0,00,,,M,,,,0000*2B
$GNRMC,000000.000,A,,,,,,,000000,,*26
$GPGSA,A,1,,,,,,,,,,,,,,,*1E
$BDGSA,A,1,,,,,,,,,,,,,,,*0F
$GPGSV,2,1,06,02,00,000,36,05,00,000,47,06,00,000,26,09,00,000,35*70
$GPGSV,2,2,06,23,00,000,35,25,00,000,41*7A
$BDGSV,1,1,02,05,00,000,35,19,00,000,42*67
$LOGTIM,0,0.000000,0.000000,0.000000,0.000000,0.000*0A
EndT:        0
---00000034--- Acq_st=3 2019-5-22 11:52:42 
[00]  G02  f 36  -1653.7 2046002.1  1.0  0.9  5  0 301979075
[01]  G05  f 48  -1996.4 2046002.6  1.0  1.0  5  0 301979076
[02]  G06  7 26    264.4 2045999.7  0.6 -0.0 10  0        17
[03]  G09  f 34   1257.6 2045998.4  1.0  0.9  5  0 301979073
[04]  G23  f 36   2409.0 2045996.9  1.0  1.0  5  0 301979062
[05]  G25  f 42   -672.4 2046000.9  1.0  1.0  5  0 301979064
[16]  B05 1f 35   -348.3 4092001.0  0.9  0.0  2  0 301965013
[17]  B19 1f 42   1287.4 4091996.6  1.0  1.0  5  0 301965073
$GNGGA,000000.000,,,,,0,00,,,M,,,,0000*2B
$GNRMC,000000.000,A,,,,,,,000000,,*26
$GPGSA,A,1,,,,,,,,,,,,,,,*1E
$BDGSA,A,1,,,,,,,,,,,,,,,*0F
$GPGSV,2,1,06,02,00,000,36,05,00,000,48,06,00,000,26,09,00,000,34*7E
$GPGSV,2,2,06,23,00,000,36,25,00,000,42*7A
$BDGSV,1,1,02,05,00,000,35,19,00,000,42*67
$LOGTIM,0,0.000000,0.000000,0.000000,0.000000,0.000*0A
EndT:        0
---00000035--- Acq_st=3 2019-5-22 11:52:43 
[00]  G02  f 36  -1645.1 2046002.2  1.0  1.0  5  0 301980075
[01]  G05  f 48  -1987.7 2046002.6  1.0  1.0  5  0 301980076
[02]  G06  7 24    277.9 2045999.6 -0.3 -0.4 10  0        17
[03]  G09  f 34   1267.4 2045998.3  1.0  0.9  5  0 301980073
[04]  G23  f 36   2417.5 2045996.9  1.0  0.9  5  0 301980062
[05]  G25  f 42   -663.4 2046000.9  1.0  1.0  5  0 301980064
[16]  B05 1f 35   -339.9 4092001.0  0.9  0.0  2  0 301966013
[17]  B19 1f 42   1296.5 4091996.5  1.0  1.0  5  0 301966073
$GNGGA,000000.000,,,,,0,00,,,M,,,,0000*2B
$GNRMC,000000.000,A,,,,,,,000000,,*26
$GPGSA,A,1,,,,,,,,,,,,,,,*1E
$BDGSA,A,1,,,,,,,,,,,,,,,*0F
$GPGSV,2,1,06,02,00,000,36,05,00,000,48,06,00,000,24,09,00,000,34*7C
$GPGSV,2,2,06,23,00,000,36,25,00,000,42*7A
$BDGSV,1,1,02,05,00,000,35,19,00,000,42*67
$LOGTIM,0,0.000000,0.000000,0.000000,0.000000,0.000*0A
EndT:        0
---00000036--- Acq_st=3 2019-5-22 11:52:44 
[00]  G02  f 36  -1641.7 2046002.1  1.0  1.0  5  0 301981075
[01]  G05  f 48  -1984.0 2046002.6  1.0  1.0  5  0 301981076
[02]  G06  7 26    281.1 2045999.7 -0.8  0.0 10  0        17
[03]  G09  f 34   1271.2 2045998.4  1.0  1.0  5  0 301981073
[04]  G23  f 36   2420.4 2045996.9  1.0  0.9  5  0 301981062
[05]  G25  f 41   -659.5 2046000.9  1.0  1.0  5  0 301981064
[16]  B05 1f 35   -336.4 4092001.0  0.9  0.0  2  0 301967013
[17]  B19 1f 43   1299.8 4091996.5  1.0  1.0  5  0 301967073
$GNGGA,000000.000,,,,,0,00,,,M,,,,0000*2B
$GNRMC,000000.000,A,,,,,,,000000,,*26
$GPGSA,A,1,,,,,,,,,,,,,,,*1E
$BDGSA,A,1,,,,,,,,,,,,,,,*0F
$GPGSV,2,1,06,02,00,000,36,05,00,000,48,06,00,000,26,09,00,000,34*7E
$GPGSV,2,2,06,23,00,000,36,25,00,000,41*79
$BDGSV,1,1,02,05,00,000,35,19,00,000,43*66
$LOGTIM,0,0.000000,0.000000,0.000000,0.000000,0.000*0A
EndT:        0
---00000037--- Acq_st=3 2019-5-22 11:52:45 
[00]  G02  f 36  -1643.2 2046002.2  1.0  1.0  5  0 301982075
[01]  G05  f 48  -1984.1 2046002.6  1.0  1.0  5  0 301982076
[02]  G06  7 26    280.8 2045999.7 -1.0  0.0 10  0        17
[03]  G09  f 34   1271.3 2045998.3  1.0  0.9  5  0 301982073
[04]  G23  f 36   2420.5 2045996.9  1.0  1.0  5  0 301982062
[05]  G25  f 41   -659.3 2046000.8  1.0  1.0  5  0 301982064
[16]  B05 1f 34   -337.4 4092001.0  0.9  0.0  2  0 301968013
[17]  B19 1f 43   1300.0 4091996.5  1.0  1.0  5  0 301968073
$GNGGA,000000.000,,,,,0,00,,,M,,,,0000*2B
$GNRMC,000000.000,A,,,,,,,000000,,*26
$GPGSA,A,1,,,,,,,,,,,,,,,*1E
$BDGSA,A,1,,,,,,,,,,,,,,,*0F
$GPGSV,2,1,06,02,00,000,36,05,00,000,48,06,00,000,26,09,00,000,34*7E
$GPGSV,2,2,06,23,00,000,36,25,00,000,41*79
$BDGSV,1,1,02,05,00,000,34,19,00,000,43*67
$LOGTIM,0,0.000000,0.000000,0.000000,0.000000,0.000*0A
EndT:        0
---00000038--- Acq_st=3 2019-5-22 11:52:46 
[00]  G02  f 37  -1648.7 2046002.1  1.0  1.0  5  0 301983075
[01]  G05  f 48  -1990.6 2046002.6  1.0  1.0  5  0 301983076
[02]  G06  7 26    276.6 2045999.6 -0.6 -0.0 10  0        17
[03]  G09  f 34   1265.1 2045998.4  1.0  1.0  5  0 301983073
[04]  G23  f 37   2413.7 2045996.9  1.0  1.0  5  0 301983062
[05]  G25  f 41   -666.1 2046000.9  1.0  1.0  5  0 301983064
[16]  B05 1f 34   -343.8 4092001.0  0.9  0.0  2  0 301969013
[17]  B19 1f 44   1293.4 4091996.5  1.0  1.0  5  0 301969073
$GNGGA,000000.000,,,,,0,00,,,M,,,,0000*2B
$GNRMC,000000.000,A,,,,,,,000000,,*26
$GPGSA,A,1,,,,,,,,,,,,,,,*1E
$BDGSA,A,1,,,,,,,,,,,,,,,*0F
$GPGSV,2,1,06,02,00,000,37,05,00,000,48,06,00,000,26,09,00,000,34*7F
$GPGSV,2,2,06,23,00,000,37,25,00,000,41*78
$BDGSV,1,1,02,05,00,000,34,19,00,000,44*60
$LOGTIM,0,0.000000,0.000000,0.000000,0.000000,0.000*0A
EndT:        0
---00000039--- Acq_st=7 2019-5-22 11:52:47 
[00]  G02  f 37  -1653.0 2046002.2  1.0  1.0  5  0 301984075
[01]  G05  f 48  -1993.6 2046002.6  1.0  1.0  5  0 301984076
[02]  G06  7 26    272.1 2045999.6 -0.6 -0.0 10  0        17
[03]  G09  f 35   1262.4 2045998.4  1.0  1.0  5  0 301984073
[04]  G23  f 37   2410.9 2045996.8  1.0  1.0  5  0 301984062
[05]  G25  f 41   -668.8 2046000.9  1.0  1.0  5  0 301984064
[16]  B05 1f 35   -347.7 4092000.9  0.9  0.0  2  0 301970013
[17]  B19 1f 45   1290.6 4091996.5  1.0  1.0  5  0 301970073
$GNGGA,000000.000,,,,,0,00,,,M,,,,0000*2B
$GNRMC,000000.000,A,,,,,,,000000,,*26
$GPGSA,A,1,,,,,,,,,,,,,,,*1E
$BDGSA,A,1,,,,,,,,,,,,,,,*0F
$GPGSV,2,1,06,02,00,000,37,05,00,000,48,06,00,000,26,09,00,000,35*7E
$GPGSV,2,2,06,23,00,000,37,25,00,000,41*78
$BDGSV,1,1,02,05,00,000,35,19,00,000,45*60
$LOGTIM,0,0.000000,0.000000,0.000000,0.000000,0.000*0A
EndT:        0
---00000040--- Acq_st=7 2019-5-22 11:52:48 
[00]  G02  f 37  -1651.1 2046002.1  1.0  1.0  5  0 301985075
[01]  G05  f 48  -1991.8 2046002.6  1.0  1.0  5  0 301985076
[02]  G06  7 26    273.8 2045999.6 -0.9 -0.1 10  0        17
[03]  G09  f 35   1264.3 2045998.4  1.0  1.0  5  0 301985073
[04]  G23  f 38   2413.1 2045996.9  1.0  1.0  5  0 301985062
[05]  G25  f 41   -666.2 2046000.9  1.0  1.0  5  0 301985064
[16]  B05 1f 34   -346.2 4092001.0  0.9  0.0  2  0 301971013
[17]  B19 1f 46   1292.3 4091996.6  1.0  1.0  5  0 301971073
$GNGGA,000000.000,,,,,0,00,,,M,,,,0000*2B
$GNRMC,000000.000,A,,,,,,,000000,,*26
$GPGSA,A,1,,,,,,,,,,,,,,,*1E
$BDGSA,A,1,,,,,,,,,,,,,,,*0F
$GPGSV,2,1,06,02,00,000,37,05,00,000,48,06,00,000,26,09,00,000,35*7E
$GPGSV,2,2,06,23,00,000,38,25,00,000,41*77
$BDGSV,1,1,02,05,00,000,34,19,00,000,46*62
$LOGTIM,0,0.000000,0.000000,0.000000,0.000000,0.000*0A
EndT:        0
---00000041--- Acq_st=3 2019-5-22 11:52:49 
[00]  G02  f 37  -1654.5 2046002.1  1.0  1.0  5  0 301986075
[01]  G05  f 48  -1994.9 2046002.6  1.0  1.0  5  0 301986076
[02]  G06  7 26    270.5 2045999.7 -0.9 -0.1 10  0        17
[03]  G09  f 35   1261.7 2045998.3  1.0  1.0  5  0 301986073
[04]  G23  f 38   2409.6 2045996.9  1.0  0.9  5  0 301986062
[05]  G25  f 41   -669.6 2046000.9  1.0  1.0  5  0 301986064
[16]  B05 1f 35   -349.4 4092001.0  0.9  0.0  2  0 301972013
[17]  B19 1f 46   1288.9 4091996.6  1.0  1.0  5  0 301972073
$GNGGA,000000.000,,,,,0,00,,,M,,,,0000*2B
$GNRMC,000000.000,A,,,,,,,000000,,*26
$GPGSA,A,1,,,,,,,,,,,,,,,*1E
$BDGSA,A,1,,,,,,,,,,,,,,,*0F
$GPGSV,2,1,06,02,00,000,37,05,00,000,48,06,00,000,26,09,00,000,35*7E
$GPGSV,2,2,06,23,00,000,38,25,00,000,41*77
$BDGSV,1,1,02,05,00,000,35,19,00,000,46*63
$LOGTIM,0,0.000000,0.000000,0.000000,0.000000,0.000*0A
EndT:        0
---00000042--- Acq_st=3 2019-5-22 11:52:50 
[00]  G02  f 37  -1657.1 2046002.1  1.0  1.0  5  0 301987075
[01]  G05  f 48  -1997.0 2046002.6  1.0  1.0  5  0 301987076
[02]  G06  7 26    268.0 2045999.6 -0.9 -0.0 10  0        17
[03]  G09  f 34   1259.5 2045998.4  1.0  1.0  5  0 301987073
[04]  G23  f 38   2407.2 2045996.9  1.0  1.0  5  0 301987062
[05]  G25  f 40   -671.3 2046000.9  1.0  1.0  5  0 301987064
[16]  B05 1f 34   -351.6 4092000.7  0.9  0.0  2  0 301973013
[17]  B19 1f 46   1287.0 4091996.6  1.0  1.0  5  0 301973073
$GNGGA,000000.000,,,,,0,00,,,M,,,,0000*2B
$GNRMC,000000.000,A,,,,,,,000000,,*26
$GPGSA,A,1,,,,,,,,,,,,,,,*1E
$BDGSA,A,1,,,,,,,,,,,,,,,*0F
$GPGSV,2,1,06,02,00,000,37,05,00,000,48,06,00,000,26,09,00,000,34*7F
$GPGSV,2,2,06,23,00,000,38,25,00,000,40*76
$BDGSV,1,1,02,05,00,000,34,19,00,000,46*62
$LOGTIM,0,0.000000,0.000000,0.000000,0.000000,0.000*0A
EndT:        0
---00000043--- Acq_st=3 2019-5-22 11:52:51 
[00]  G02  f 37  -1656.1 2046002.1  1.0  1.0  5  0 301988075
[01]  G05  f 48  -1995.9 2046002.6  1.0  1.0  5  0 301988076
[02]  G06  7 26    269.3 2045999.6 -0.9  0.0 10  0        17
[03]  G09  f 34   1260.5 2045998.4  1.0  1.0  5  0 301988073
[04]  G23  f 38   2408.1 2045996.9  1.0  1.0  5  0 301988062
[05]  G25  f 41   -670.0 2046000.9  1.0  1.0  5  0 301988064
[16]  B05 1f 32   -351.7 4092000.9  0.9  0.0  2  0 301974013
[17]  B19 1f 46   1288.0 4091996.6  1.0  1.0  5  0 301974073
$GNGGA,000000.000,,,,,0,00,,,M,,,,0000*2B
$GNRMC,000000.000,A,,,,,,,000000,,*26
$GPGSA,A,1,,,,,,,,,,,,,,,*1E
$BDGSA,A,1,,,,,,,,,,,,,,,*0F
$GPGSV,2,1,06,02,00,000,37,05,00,000,48,06,00,000,26,09,00,000,34*7F
$GPGSV,2,2,06,23,00,000,38,25,00,000,41*77
$BDGSV,1,1,02,05,00,000,32,19,00,000,46*64
$LOGTIM,0,0.000000,0.000000,0.000000,0.000000,0.000*0A
EndT:        0
---00000044--- Acq_st=3 2019-5-22 11:52:52 
[00]  G02  f 37  -1647.1 2046002.1  1.0  1.0  5  0 301989075
[01]  G05  f 49  -1987.0 2046002.6  1.0  1.0  5  0 301989076
[02]  G06  7 26    272.7 2045999.6 -0.4  0.0 10  0        17
[03]  G09  f 34   1269.1 2045998.4  1.0  0.9  5  0 301989073
[04]  G23  f 37   2416.9 2045996.8  1.0  1.0  5  0 301989062
[05]  G25  f 41   -661.0 2046000.8  1.0  1.0  5  0 301989064
[16]  B05 1f 34   -342.6 4092000.9  0.9  0.0  2  0 301975013
[17]  B19 1f 47   1296.4 4091996.6  1.0  1.0  5  0 301975073
$GNGGA,000000.000,,,,,0,00,,,M,,,,0000*2B
$GNRMC,000000.000,A,,,,,,,000000,,*26
$GPGSA,A,1,,,,,,,,,,,,,,,*1E
$BDGSA,A,1,,,,,,,,,,,,,,,*0F
$GPGSV,2,1,06,02,00,000,37,05,00,000,49,06,00,000,26,09,00,000,34*7E
$GPGSV,2,2,06,23,00,000,37,25,00,000,41*78
$BDGSV,1,1,02,05,00,000,34,19,00,000,47*63
$LOGTIM,0,0.000000,0.000000,0.000000,0.000000,0.000*0A
EndT:        0
---00000045--- Acq_st=3 2019-5-22 11:52:53 
[00]  G02  f 36  -1644.0 2046002.2  1.0  1.0  5  0 301990075
[01]  G05  f 48  -1983.4 2046002.6  1.0  1.0  5  0 301990076
[02]  G06  7 25    281.3 2045999.6 -0.4 -0.2 10  0        17
[03]  G09  f 35   1273.9 2045998.3  1.0  0.9  5  0 301990073
[04]  G23  f 38   2420.5 2045996.8  1.0  1.0  5  0 301990062
[05]  G25  f 41   -657.5 2046000.9  1.0  1.0  5  0 301990064
[16]  B05 1f 33   -339.3 4092000.9  0.9  0.0  2  0 301976013
[17]  B19 1f 47   1300.1 4091996.5  1.0  1.0  5  0 301976073
$GNGGA,000000.000,,,,,0,00,,,M,,,,0000*2B
$GNRMC,000000.000,A,,,,,,,000000,,*26
$GPGSA,A,1,,,,,,,,,,,,,,,*1E
$BDGSA,A,1,,,,,,,,,,,,,,,*0F
$GPGSV,2,1,06,02,00,000,36,05,00,000,48,06,00,000,25,09,00,000,35*7C
$GPGSV,2,2,06,23,00,000,38,25,00,000,41*77
$BDGSV,1,1,02,05,00,000,33,19,00,000,47*64
$LOGTIM,0,0.000000,0.000000,0.000000,0.000000,0.000*0A
EndT:        0
---00000046--- Acq_st=3 2019-5-22 11:52:54 
[00]  G02  f 37  -1641.2 2046002.2  1.0  1.0  5  0 301991075
[01]  G05  f 48  -1980.3 2046002.6  1.0  1.0  5  0 301991076
[02]  G06  7 26    283.2 2045999.6 -0.9  0.0 10  0        17
[03]  G09  f 35   1276.2 2045998.3  1.0  1.0  5  0 301991073
[04]  G23  f 38   2423.2 2045996.8  1.0  1.0  5  0 301991062
[05]  G25  f 42   -654.3 2046000.9  1.0  1.0  5  0 301991064
[16]  B05 1f 34   -336.3 4092001.0  0.9  0.0  2  0 301977013
[17]  B19 1f 48   1303.1 4091996.6  1.0  1.0  5  0 301977073
lsq: nits= 4
$GNGGA,115254.148,3112.7165,N,12136.4346,E,1,06,2.3,65.0,M,,,,0000*28
$GNRMC,115254.148,A,3112.7165,N,12136.4346,E,0.03,0.00,220519,,*1E
$GPGSA,A,3,02,05,09,23,25,,,,,,,,3.1,2.3,2.1*3A
$BDGSA,A,3,05,,,,,,,,,,,,3.1,2.3,2.1*26
$GPGSV,2,1,06,02,00,000,37,05,00,000,48,06,00,000,26,09,00,000,35*7E
$GPGSV,2,2,06,23,00,000,38,25,00,000,42*74
$BDGSV,1,1,02,05,00,000,34,19,00,000,48*6C
$LOGTIM,3,8660229.764889,8660064.427103,0.000000,0.000000,-63.395*1A
EndT:        1
---00000047--- Acq_st=3 2019-5-22 11:52:54 
[00]  G02  f 37  -1644.5 2046002.2  1.0  1.0  5  0 301992075
[01]  G05  f 48  -1983.3 2046002.6  1.0  1.0  5  0 301992076
[02]  G06  7 26    280.0 2045999.6 -0.9 -0.0 10  0        17
[03]  G09  f 35   1274.1 2045998.3  1.0  1.0  5  0 301992073
[04]  G23  f 39   2420.3 2045996.9  1.0  0.9  5  0 301992062
[05]  G25  f 41   -656.7 2046000.9  1.0  1.0  5  0 301992064
[16]  B05 1f 33   -340.0 4092000.8  0.9  0.0  2  0 301978013
[17]  B19 1f 48   1300.2 4091996.6  1.0  1.0  5  0 301978073
lsq: nits= 2
$GNGGA,115256.000,3112.7195,N,12136.4297,E,1,06,2.3,55.9,M,,,,0000*2F
$GNRMC,115256.000,A,3112.7195,N,12136.4297,E,0.30,0.00,220519,,*13
$GPGSA,A,3,02,05,09,23,25,,,,,,,,3.0,2.3,2.0*3A
$BDGSA,A,3,05,,,,,,,,,,,,3.0,2.3,2.0*26
$GPGSV,2,1,06,02,00,000,37,05,00,000,48,06,00,000,26,09,00,000,35*7E
$GPGSV,2,2,06,23,00,000,39,25,00,000,41*76
$BDGSV,1,1,02,05,00,000,33,19,00,000,48*6B
$LOGTIM,3,-117.860152,-283.772905,0.000000,0.000000,-63.942*16
EndT:        2
---00000048--- Acq_st=3 2019-5-22 11:52:56 
[00]  G02  f 36  -1644.9 2046002.2  1.0  1.0  5  0 301993927
[01]  G05  f 48  -1983.5 2046002.6  1.0  1.0  5  0 301993928
[02]  G06  7 26    279.5 2045999.6 -0.9 -0.0 10  0         9
[03]  G09  f 34   1273.5 2045998.4  1.0  0.9  5  0 301993925
[04]  G23  f 39   2419.2 2045996.9  1.0  1.0  5  0 301993915
[05]  G25  f 42   -656.7 2046000.8  1.0  1.0  5  0 301993917
[16]  B05 1f 34   -340.8 4092001.0  0.9  0.0  2  0 301979866
[17]  B19 1f 48   1299.9 4091996.6  1.0  1.0  5  0 301979925
lsq: nits= 2
$GNGGA,115257.000,3112.7196,N,12136.4296,E,1,06,2.3,56.6,M,,,,0000*20
$GNRMC,115257.000,A,3112.7196,N,12136.4296,E,0.26,0.00,220519,,*17
$GPGSA,A,3,02,05,09,23,25,,,,,,,,3.0,2.3,2.0*3A
$BDGSA,A,3,05,,,,,,,,,,,,3.0,2.3,2.0*26
$GPGSV,2,1,06,02,54,334,36,05,48,257,48,06,00,000,26,09,34,058,34*7D
$GPGSV,2,2,06,23,06,037,39,25,11,303,42*77
$BDGSV,1,1,04,05,15,256,34,19,00,000,48,10,16,218,00,29,31,133,00*6A
$LOGTIM,3,-181.644782,-347.719357,0.000000,0.000000,-63.924*13
EndT:        2
---00000049--- Acq_st=3 2019-5-22 11:52:57 
[00]  G02  f 36  -1643.5 2046002.1  1.0  1.0  5  0 301994927
[01]  G05  f 48  -1981.9 2046002.6  1.0  1.0  5  0 301994928
[02]  G06  7 26    280.7 2045999.6 -0.9  0.0 10  0         9
[03]  G09  f 34   1276.2 2045998.4  1.0  1.0  5  0 301994925
[04]  G23  f 39   2421.5 2045996.8  1.0  1.0  5  0 301994915
[05]  G25  f 42   -654.8 2046000.9  1.0  1.0  5  0 301994917
[16]  B05 1f 34   -339.5 4092000.9  0.9  0.0  2  0 301980866
[17]  B19 1f 48   1301.5 4091996.6  1.0  1.0  5  0 301980925
lsq: nits= 2
$GNGGA,115258.000,3112.7196,N,12136.4294,E,1,06,2.3,57.1,M,,,,0000*2B
$GNRMC,115258.000,A,3112.7196,N,12136.4294,E,0.08,0.00,220519,,*16
$GPGSA,A,3,02,05,09,23,25,,,,,,,,3.0,2.3,2.0*3A
$BDGSA,A,3,05,,,,,,,,,,,,3.0,2.3,2.0*26
$GPGSV,2,1,06,02,54,334,36,05,48,257,48,06,00,000,26,09,34,058,34*7D
$GPGSV,2,2,06,23,06,037,39,25,11,303,42*77
$BDGSV,1,1,04,05,15,256,34,19,00,000,48,10,16,218,00,29,31,133,00*6A
$LOGTIM,3,-245.569245,-411.809183,0.000000,0.000000,-63.906*1B
EndT:        2
---00000050--- Acq_st=3 2019-5-22 11:52:58 
[00]  G02  f 36  -1644.0 2046002.2  1.0  1.0  5  0 301995927
[01]  G05  f 48  -1981.9 2046002.6  1.0  1.0  5  0 301995928
[02]  G06  7 26    280.9 2045999.6 -0.8  0.0 10  0         9
[03]  G09  f 35   1275.4 2045998.4  1.0  1.0  5  0 301995925
[04]  G23  f 39   2421.3 2045996.9  1.0  1.0  5  0 301995915
[05]  G25  f 42   -655.0 2046000.9  1.0  1.0  5  0 301995917
[16]  B05 1f 33   -339.3 4092000.9  0.9  0.0  2  0 301981866
[17]  B19 1f 48   1301.5 4091996.6  1.0  1.0  5  0 301981925
lsq: nits= 2
$GNGGA,115259.000,3112.7198,N,12136.4292,E,1,06,2.3,58.3,M,,,,0000*2F
$GNRMC,115259.000,A,3112.7198,N,12136.4292,E,0.53,0.00,220519,,*11
$GPGSA,A,3,02,05,09,23,25,,,,,,,,3.0,2.3,2.0*3A
$BDGSA,A,3,05,,,,,,,,,,,,3.0,2.3,2.0*26
$GPGSV,2,1,06,02,54,334,36,05,48,257,48,06,00,000,26,09,34,058,35*7C
$GPGSV,2,2,06,23,06,037,39,25,11,303,42*77
$BDGSV,1,1,04,05,15,256,33,19,00,000,48,10,16,218,00,29,31,133,00*6D
$LOGTIM,3,-309.978173,-476.607741,0.000000,0.000000,-64.723*1F
EndT:        2
---00000051--- Acq_st=3 2019-5-22 11:52:59 
[00]  G02  f 36  -1650.7 2046002.1  1.0  1.0  5  0 301996927
[01]  G05  f 48  -1988.8 2046002.6  1.0  1.0  5  0 301996928
[02]  G06  7 26    278.0 2045999.6 -0.1  0.1 10  0         9
[03]  G09  f 34   1269.7 2045998.4  1.0  1.0  5  0 301996925
[04]  G23  f 39   2414.8 2045996.9  1.0  1.0  5  0 301996915
[05]  G25  f 42   -661.1 2046000.9  1.0  1.0  5  0 301996917
[16]  B05 1f 34   -346.7 4092000.9  0.9  0.0  2  0 301982866
[17]  B19 1f 48   1294.6 4091996.6  1.0  1.0  5  0 301982925
lsq: nits= 2
$GNGGA,115300.000,3112.7197,N,12136.4291,E,1,06,2.3,58.7,M,,,,0000*2A
$GNRMC,115300.000,A,3112.7197,N,12136.4291,E,0.85,0.00,220519,,*1B
$GPGSA,A,3,02,05,09,23,25,,,,,,,,3.0,2.3,2.0*3A
$BDGSA,A,3,05,,,,,,,,,,,,3.0,2.3,2.0*26
$GPGSV,2,1,06,02,54,334,36,05,48,257,48,06,00,000,26,09,34,058,34*7D
$GPGSV,2,2,06,23,06,037,39,25,11,303,42*77
$BDGSV,1,1,04,05,15,256,34,19,00,000,48,10,16,218,00,29,31,133,00*6A
$LOGTIM,3,-375.603906,-542.357876,0.000000,0.000000,-65.495*1F
EndT:        2
---00000052--- Acq_st=3 2019-5-22 11:53:0 
[00]  G02  f 35  -1655.3 2046002.2  1.0  0.9  5  0 301997927
[01]  G05  f 48  -1992.6 2046002.6  1.0  1.0  5  0 301997928
[02]  G06  7 26    269.9 2045999.7  0.6  0.0 10  0         9
[03]  G09  f 34   1265.9 2045998.3  1.0  0.9  5  0 301997925
[04]  G23  f 39   2410.5 2045996.9  1.0  1.0  5  0 301997915
[05]  G25  f 42   -665.1 2046000.9  1.0  1.0  5  0 301997917
[16]  B05 1f 34   -351.4 4092000.9  0.9  0.0  2  0 301983866
[17]  B19 1f 48   1290.8 4091996.6  1.0  1.0  5  0 301983925
lsq: nits= 2
$GNGGA,115301.000,3112.7198,N,12136.4290,E,1,06,2.3,59.7,M,,,,0000*24
$GNRMC,115301.000,A,3112.7198,N,12136.4290,E,0.63,0.00,220519,,*1C
$GPGSA,A,3,02,05,09,23,25,,,,,,,,3.0,2.3,2.0*3A
$BDGSA,A,3,05,,,,,,,,,,,,3.0,2.3,2.0*26
$GPGSV,2,1,06,02,54,334,35,05,48,257,48,06,00,000,26,09,34,058,34*7E
$GPGSV,2,2,06,23,06,037,39,25,11,303,42*77
$BDGSV,1,1,04,05,15,256,34,19,00,000,48,10,16,218,00,29,31,133,00*6A
$LOGTIM,3,-441.159142,-607.992533,0.000000,0.000000,-65.540*1B
EndT:        2
---00000053--- Acq_st=3 2019-5-22 11:53:1 
[00]  G02  f 35  -1652.3 2046002.1  1.0  0.9  5  0 301998927
[01]  G05  f 48  -1989.6 2046002.6  1.0  1.0  5  0 301998928
[02]  G06  7 25    272.4 2045999.8  0.9 -0.0 10  0         9
[03]  G09  f 34   1268.3 2045998.3  1.0  0.9  5  0 301998925
[04]  G23  f 38   2412.8 2045996.9  1.0  1.0  5  0 301998915
[05]  G25  f 41   -662.1 2046000.9  1.0  1.0  5  0 301998917
[16]  B05 1f 34   -348.6 4092001.0  0.9  0.0  2  0 301984866
[17]  B19 1f 48   1293.3 4091996.6  1.0  1.0  5  0 301984925
lsq: nits= 2
$GNGGA,115302.000,3112.7198,N,12136.4287,E,1,06,2.3,62.1,M,,,,0000*2F
$GNRMC,115302.000,A,3112.7198,N,12136.4287,E,0.24,0.00,220519,,*1A
$GPGSA,A,3,02,05,09,23,25,,,,,,,,3.0,2.3,2.0*3A
$BDGSA,A,3,05,,,,,,,,,,,,3.0,2.3,2.0*26
$GPGSV,2,1,06,02,54,334,35,05,48,257,48,06,00,000,25,09,34,058,34*7D
$GPGSV,2,2,06,23,06,037,38,25,11,303,41*75
$BDGSV,1,1,04,05,15,256,34,19,00,000,48,10,16,218,00,29,31,133,00*6A
$LOGTIM,3,-505.777500,-672.680611,0.000000,0.000000,-64.948*1A
EndT:        2
---00000054--- Acq_st=3 2019-5-22 11:53:2 
[00]  G02  f 35  -1647.8 2046002.2  1.0  1.0  5  0 301999927
[01]  G05  f 48  -1984.3 2046002.6  1.0  1.0  5  0 301999928
[02]  G06  7 25    275.5 2045999.6  0.4  0.1 10  0         9
[03]  G09  f 33   1274.2 2045998.4  1.0  1.0  5  0 301999925
[04]  G23  f 39   2418.9 2045996.9  1.0  1.0  5  0 301999915
[05]  G25  f 41   -656.4 2046000.9  1.0  1.0  5  0 301999917
[16]  B05 1f 33   -343.7 4092000.6  0.9  0.0  2  0 301985866
[17]  B19 1f 48   1298.3 4091996.6  1.0  1.0  5  0 301985925
lsq: nits= 2
$GNGGA,115303.000,3112.7199,N,12136.4287,E,1,06,2.3,63.2,M,,,,0000*2D
$GNRMC,115303.000,A,3112.7199,N,12136.4287,E,0.20,0.00,220519,,*1E
$GPGSA,A,3,02,05,09,23,25,,,,,,,,3.0,2.3,2.0*3A
$BDGSA,A,3,05,,,,,,,,,,,,3.0,2.3,2.0*26
$GPGSV,2,1,06,02,54,334,35,05,48,257,48,06,00,000,25,09,34,058,33*7A
$GPGSV,2,2,06,23,06,037,39,25,11,303,41*74
$BDGSV,1,1,04,05,15,256,33,19,00,000,48,10,16,218,00,29,31,133,00*6D
$LOGTIM,3,-570.683366,-737.636338,0.000000,0.000000,-65.051*17
EndT:        2
---00000055--- Acq_st=3 2019-5-22 11:53:3 
[00]  G02  f 35  -1650.6 2046002.2  1.0  1.0  5  0 302000927
[01]  G05  f 48  -1986.4 2046002.6  1.0  1.0  5  0 302000928
[02]  G06  7 25    275.0 2045999.6  0.8  0.0 10  0         9
[03]  G09  f 33   1272.3 2045998.4  1.0  0.9  5  0 302000925
[04]  G23  f 39   2415.7 2045996.9  1.0  1.0  5  0 302000915
[05]  G25  f 41   -658.5 2046000.8  1.0  1.0  5  0 302000917
[16]  B05 1f 32   -346.2 4092001.0  0.9  0.0  2  0 301986866
[17]  B19 1f 48   1296.0 4091996.6  1.0  1.0  5  0 301986925
lsq: nits= 2
$GNGGA,115304.000,3112.7198,N,12136.4286,E,1,06,2.3,64.4,M,,,,0000*2B
$GNRMC,115304.000,A,3112.7198,N,12136.4286,E,0.24,0.00,220519,,*1D
$GPGSA,A,3,02,05,09,23,25,,,,,,,,3.0,2.3,2.0*3A
$BDGSA,A,3,05,,,,,,,,,,,,3.0,2.3,2.0*26
$GPGSV,2,1,06,02,54,334,35,05,48,257,48,06,00,000,25,09,34,058,33*7A
$GPGSV,2,2,06,23,06,037,39,25,11,303,41*74
$BDGSV,1,1,04,05,15,256,32,19,00,000,48,10,16,218,00,29,31,133,00*6C
$LOGTIM,3,-635.331393,-802.362115,0.000000,0.000000,-64.706*17
EndT:        2
---00000056--- Acq_st=3 2019-5-22 11:53:4 
[00]  G02  f 35  -1646.4 2046002.1  1.0  1.0  5  0 302001927
[01]  G05  f 48  -1982.0 2046002.6  1.0  1.0  5  0 302001928
[02]  G06  7 24    277.8 2045999.5  0.4 -0.1 10  0         9
[03]  G09  f 33   1276.5 2045998.4  1.0  0.9  5  0 302001925
[04]  G23  f 39   2420.1 2045996.8  1.0  1.0  5  0 302001915
[05]  G25  f 42   -653.8 2046000.8  1.0  1.0  5  0 302001917
[16]  B05 1f 33   -342.9 4092001.1  0.9  0.0  2  0 301987866
[17]  B19 1f 48   1300.3 4091996.6  1.0  1.0  5  0 301987925
lsq: nits= 2
$GNGGA,115305.000,3112.7198,N,12136.4286,E,1,06,2.3,65.5,M,,,,0000*2A
$GNRMC,115305.000,A,3112.7198,N,12136.4286,E,0.33,0.00,220519,,*1A
$GPGSA,A,3,02,05,09,23,25,,,,,,,,3.0,2.3,2.0*3A
$BDGSA,A,3,05,,,,,,,,,,,,3.0,2.3,2.0*26
$GPGSV,2,1,06,02,54,334,35,05,48,257,48,06,00,000,24,09,34,058,33*7B
$GPGSV,2,2,06,23,06,037,39,25,11,303,42*77
$BDGSV,1,1,04,05,15,256,33,19,00,000,48,10,16,218,00,29,31,133,00*6D
$LOGTIM,3,-699.729403,-866.849530,0.000000,0.000000,-64.504*11
EndT:        2
---00000057--- Acq_st=3 2019-5-22 11:53:5 
[00]  G02  f 35  -1644.9 2046002.2  1.0  1.0  5  0 302002927
[01]  G05  f 48  -1980.9 2046002.6  1.0  1.0  5  0 302002928
[02]  G06  7 24    280.6 2045999.5  0.9 -0.0 10  0         9
[03]  G09  f 33   1277.7 2045998.4  1.0  0.9  5  0 302002925
[04]  G23  f 39   2421.4 2045996.8  1.0  1.0  5  0 302002915
[05]  G25  f 41   -652.6 2046000.9  1.0  1.0  5  0 302002917
[16]  B05 1f 33   -341.1 4092000.7  0.9  0.0  2  0 301988866
[17]  B19 1f 48   1302.1 4091996.6  1.0  1.0  5  0 301988925
lsq: nits= 2
$GNGGA,115306.000,3112.7204,N,12136.4281,E,1,06,2.3,67.8,M,,,,0000*27
$GNRMC,115306.000,A,3112.7204,N,12136.4281,E,0.38,0.00,220519,,*13
$GPGSA,A,3,02,05,09,23,25,,,,,,,,3.0,2.3,2.0*3A
$BDGSA,A,3,05,,,,,,,,,,,,3.0,2.3,2.0*26
$GPGSV,2,1,06,02,54,334,35,05,48,257,48,06,00,000,24,09,34,058,33*7B
$GPGSV,2,2,06,23,06,037,39,25,11,303,41*74
$BDGSV,1,1,04,05,15,256,33,19,00,000,48,10,16,218,00,29,31,133,00*6D
$LOGTIM,3,-763.342328,-930.595300,0.000000,0.000000,-64.203*19
EndT:        2
---00000058--- Acq_st=3 2019-5-22 11:53:6 
[00]  G02  f 35  -1643.2 2046002.1  1.0  0.9  5  0 302003927
[01]  G05  f 48  -1979.0 2046002.6  1.0  1.0  5  0 302003928
[02]  G06  7 25    282.7 2045999.6  0.8  0.0 10  0         9
[03]  G09  f 32   1281.4 2045998.4  1.0  1.0  5  0 302003925
[04]  G23  f 38   2423.1 2045996.8  1.0  1.0  5  0 302003915
[05]  G25  f 42   -650.3 2046000.9  1.0  1.0  5  0 302003917
[16]  B05 1f 33   -339.9 4092001.0  0.9  0.0  2  0 301989866
[17]  B19 1f 48   1303.9 4091996.6  1.0  1.0  5  0 301989925
lsq: nits= 2
$GNGGA,115307.000,3112.7207,N,12136.4279,E,1,06,2.3,68.5,M,,,,0000*20
$GNRMC,115307.000,A,3112.7207,N,12136.4279,E,0.06,0.00,220519,,*1B
$GPGSA,A,3,02,05,09,23,25,,,,,,,,3.0,2.3,2.0*3A
$BDGSA,A,3,05,,,,,,,,,,,,3.0,2.3,2.0*26
$GPGSV,2,1,06,02,54,334,35,05,48,257,48,06,00,000,25,09,34,058,32*7B
$GPGSV,2,2,06,23,06,037,38,25,11,303,42*76
$BDGSV,1,1,04,05,15,256,33,19,00,000,48,10,16,218,00,29,31,133,00*6D
$LOGTIM,3,-827.501155,-994.789989,0.000000,0.000000,-64.439*1A
EndT:        2
---00000059--- Acq_st=3 2019-5-22 11:53:7 
[00]  G02  f 35  -1645.8 2046002.1  1.0  1.0  5  0 302004927
[01]  G05  f 48  -1981.2 2046002.6  1.0  1.0  5  0 302004928
[02]  G06  7 25    281.0 2045999.6  0.9  0.0 10  0         9
[03]  G09  f 32   1278.2 2045998.3  1.0  0.9  5  0 302004925
[04]  G23  f 38   2420.6 2045996.8  1.0  1.0  5  0 302004915
[05]  G25  f 42   -652.5 2046000.8  1.0  1.0  5  0 302004917
[16]  B05 1f 33   -342.2 4092000.9  0.9  0.0  2  0 301990866
[17]  B19 1f 48   1301.2 4091996.6  1.0  1.0  5  0 301990925
lsq: nits= 2
$GNGGA,115308.000,3112.7208,N,12136.4278,E,1,06,2.3,68.6,M,,,,0000*22
$GNRMC,115308.000,A,3112.7208,N,12136.4278,E,0.41,0.00,220519,,*19
$GPGSA,A,3,02,05,09,23,25,,,,,,,,3.0,2.3,2.0*3A
$BDGSA,A,3,05,,,,,,,,,,,,3.0,2.3,2.0*26
$GPGSV,2,1,06,02,54,334,35,05,48,257,48,06,00,000,25,09,34,058,32*7B
$GPGSV,2,2,06,23,06,037,38,25,11,303,42*76
$BDGSV,1,1,04,05,15,256,33,19,00,000,48,10,16,218,00,29,31,133,00*6D
$LOGTIM,3,-892.509385,-1059.789626,0.000000,0.000000,-64.956*24
EndT:        2
---00000060--- Acq_st=3 2019-5-22 11:53:8 
[00]  G02  f 36  -1651.0 2046002.1  1.0  1.0  5  0 302005927
[01]  G05  f 49  -1985.0 2046002.6  1.0  1.0  5  0 302005928
[02]  G06  7 26    278.9 2045999.5  0.6 -0.0 10  0         9
[03]  G09  f 33   1274.6 2045998.4  1.0  0.9  5  0 302005925
[04]  G23  f 38   2416.7 2045996.9  1.0  1.0  5  0 302005915
[05]  G25  f 42   -656.1 2046000.8  1.0  1.0  5  0 302005917
[16]  B05 1f 34   -347.3 4092000.9  0.9  0.0  2  0 301991866
[17]  B19 1f 48   1297.4 4091996.6  1.0  1.0  5  0 301991925
lsq: nits= 2
$GNGGA,115309.000,3112.7207,N,12136.4271,E,1,06,2.3,68.1,M,,,,0000*22
$GNRMC,115309.000,A,3112.7207,N,12136.4271,E,0.60,0.00,220519,,*1D
$GPGSA,A,3,02,05,09,23,25,,,,,,,,3.0,2.3,2.0*3A
$BDGSA,A,3,05,,,,,,,,,,,,3.0,2.3,2.0*26
$GPGSV,2,1,06,02,54,334,36,05,48,257,49,06,00,000,26,09,34,058,33*7B
$GPGSV,2,2,06,23,06,037,38,25,11,303,42*76
$BDGSV,1,1,04,05,15,256,34,19,00,000,48,10,16,218,00,29,31,133,00*6A
$LOGTIM,3,-958.102063,-1127.807901,0.000000,0.000000,-65.469*2C
EndT:        2
---00000061--- Acq_st=3 2019-5-22 11:53:9 
[00]  G02  f 36  -1653.9 2046002.1  1.0  1.0  5  0 302006927
[01]  G05  f 48  -1987.8 2046002.6  1.0  1.0  5  0 302006928
[02]  G06  7 26    274.4 2045999.6  0.3  0.2 10  0         9
[03]  G09  f 32   1272.6 2045998.4  1.0  1.0  5  0 302006925
[04]  G23  f 39   2413.7 2045996.9  1.0  1.0  5  0 302006915
[05]  G25  f 42   -658.7 2046000.8  1.0  1.0  5  0 302006917
[16]  B05 1f 34   -349.8 4092000.9  0.9  0.0  2  0 301992866
[17]  B19 1f 48   1294.9 4091996.6  1.0  1.0  5  0 301992925
lsq: nits= 2
$GNGGA,115310.000,3112.7202,N,12136.4267,E,1,06,2.3,67.5,M,,,,0000*23
$GNRMC,115310.000,A,3112.7202,N,12136.4267,E,0.32,0.00,220519,,*10
$GPGSA,A,3,02,05,09,23,25,,,,,,,,3.0,2.3,2.0*3A
$BDGSA,A,3,05,,,,,,,,,,,,3.0,2.3,2.0*26
$GPGSV,2,1,06,02,54,334,36,05,48,257,48,06,00,000,26,09,34,058,32*7B
$GPGSV,2,2,06,23,06,037,39,25,11,303,42*77
$BDGSV,1,1,04,05,15,256,34,19,00,000,48,10,16,218,00,29,31,133,00*6A
$LOGTIM,3,-1024.074268,-1196.325963,0.000000,0.000000,-65.569*12
EndT:        2
---00000062--- Acq_st=3 2019-5-22 11:53:10 
[00]  G02  f 37  -1652.1 2046002.2  1.0  0.9  5  0 302007927
[01]  G05  f 48  -1986.7 2046002.6  1.0  1.0  5  0 302007928
[02]  G06  7 26    274.8 2045999.7  0.9 -0.0 10  0         9
[03]  G09  f 32   1273.7 2045998.3  1.0  1.0  5  0 302007925
[04]  G23  f 38   2414.6 2045996.9  1.0  1.0  5  0 302007915
[05]  G25  f 43   -657.4 2046000.8  1.0  1.0  5  0 302007917
[16]  B05 1f 35   -349.0 4092001.1  0.9  0.0  2  0 301993866
[17]  B19 1f 48   1295.6 4091996.6  1.0  1.0  5  0 301993925
lsq: nits= 2
$GNGGA,115311.000,3112.7194,N,12136.4267,E,1,06,2.3,66.7,M,,,,0000*2D
$GNRMC,115311.000,A,3112.7194,N,12136.4267,E,0.47,0.00,220519,,*1F
$GPGSA,A,3,02,05,09,23,25,,,,,,,,3.0,2.3,2.0*3A
$BDGSA,A,3,05,,,,,,,,,,,,3.0,2.3,2.0*26
$GPGSV,2,1,06,02,54,334,37,05,48,257,48,06,00,000,26,09,34,058,32*7A
$GPGSV,2,2,06,23,06,037,38,25,11,303,43*77
$BDGSV,1,1,04,05,15,256,35,19,00,000,48,10,16,218,00,29,31,133,00*6B
$LOGTIM,3,-1090.969096,-1265.837234,0.000000,0.000000,-66.133*1D
EndT:        2
---00000063--- Acq_st=3 2019-5-22 11:53:11 
[00]  G02  f 38  -1656.8 2046002.1  1.0  0.9  5  0 302008927
[01]  G05  f 48  -1990.3 2046002.6  1.0  1.0  5  0 302008928
[02]  G06  7 25    270.9 2045999.6  0.8 -0.0 10  0         9
[03]  G09  f 33   1269.9 2045998.3  1.0  0.9  5  0 302008925
[04]  G23  f 38   2411.2 2045996.9  1.0  1.0  5  0 302008915
[05]  G25  f 42   -660.6 2046000.9  1.0  1.0  5  0 302008917
[16]  B05 1f 34   -353.0 4092000.8  0.9  0.0  2  0 301994866
[17]  B19 1f 47   1292.0 4091996.6  1.0  1.0  5  0 301994925
lsq: nits= 2
$GNGGA,115312.000,3112.7190,N,12136.4271,E,1,06,2.3,66.7,M,,,,0000*2D
$GNRMC,115312.000,A,3112.7190,N,12136.4271,E,0.34,0.00,220519,,*1B
$GPGSA,A,3,02,05,09,23,25,,,,,,,,3.0,2.3,2.0*3A
$BDGSA,A,3,05,,,,,,,,,,,,3.0,2.3,2.0*26
$GPGSV,2,1,06,02,54,334,38,05,48,258,48,06,00,000,25,09,34,058,33*78
$GPGSV,2,2,06,23,06,037,38,25,11,303,42*76
$BDGSV,1,1,04,05,15,256,34,19,00,000,47,10,16,218,00,29,31,133,00*65
$LOGTIM,3,-1157.774101,-1331.738536,0.000000,0.000000,-66.164*1D
EndT:        2
---00000064--- Acq_st=3 2019-5-22 11:53:12 
[00]  G02  f 37  -1654.7 2046002.1  1.0  0.9  5  0 302009927
[01]  G05  f 48  -1988.6 2046002.6  1.0  1.0  5  0 302009928
[02]  G06  7 25    273.0 2045999.6  0.9 -0.0 10  0         9
[03]  G09  f 34   1271.5 2045998.3  1.0  1.0  5  0 302009925
[04]  G23  f 38   2412.3 2045996.9  1.0  1.0  5  0 302009915
[05]  G25  f 43   -659.1 2046000.9  1.0  1.0  5  0 302009917
[16]  B05 1f 34   -352.1 4092000.8  0.9  0.0  2  0 301995866
[17]  B19 1f 47   1293.8 4091996.6  1.0  1.0  5  0 301995925
lsq: nits= 2
$GNGGA,115313.000,3112.7188,N,12136.4274,E,1,06,2.3,66.5,M,,,,0000*22
$GNRMC,115313.000,A,3112.7188,N,12136.4274,E,0.27,0.00,220519,,*14
$GPGSA,A,3,02,05,09,23,25,,,,,,,,3.0,2.3,2.0*3A
$BDGSA,A,3,05,,,,,,,,,,,,3.0,2.3,2.0*26
$GPGSV,2,1,06,02,54,334,38,05,48,258,48,06,00,000,25,09,34,058,34*7F
$GPGSV,2,2,06,23,06,037,38,25,11,303,43*77
$BDGSV,1,1,04,05,15,256,34,19,00,000,47,10,16,218,00,29,31,133,00*65
$LOGTIM,3,-1224.562534,-1398.214380,0.000000,0.000000,-66.334*19
EndT:        2
---00000065--- Acq_st=3 2019-5-22 11:53:13 
[00]  G02  f 38  -1656.5 2046002.1  1.0  1.0  5  0 302010927
[01]  G05  f 48  -1989.0 2046002.6  1.0  1.0  5  0 302010928
[02]  G06  7 26    272.0 2045999.6  0.9  0.0 10  0         9
[03]  G09  f 34   1271.2 2045998.3  1.0  1.0  5  0 302010925
[04]  G23  f 38   2411.4 2045996.9  1.0  1.0  5  0 302010915
