FlashID=0x1 0x20 0x18
BBram_blkflag1: 3d1a: c2e5
FW Ver: 1.30  
GPS00 Init Dop:   5000, 40
GPS01 Init Dop:   5000, 40
GPS02 Init Dop:   5000, 40
GPS03 Init Dop:   5000, 40
GPS04 Init Dop:   5000, 40
GPS05 Init Dop:   5000, 40
GPS06 Init Dop:   5000, 40
GPS07 Init Dop:   5000, 40
GPS08 Init Dop:   5000, 40
GPS09 Init Dop:   5000, 40
GPS10 Init Dop:   5000, 40
GPS11 Init Dop:   5000, 40
GPS12 Init Dop:   5000, 40
GPS13 Init Dop:   5000, 40
GPS14 Init Dop:   5000, 40
GPS15 Init Dop:   5000, 40
GPS16 Init Dop:   5000, 40
GPS17 Init Dop:   5000, 40
GPS18 Init Dop:   5000, 40
GPS19 Init Dop:   5000, 40
GPS20 Init Dop:   5000, 40
GPS21 Init Dop:   5000, 40
GPS22 Init Dop:   5000, 40
GPS23 Init Dop:   5000, 40
GPS24 Init Dop:   5000, 40
GPS25 Init Dop:   5000, 40
GPS26 Init Dop:   5000, 40
GPS27 Init Dop:   5000, 40
GPS28 Init Dop:   5000, 40
GPS29 Init Dop:   5000, 40
GPS30 Init Dop:   5000, 40
GPS31 Init Dop:   5000, 40
BDS00 Init Dop:   5000, 40
BDS01 Init Dop:   5000, 40
BDS02 Init Dop:   5000, 40
BDS03 Init Dop:   5000, 40
BDS04 Init Dop:   5000, 40
BDS05 Init Dop:   5000, 40
BDS06 Init Dop:   5000, 40
BDS07 Init Dop:   5000, 40
BDS08 Init Dop:   5000, 40
BDS09 Init Dop:   5000, 40
BDS10 Init Dop:   5000, 40
BDS11 Init Dop:   5000, 40
BDS12 Init Dop:   5000, 40
BDS13 Init Dop:   5000, 40
BDS14 Init Dop:   5000, 40
BDS15 Init Dop:   5000, 40
BDS16 Init Dop:   5000, 40
BDS17 Init Dop:   5000, 40
BDS18 Init Dop:   5000, 40
BDS19 Init Dop:   5000, 40
BDS20 Init Dop:   5000, 40
BDS21 Init Dop:   5000, 40
BDS22 Init Dop:   5000, 40
BDS23 Init Dop:   5000, 40
BDS24 Init Dop:   5000, 40
BDS25 Init Dop:   5000, 40
BDS26 Init Dop:   5000, 40
BDS27 Init Dop:   5000, 40
BDS28 Init Dop:   5000, 40
BDS29 Init Dop:   5000, 40
BDS30 Init Dop:   5000, 40
BDS31 Init Dop:   5000, 40
good luck!
---00000001--- Acq_st=3 2019-5-22 03:12:46 
[00]  G04  1 22   -570.9 2046001.9 -0.0  0.0  1  0         0
[01]  G07  1  7  -3394.0 2046006.7 -0.1  0.0  1  0         0
[02]  G08  1  7   -809.9 2046003.0  0.0  0.0  1  0         0
[03]  G09  1 15    555.7 2045999.7 -0.0  0.0  1  0         0
$GNGGA,000000.000,,,,,0,00,,,M,,,,0000*2B
$GNRMC,000000.000,A,,,,,,,000000,,*26
$GPGSA,A,1,,,,,,,,,,,,,,,*1E
$BDGSA,A,1,,,,,,,,,,,,,,,*0F
$LOGTIM,0,0.000000,0.000000,0.000000,0.000000,0.000*0A
EndT:        0
---00000002--- Acq_st=3 2019-5-22 03:12:47 
[00]  G04  7 26   -572.7 2046000.7  0.2  0.0 20  0         2
[01]  G07  7 21  -3367.9 2046004.3  0.2  0.0 20  0        12
[02]  G08  7 17   -852.5 2046001.0  0.3  0.0 20  0        11
[03]  G09  7  8    572.3 2045999.2  0.2  0.0 20  0         8
[04]  G16  1 30   1304.4 2045998.3  0.0  0.0  1  0         0
$GNGGA,000000.000,,,,,0,00,,,M,,,,0000*2B
$GNRMC,000000.000,A,,,,,,,000000,,*26
$GPGSA,A,1,,,,,,,,,,,,,,,*1E
$BDGSA,A,1,,,,,,,,,,,,,,,*0F
$GPGSV,1,1,03,04,00,000,26,07,00,000,21,08,00,000,17*40
$LOGTIM,0,0.000000,0.000000,0.000000,0.000000,0.000*0A
EndT:        1
---00000003--- Acq_st=3 2019-5-22 03:12:48 
[00]  G04  7 42   -573.2 2046000.7  1.0  1.0  5  0         9
[01]  G07  7 48  -3368.5 2046004.3  1.0  1.0  5  0        10
[02]  G08  7 47   -853.1 2046001.0  0.9  1.0  5  0        18
[03]  G09  7 47    572.3 2045999.2  1.0  1.0  5  0        10
[04]  G16  7 29   1297.5 2045998.3  0.5  1.0  5  0         6
[05]  G27  1 28   1383.3 2045998.3  0.2  0.0  1  0         0
[06]  G30  1  7  -3794.1 2046007.1 -0.1  0.0  1  0         0
$GNGGA,000000.000,,,,,0,00,,,M,,,,0000*2B
$GNRMC,000000.000,A,,,,,,,000000,,*26
$GPGSA,A,1,,,,,,,,,,,,,,,*1E
$BDGSA,A,1,,,,,,,,,,,,,,,*0F
$GPGSV,2,1,05,04,00,000,42,07,00,000,48,08,00,000,47,09,00,000,47*77
$GPGSV,2,2,05,16,00,000,29*40
$LOGTIM,0,0.000000,0.000000,0.000000,0.000000,0.000*0A
EndT:        0
---00000004--- Acq_st=3 2019-5-22 03:12:49 
[00]  G04  f 42   -569.4 2046000.7  1.0  1.0  5  0         9
[01]  G07  f 48  -3365.6 2046004.3  1.0  1.0  5  0        10
[02]  G08  f 47   -849.5 2046001.1  1.0  1.0  5  0        18
[03]  G09  f 46    575.5 2045999.2  1.0  1.0  5  0        10
[04]  G16  f 43   1300.8 2045998.3  1.0  1.0  5  0        12
[05]  G27  7 31   1391.9 2045998.1  0.6  1.0  5  0        10
$GNGGA,000000.000,,,,,0,00,,,M,,,,0000*2B
$GNRMC,000000.000,A,,,,,,,000000,,*26
$GPGSA,A,1,,,,,,,,,,,,,,,*1E
$BDGSA,A,1,,,,,,,,,,,,,,,*0F
$GPGSV,2,1,06,04,00,000,42,07,00,000,48,08,00,000,47,09,00,000,46*75
$GPGSV,2,2,06,16,00,000,43,27,00,000,31*78
$LOGTIM,0,0.000000,0.000000,0.000000,0.000000,0.000*0A
EndT:        0
---00000005--- Acq_st=3 2019-5-22 03:12:50 
[00]  G04  f 42   -569.7 2046000.7  1.0  1.0  5  0 270787489
[01]  G07  f 48  -3365.8 2046004.3  1.0  1.0  5  0 270787490
[02]  G08  f 47   -849.8 2046001.1  1.0  1.0  5  0 270787498
[03]  G09  f 47    575.5 2045999.2  1.0  1.0  5  0 270787490
[04]  G16  f 43   1300.4 2045998.3  1.0  1.0  5  0 270787492
[05]  G27  7 48   1391.5 2045998.1  1.0  1.0  5  0        17
[16]  B07  1  7   -633.3 4092001.4  0.1  0.0  1  0         0
[17]  B09  1  7  -3598.6 4092008.9  0.1  0.0  1  0         0
[18]  B10  1  7   -712.4 4092002.4 -0.0  0.0  1  0         0
$GNGGA,000000.000,,,,,0,00,,,M,,,,0000*2B
$GNRMC,000000.000,A,,,,,,,000000,,*26
$GPGSA,A,1,,,,,,,,,,,,,,,*1E
$BDGSA,A,1,,,,,,,,,,,,,,,*0F
$GPGSV,2,1,06,04,00,000,42,07,00,000,48,08,00,000,47,09,00,000,47*74
$GPGSV,2,2,06,16,00,000,43,27,00,000,48*76
$LOGTIM,0,0.000000,0.000000,0.000000,0.000000,0.000*0A
EndT:        0
---00000006--- Acq_st=3 2019-5-22 03:12:51 
[00]  G04  f 42   -572.4 2046000.8  1.0  1.0  5  0 270788489
[01]  G07  f 48  -3369.0 2046004.3  1.0  1.0  5  0 270788490
[02]  G08  f 47   -852.5 2046001.1  1.0  1.0  5  0 270788498
[03]  G09  f 47    572.3 2045999.2  1.0  1.0  5  0 270788490
[04]  G16  f 43   1297.0 2045998.3  1.0  1.0  5  0 270788492
[05]  G27  7 47   1388.6 2045998.2  1.0  1.0  5  0        17
[16]  B07  7 30   -637.1 4092001.8  0.2  0.9  5  0       978
[17]  B09  1  8  -3450.7 4092008.8 -0.0  0.0  1  0       609
[18]  B10  7 20   -711.2 4092001.9  0.1  0.0 20  0       484
[19]  B13  1  7  -4439.1 4092011.2  0.0  0.0  1  0         0
$GNGGA,000000.000,,,,,0,00,,,M,,,,0000*2B
$GNRMC,000000.000,A,,,,,,,000000,,*26
$GPGSA,A,1,,,,,,,,,,,,,,,*1E
$BDGSA,A,1,,,,,,,,,,,,,,,*0F
$GPGSV,2,1,06,04,00,000,42,07,00,000,48,08,00,000,47,09,00,000,47*74
$GPGSV,2,2,06,16,00,000,43,27,00,000,47*79
$BDGSV,1,1,02,07,00,000,30,10,00,000,20*6D
$LOGTIM,0,0.000000,0.000000,0.000000,0.000000,0.000*0A
EndT:        0
---00000007--- Acq_st=3 2019-5-22 03:12:52 
[00]  G04  f 41   -568.8 2046000.8  1.0  1.0  5  0 270789489
[01]  G07  f 47  -3365.8 2046004.3  1.0  1.0  5  0 270789490
[02]  G08  f 48   -848.9 2046001.1  1.0  1.0  5  0 270789498
[03]  G09  f 47    576.1 2045999.2  1.0  1.0  5  0 270789490
[04]  G16  f 43   1300.0 2045998.3  1.0  1.0  5  0 270789492
[05]  G27  7 47   1392.3 2045998.2  1.0  1.0  5  0        17
[16]  B07  7 36   -633.6 4092001.8  1.0  0.9  5  0      1965
[17]  B09  1  7  -3418.6 4092009.0 -0.0  0.0  1  0      1609
[18]  B10  7 41   -707.9 4092001.9  0.4  1.0  5  0      1481
[19]  B13  1  7  -4432.9 4092011.0  0.0  0.0  1  0       869
$GNGGA,000000.000,,,,,0,00,,,M,,,,0000*2B
$GNRMC,000000.000,A,,,,,,,000000,,*26
$GPGSA,A,1,,,,,,,,,,,,,,,*1E
$BDGSA,A,1,,,,,,,,,,,,,,,*0F
$GPGSV,2,1,06,04,00,000,41,07,00,000,47,08,00,000,48,09,00,000,47*77
$GPGSV,2,2,06,16,00,000,43,27,00,000,47*79
$BDGSV,1,1,02,07,00,000,36,10,00,000,41*6C
$LOGTIM,0,0.000000,0.000000,0.000000,0.000000,0.000*0A
EndT:        0
---00000008--- Acq_st=3 2019-5-22 03:12:53 
[00]  G04  f 43   -568.5 2046000.7  1.0  1.0  5  0 270790489
[01]  G07  f 47  -3365.6 2046004.3  1.0  1.0  5  0 270790490
[02]  G08  f 48   -848.7 2046001.1  1.0  1.0  5  0 270790498
[03]  G09  f 48    576.4 2045999.2  1.0  1.0  5  0 270790490
[04]  G16  f 43   1299.9 2045998.3  1.0  1.0  5  0 270790492
[05]  G27  7 47   1392.3 2045998.2  1.0  1.0  5  0        17
[16]  B07  7 36   -634.1 4092001.7  1.0  1.0  5  0      2965
[18]  B10  7 41   -708.3 4092001.8  1.0  1.0  5  0      2481
[19]  B13  1  7  -4426.0 4092011.2 -0.1  0.0  1  0      1869
$GNGGA,000000.000,,,,,0,00,,,M,,,,0000*2B
$GNRMC,000000.000,A,,,,,,,000000,,*26
$GPGSA,A,1,,,,,,,,,,,,,,,*1E
$BDGSA,A,1,,,,,,,,,,,,,,,*0F
$GPGSV,2,1,06,04,00,000,43,07,00,000,47,08,00,000,48,09,00,000,48*7A
$GPGSV,2,2,06,16,00,000,43,27,00,000,47*79
$BDGSV,1,1,02,07,00,000,36,10,00,000,41*6C
$LOGTIM,0,0.000000,0.000000,0.000000,0.000000,0.000*0A
EndT:        1
---00000009--- Acq_st=3 2019-5-22 03:12:54 
[00]  G04  f 42   -568.2 2046000.7  1.0  1.0  5  0 270791489
[01]  G07  f 47  -3366.2 2046004.4  1.0  1.0  5  0 270791490
[02]  G08  f 47   -848.9 2046001.1  1.0  1.0  5  0 270791498
[03]  G09  f 47    576.6 2045999.2  1.0  1.0  5  0 270791490
[04]  G16  f 43   1299.5 2045998.3  1.0  1.0  5  0 270791492
[05]  G27  7 47   1392.0 2045998.2  1.0  1.0  5  0        17
[16]  B07  7 36   -634.4 4092001.7  1.0  0.9  5  0      3965
[17]  B27  1  7   -597.0 4092000.9 -0.1  0.0  1  0      2609
[18]  B10  7 41   -709.1 4092001.9  1.0  1.0  5  0      3481
[19]  B28  1  7   2178.1 4091996.9  0.1  0.0  1  0      2869
$GNGGA,000000.000,,,,,0,00,,,M,,,,0000*2B
$GNRMC,000000.000,A,,,,,,,000000,,*26
$GPGSA,A,1,,,,,,,,,,,,,,,*1E
$BDGSA,A,1,,,,,,,,,,,,,,,*0F
$GPGSV,2,1,06,04,00,000,42,07,00,000,47,08,00,000,47,09,00,000,47*7B
$GPGSV,2,2,06,16,00,000,43,27,00,000,47*79
$BDGSV,1,1,02,07,00,000,36,10,00,000,41*6C
$LOGTIM,0,0.000000,0.000000,0.000000,0.000000,0.000*0A
EndT:        0
---00000010--- Acq_st=7 2019-5-22 03:12:55 
[00]  G04  f 42   -567.7 2046000.7  1.0  1.0  5  0 270792489
[01]  G07  f 48  -3366.2 2046004.4  1.0  1.0  5  0 270792490
[02]  G08  f 47   -848.5 2046001.1  1.0  1.0  5  0 270792498
[03]  G09  f 47    576.6 2045999.3  1.0  1.0  5  0 270792490
[04]  G16  f 43   1299.4 2045998.3  1.0  1.0  5  0 270792492
[05]  G27  f 47   1392.5 2045998.2  1.0  1.0  5  0        17
[16]  B07  7 36   -635.3 4092001.6  1.0  1.0  5  0      4965
[17]  B27  1  7   -452.9 4092001.3  0.1  0.0  1  0       550
[18]  B10  7 41   -708.9 4092001.9  1.0  1.0  5  0      4481
[19]  B28  7 18   2149.7 4091994.2  0.6  0.0 20  0       427
$GNGGA,000000.000,,,,,0,00,,,M,,,,0000*2B
$GNRMC,000000.000,A,,,,,,,000000,,*26
$GPGSA,A,1,,,,,,,,,,,,,,,*1E
$BDGSA,A,1,,,,,,,,,,,,,,,*0F
$GPGSV,2,1,06,04,00,000,42,07,00,000,48,08,00,000,47,09,00,000,47*74
$GPGSV,2,2,06,16,00,000,43,27,00,000,47*79
$BDGSV,1,1,03,07,00,000,36,10,00,000,41,28,00,000,18*5E
$LOGTIM,0,0.000000,0.000000,0.000000,0.000000,0.000*0A
EndT:        0
---00000011--- Acq_st=3 2019-5-22 03:12:56 
[00]  G04  f 42   -568.3 2046000.8  1.0  1.0  5  0 270793489
[01]  G07  f 48  -3366.9 2046004.4  1.0  1.0  5  0 270793490
[02]  G08  f 47   -848.9 2046001.1  1.0  1.0  5  0 270793498
[03]  G09  f 48    576.4 2045999.3  1.0  1.0  5  0 270793490
[04]  G16  f 43   1298.7 2045998.3  1.0  1.0  5  0 270793492
[05]  G27  f 47   1391.9 2045998.2  1.0  1.0  5  0 270793497
[16]  B07  7 36   -635.3 4092001.6  1.0  1.0  5  0      5965
[17]  B27  1  7   -423.5 4092001.3 -0.0  0.0  1  0      1550
[18]  B10  7 40   -710.5 4092001.9  1.0  1.0  5  0      5481
[19]  B28  7 46   2148.7 4091994.3  1.0  1.0  5  0      1427
$GNGGA,000000.000,,,,,0,00,,,M,,,,0000*2B
$GNRMC,000000.000,A,,,,,,,000000,,*26
$GPGSA,A,1,,,,,,,,,,,,,,,*1E
$BDGSA,A,1,,,,,,,,,,,,,,,*0F
$GPGSV,2,1,06,04,00,000,42,07,00,000,48,08,00,000,47,09,00,000,48*7B
$GPGSV,2,2,06,16,00,000,43,27,00,000,47*79
$BDGSV,1,1,03,07,00,000,36,10,00,000,40,28,00,000,46*54
$LOGTIM,0,0.000000,0.000000,0.000000,0.000000,0.000*0A
EndT:        0
---00000012--- Acq_st=3 2019-5-22 03:12:57 
[00]  G04  f 42   -569.7 2046000.7  1.0  1.0  5  0 270794489
[01]  G07  f 48  -3368.7 2046004.4  1.0  1.0  5  0 270794490
[02]  G08  f 48   -850.5 2046001.1  1.0  1.0  5  0 270794498
[03]  G09  f 48    574.8 2045999.2  1.0  1.0  5  0 270794490
[04]  G16  f 42   1296.7 2045998.3  1.0  1.0  5  0 270794492
[05]  G27  f 47   1390.2 2045998.2  1.0  1.0  5  0 270794497
[06]  G30  1  7  -3783.8 2046004.0  0.0  0.0  1  0         1
[16]  B07 1f 36   -638.3 4092001.7  1.0  0.9  5  0      6965
[18]  B10 1f 41   -712.5 4092001.9  1.0  1.0  5  0      6481
[19]  B28 1f 46   2146.7 4091994.3  1.0  1.0  5  0      2427
$GNGGA,000000.000,,,,,0,00,,,M,,,,0000*2B
$GNRMC,000000.000,A,,,,,,,000000,,*26
$GPGSA,A,1,,,,,,,,,,,,,,,*1E
$BDGSA,A,1,,,,,,,,,,,,,,,*0F
$GPGSV,2,1,06,04,00,000,42,07,00,000,48,08,00,000,48,09,00,000,48*74
$GPGSV,2,2,06,16,00,000,42,27,00,000,47*78
$BDGSV,1,1,03,07,00,000,36,10,00,000,41,28,00,000,46*55
$LOGTIM,0,0.000000,0.000000,0.000000,0.000000,0.000*0A
EndT:        0
---00000013--- Acq_st=3 2019-5-22 03:12:58 
[00]  G04  f 42   -569.9 2046000.7  1.0  1.0  5  0 270795489
[01]  G07  f 48  -3368.8 2046004.4  1.0  1.0  5  0 270795490
[02]  G08  f 47   -850.4 2046001.1  1.0  1.0  5  0 270795498
[03]  G09  f 48    575.0 2045999.2  1.0  1.0  5  0 270795490
[04]  G16  f 42   1296.2 2045998.3  1.0  1.0  5  0 270795492
[05]  G27  f 47   1390.4 2045998.2  1.0  1.0  5  0 270795497
[16]  B07 1f 36   -638.0 4092001.7  1.0  1.0  5  0 270781445
[18]  B10 1f 41   -712.5 4092001.9  1.0  1.0  5  0 270781441
[19]  B28 1f 46   2146.9 4091994.3  1.0  1.0  5  0 270781487
$GNGGA,000000.000,,,,,0,00,,,M,,,,0000*2B
$GNRMC,000000.000,A,,,,,,,000000,,*26
$GPGSA,A,1,,,,,,,,,,,,,,,*1E
$BDGSA,A,1,,,,,,,,,,,,,,,*0F
$GPGSV,2,1,06,04,00,000,42,07,00,000,48,08,00,000,47,09,00,000,48*7B
$GPGSV,2,2,06,16,00,000,42,27,00,000,47*78
$BDGSV,1,1,03,07,00,000,36,10,00,000,41,28,00,000,46*55
$LOGTIM,0,0.000000,0.000000,0.000000,0.000000,0.000*0A
EndT:        0
---00000014--- Acq_st=3 2019-5-22 03:12:59 
[00]  G04  f 42   -565.1 2046000.8  1.0  1.0  5  0 270796489
[01]  G07  f 47  -3364.9 2046004.4  1.0  1.0  5  0 270796490
[02]  G08  f 47   -845.9 2046001.1  1.0  1.0  5  0 270796498
[03]  G09  f 48    579.7 2045999.2  1.0  1.0  5  0 270796490
[04]  G16  f 43   1300.2 2045998.3  1.0  1.0  5  0 270796492
[05]  G27  f 47   1394.8 2045998.2  1.0  1.0  5  0 270796497
[16]  B07 1f 36   -634.0 4092001.6  1.0  0.9  5  0 270782445
[18]  B10 1f 41   -708.6 4092001.9  1.0  1.0  5  0 270782441
[19]  B28 1f 46   2151.2 4091994.3  1.0  1.0  5  0 270782487
$GNGGA,000000.000,,,,,0,00,,,M,,,,0000*2B
$GNRMC,000000.000,A,,,,,,,000000,,*26
$GPGSA,A,1,,,,,,,,,,,,,,,*1E
$BDGSA,A,1,,,,,,,,,,,,,,,*0F
$GPGSV,2,1,06,04,00,000,42,07,00,000,47,08,00,000,47,09,00,000,48*74
$GPGSV,2,2,06,16,00,000,43,27,00,000,47*79
$BDGSV,1,1,03,07,00,000,36,10,00,000,41,28,00,000,46*55
$LOGTIM,0,0.000000,0.000000,0.000000,0.000000,0.000*0A
EndT:        1
---00000015--- Acq_st=3 2019-5-22 03:13:0 
[00]  G04  f 42   -563.3 2046000.7  1.0  1.0  5  0 270797489
[01]  G07  f 47  -3363.3 2046004.4  1.0  1.0  5  0 270797490
[02]  G08  f 47   -844.1 2046001.1  1.0  1.0  5  0 270797498
[03]  G09  f 48    581.2 2045999.3  1.0  1.0  5  0 270797490
[04]  G16  f 43   1301.6 2045998.3  1.0  1.0  5  0 270797492
[05]  G27  f 46   1396.1 2045998.2  1.0  1.0  5  0 270797497
[16]  B07 1f 36   -633.3 4092001.5  1.0  1.0  5  0 270783445
[17]  B13  1  7  -4478.7 4092011.1 -0.0  0.0  1  0      2550
[18]  B10 1f 41   -707.3 4092001.8  1.0  1.0  5  0 270783441
[19]  B28 1f 46   2152.6 4091994.3  1.0  1.0  5  0 270783487
$GNGGA,000000.000,,,,,0,00,,,M,,,,0000*2B
$GNRMC,000000.000,A,,,,,,,000000,,*26
$GPGSA,A,1,,,,,,,,,,,,,,,*1E
$BDGSA,A,1,,,,,,,,,,,,,,,*0F
$GPGSV,2,1,06,04,00,000,42,07,00,000,47,08,00,000,47,09,00,000,48*74
$GPGSV,2,2,06,16,00,000,43,27,00,000,46*78
$BDGSV,1,1,03,07,00,000,36,10,00,000,41,28,00,000,46*55
$LOGTIM,0,0.000000,0.000000,0.000000,0.000000,0.000*0A
EndT:        0
---00000016--- Acq_st=3 2019-5-22 03:13:1 
[00]  G04  f 42   -563.3 2046000.7  1.0  1.0  5  0 270798489
[01]  G07  f 48  -3364.0 2046004.4  1.0  1.0  5  0 270798490
[02]  G08  f 48   -844.3 2046001.1  1.0  1.0  5  0 270798498
[03]  G09  f 48    580.8 2045999.2  1.0  1.0  5  0 270798490
[04]  G16  f 43   1300.9 2045998.3  1.0  1.0  5  0 270798492
[05]  G27  f 47   1395.9 2045998.2  1.0  1.0  5  0 270798497
[16]  B07 1f 36   -634.6 4092001.6  1.0  1.0  5  0 270784445
[17]  B13  1  7  -4434.7 4092011.0  0.2  0.0  1  0       267
[18]  B10 1f 41   -708.6 4092001.9  1.0  1.0  5  0 270784441
[19]  B28 1f 46   2151.9 4091994.3  1.0  1.0  5  0 270784487
$GNGGA,000000.000,,,,,0,00,,,M,,,,0000*2B
$GNRMC,000000.000,A,,,,,,,000000,,*26
$GPGSA,A,1,,,,,,,,,,,,,,,*1E
$BDGSA,A,1,,,,,,,,,,,,,,,*0F
$GPGSV,2,1,06,04,00,000,42,07,00,000,48,08,00,000,48,09,00,000,48*74
$GPGSV,2,2,06,16,00,000,43,27,00,000,47*79
$BDGSV,1,1,03,07,00,000,36,10,00,000,41,28,00,000,46*55
$LOGTIM,0,0.000000,0.000000,0.000000,0.000000,0.000*0A
EndT:        0
---00000017--- Acq_st=3 2019-5-22 03:13:2 
[00]  G04  f 41   -561.2 2046000.7  1.0  1.0  5  0 270799489
[01]  G07  f 48  -3361.9 2046004.4  1.0  1.0  5  0 270799490
[02]  G08  f 47   -842.5 2046001.1  1.0  1.0  5  0 270799498
[03]  G09  f 47    583.0 2045999.3  1.0  1.0  5  0 270799490
[04]  G16  f 43   1302.8 2045998.3  1.0  1.0  5  0 270799492
[05]  G27  f 46   1397.9 2045998.2  1.0  1.0  5  0 270799497
[16]  B07 1f 36   -633.0 4092001.7  1.0  0.9  5  0 270785445
[17]  B13  1  7  -4413.8 4092010.8  0.2  0.0  1  0      1267
[18]  B10 1f 41   -706.7 4092001.8  1.0  1.0  5  0 270785441
[19]  B28 1f 46   2153.8 4091994.3  1.0  1.0  5  0 270785487
$GNGGA,000000.000,,,,,0,00,,,M,,,,0000*2B
$GNRMC,000000.000,A,,,,,,,000000,,*26
$GPGSA,A,1,,,,,,,,,,,,,,,*1E
$BDGSA,A,1,,,,,,,,,,,,,,,*0F
$GPGSV,2,1,06,04,00,000,41,07,00,000,48,08,00,000,47,09,00,000,47*77
$GPGSV,2,2,06,16,00,000,43,27,00,000,46*78
$BDGSV,1,1,03,07,00,000,36,10,00,000,41,28,00,000,46*55
$LOGTIM,0,0.000000,0.000000,0.000000,0.000000,0.000*0A
EndT:        0
---00000018--- Acq_st=3 2019-5-22 03:13:3 
[00]  G04  f 41   -556.9 2046000.7  1.0  1.0  5  0 270800489
[01]  G07  f 48  -3358.1 2046004.4  1.0  1.0  5  0 270800490
[02]  G08  f 47   -838.3 2046001.1  1.0  1.0  5  0 270800498
[03]  G09  f 47    587.3 2045999.2  1.0  1.0  5  0 270800490
[04]  G16  f 43   1306.5 2045998.3  1.0  1.0  5  0 270800492
[05]  G27  f 47   1401.9 2045998.2  1.0  1.0  5  0 270800497
[16]  B07 1f 36   -628.7 4092001.6  1.0  1.0  5  0 270786445
[17]  B13  1  7  -4408.2 4092011.1  0.4  0.0  1  0      2267
[18]  B10 1f 41   -702.9 4092001.8  1.0  1.0  5  0 270786441
[19]  B28 1f 46   2158.1 4091994.3  1.0  1.0  5  0 270786487
$GNGGA,000000.000,,,,,0,00,,,M,,,,0000*2B
$GNRMC,000000.000,A,,,,,,,000000,,*26
$GPGSA,A,1,,,,,,,,,,,,,,,*1E
$BDGSA,A,1,,,,,,,,,,,,,,,*0F
$GPGSV,2,1,06,04,00,000,41,07,00,000,48,08,00,000,47,09,00,000,47*77
$GPGSV,2,2,06,16,00,000,43,27,00,000,47*79
$BDGSV,1,1,03,07,00,000,36,10,00,000,41,28,00,000,46*55
$LOGTIM,0,0.000000,0.000000,0.000000,0.000000,0.000*0A
EndT:        0
---00000019--- Acq_st=7 2019-5-22 03:13:4 
[00]  G04  f 41   -557.3 2046000.7  1.0  1.0  5  0 270801489
[01]  G07  f 48  -3358.3 2046004.4  1.0  1.0  5  0 270801490
[02]  G08  f 46   -837.9 2046001.1  1.0  1.0  5  0 270801498
[03]  G09  f 47    587.3 2045999.2  1.0  1.0  5  0 270801490
[04]  G16  f 44   1305.9 2045998.3  1.0  1.0  5  0 270801492
[05]  G27  f 47   1402.0 2045998.2  1.0  1.0  5  0 270801497
[16]  B07 1f 36   -629.8 4092001.7  1.0  1.0  5  0 270787445
[18]  B10 1f 41   -703.6 4092001.8  1.0  1.0  5  0 270787441
[19]  B28 1f 46   2157.5 4091994.3  1.0  1.0  5  0 270787487
$GNGGA,000000.000,,,,,0,00,,,M,,,,0000*2B
$GNRMC,000000.000,A,,,,,,,000000,,*26
$GPGSA,A,1,,,,,,,,,,,,,,,*1E
$BDGSA,A,1,,,,,,,,,,,,,,,*0F
$GPGSV,2,1,06,04,00,000,41,07,00,000,48,08,00,000,46,09,00,000,47*76
$GPGSV,2,2,06,16,00,000,44,27,00,000,47*7E
$BDGSV,1,1,03,07,00,000,36,10,00,000,41,28,00,000,46*55
$LOGTIM,0,0.000000,0.000000,0.000000,0.000000,0.000*0A
EndT:        0
---00000020--- Acq_st=3 2019-5-22 03:13:5 
[00]  G04  f 41   -558.0 2046000.7  1.0  1.0  5  0 270802489
[01]  G07  f 48  -3360.3 2046004.4  1.0  1.0  5  0 270802490
[02]  G08  f 47   -839.6 2046001.1  1.0  1.0  5  0 270802498
[03]  G09  f 47    585.8 2045999.2  1.0  1.0  5  0 270802490
[04]  G16  f 44   1304.1 2045998.3  1.0  1.0  5  0 270802492
[05]  G27  f 47   1400.1 2045998.2  1.0  1.0  5  0 270802497
[16]  B07 1f 36   -632.0 4092001.7  1.0  1.0  5  0 270788445
[18]  B10 1f 41   -705.9 4092001.8  1.0  1.0  5  0 270788441
[19]  B28 1f 46   2155.7 4091994.3  1.0  1.0  5  0 270788487
$GNGGA,000000.000,,,,,0,00,,,M,,,,0000*2B
$GNRMC,000000.000,A,,,,,,,000000,,*26
$GPGSA,A,1,,,,,,,,,,,,,,,*1E
$BDGSA,A,1,,,,,,,,,,,,,,,*0F
$GPGSV,2,1,06,04,00,000,41,07,00,000,48,08,00,000,47,09,00,000,47*77
$GPGSV,2,2,06,16,00,000,44,27,00,000,47*7E
$BDGSV,1,1,03,07,00,000,36,10,00,000,41,28,00,000,46*55
$LOGTIM,0,0.000000,0.000000,0.000000,0.000000,0.000*0A
EndT:        0
---00000021--- Acq_st=3 2019-5-22 03:13:6 
[00]  G04  f 41   -559.5 2046000.7  1.0  1.0  5  0 270803489
[01]  G07  f 47  -3362.2 2046004.4  1.0  1.0  5  0 270803490
[02]  G08  f 47   -841.3 2046001.1  1.0  1.0  5  0 270803498
[03]  G09  f 47    584.1 2045999.2  1.0  1.0  5  0 270803490
[04]  G16  f 44   1301.8 2045998.3  1.0  1.0  5  0 270803492
[05]  G27  f 47   1398.4 2045998.2  1.0  1.0  5  0 270803497
[06]  G30  1  7  -3784.8 2046004.0  0.0  0.0  1  0        13
[16]  B07 1f 36   -634.1 4092001.6  1.0  1.0  5  0 270789445
[18]  B10 1f 41   -708.3 4092001.8  1.0  1.0  5  0 270789441
[19]  B28 1f 46   2154.0 4091994.3  1.0  1.0  5  0 270789487
$GNGGA,000000.000,,,,,0,00,,,M,,,,0000*2B
$GNRMC,000000.000,A,,,,,,,000000,,*26
$GPGSA,A,1,,,,,,,,,,,,,,,*1E
$BDGSA,A,1,,,,,,,,,,,,,,,*0F
$GPGSV,2,1,06,04,00,000,41,07,00,000,47,08,00,000,47,09,00,000,47*78
$GPGSV,2,2,06,16,00,000,44,27,00,000,47*7E
$BDGSV,1,1,03,07,00,000,36,10,00,000,41,28,00,000,46*55
$LOGTIM,0,0.000000,0.000000,0.000000,0.000000,0.000*0A
EndT:        0
---00000022--- Acq_st=3 2019-5-22 03:13:7 
[00]  G04  f 41   -561.1 2046000.7  1.0  1.0  5  0 270804489
[01]  G07  f 48  -3363.9 2046004.4  1.0  1.0  5  0 270804490
[02]  G08  f 47   -842.9 2046001.1  1.0  1.0  5  0 270804498
[03]  G09  f 47    582.6 2045999.2  1.0  1.0  5  0 270804490
[04]  G16  f 43   1300.0 2045998.3  1.0  1.0  5  0 270804492
[05]  G27  f 47   1396.8 2045998.2  1.0  1.0  5  0 270804497
[06]  G30  1  7  -3634.3 2046003.8 -0.0  0.0  1  0         7
[16]  B07 1f 36   -635.3 4092001.8  1.0  0.9  5  0 270790445
[18]  B10 1f 41   -710.2 4092001.9  1.0  1.0  5  0 270790441
[19]  B28 1f 46   2151.9 4091994.4  1.0  1.0  5  0 270790487
$GNGGA,000000.000,,,,,0,00,,,M,,,,0000*2B
$GNRMC,000000.000,A,,,,,,,000000,,*26
$GPGSA,A,1,,,,,,,,,,,,,,,*1E
$BDGSA,A,1,,,,,,,,,,,,,,,*0F
$GPGSV,2,1,06,04,00,000,41,07,00,000,48,08,00,000,47,09,00,000,47*77
$GPGSV,2,2,06,16,00,000,43,27,00,000,47*79
$BDGSV,1,1,03,07,00,000,36,10,00,000,41,28,00,000,46*55
$LOGTIM,0,0.000000,0.000000,0.000000,0.000000,0.000*0A
EndT:        0
---00000023--- Acq_st=3 2019-5-22 03:13:8 
[00]  G04  f 42   -559.2 2046000.7  1.0  1.0  5  0 270805489
[01]  G07  f 48  -3362.2 2046004.4  1.0  1.0  5  0 270805490
[02]  G08  f 47   -840.7 2046001.1  1.0  1.0  5  0 270805498
[03]  G09  f 47    584.6 2045999.2  1.0  1.0  5  0 270805490
[04]  G16  f 43   1301.6 2045998.3  1.0  1.0  5  0 270805492
[05]  G27  f 47   1399.0 2045998.2  1.0  1.0  5  0 270805497
[06]  G30  1  7  -3513.9 2046004.2 -0.0  0.0  1  0         7
[16]  B07 1f 35   -634.5 4092001.7  1.0  1.0  5  0 270791445
[17]  B05  1 31  -2429.2 4092005.9  0.1  0.0  1  0      3267
[18]  B10 1f 41   -708.8 4092001.8  1.0  1.0  5  0 270791441
[19]  B28 1f 46   2153.8 4091994.4  1.0  1.0  5  0 270791487
[20]  B09  1  7  -3406.2 4092008.9  0.0  0.0  1  0         0
$GNGGA,000000.000,,,,,0,00,,,M,,,,0000*2B
$GNRMC,000000.000,A,,,,,,,000000,,*26
$GPGSA,A,1,,,,,,,,,,,,,,,*1E
$BDGSA,A,1,,,,,,,,,,,,,,,*0F
$GPGSV,2,1,06,04,00,000,42,07,00,000,48,08,00,000,47,09,00,000,47*74
$GPGSV,2,2,06,16,00,000,43,27,00,000,47*79
$BDGSV,1,1,03,07,00,000,35,10,00,000,41,28,00,000,46*56
$LOGTIM,0,0.000000,0.000000,0.000000,0.000000,0.000*0A
EndT:        0
---00000024--- Acq_st=3 2019-5-22 03:13:9 
[00]  G04  f 42   -556.3 2046000.7  1.0  1.0  5  0 270806489
[01]  G07  f 47  -3359.6 2046004.4  1.0  1.0  5  0 270806490
[02]  G08  f 46   -837.8 2046001.1  1.0  1.0  5  0 270806498
[03]  G09  f 48    587.4 2045999.2  1.0  1.0  5  0 270806490
[04]  G16  f 42   1304.5 2045998.3  1.0  1.0  5  0 270806492
[05]  G27  f 47   1401.5 2045998.2  1.0  1.0  5  0 270806497
[06]  G30  1 17  -3354.8 2046004.0 -0.1  0.0  1  0         7
[16]  B07 1f 36   -632.4 4092001.7  1.0  1.0  5  0 270792445
[17]  B05  1 33  -2413.5 4092006.7  0.8  0.0  1  0       755
[18]  B10 1f 41   -706.6 4092001.8  1.0  1.0  5  0 270792441
[19]  B28 1f 46   2156.5 4091994.3  1.0  1.0  5  0 270792487
[20]  B09  1  7  -3410.1 4092009.3  0.1  0.0  1  0       140
[21]  B13  1  7  -4455.3 4092011.0 -0.1  0.0  1  0         0
$GNGGA,000000.000,,,,,0,00,,,M,,,,0000*2B
$GNRMC,000000.000,A,,,,,,,000000,,*26
$GPGSA,A,1,,,,,,,,,,,,,,,*1E
$BDGSA,A,1,,,,,,,,,,,,,,,*0F
$GPGSV,2,1,06,04,00,000,42,07,00,000,47,08,00,000,46,09,00,000,48*75
$GPGSV,2,2,06,16,00,000,42,27,00,000,47*78
$BDGSV,1,1,03,07,00,000,36,10,00,000,41,28,00,000,46*55
$LOGTIM,0,0.000000,0.000000,0.000000,0.000000,0.000*0A
EndT:        0
---00000025--- Acq_st=3 2019-5-22 03:13:10 
[00]  G04  f 42   -554.4 2046000.7  1.0  1.0  5  0 270807489
[01]  G07  f 47  -3358.4 2046004.4  1.0  1.0  5  0 270807490
[02]  G08  f 46   -836.5 2046001.1  1.0  1.0  5  0 270807498
[03]  G09  f 47    589.1 2045999.2  1.0  1.0  5  0 270807490
[04]  G16  f 43   1305.6 2045998.3  1.0  1.0  5  0 270807492
[05]  G27  f 47   1402.8 2045998.2  1.0  1.0  5  0 270807497
[16]  B07 1f 35   -632.1 4092001.6  1.0  1.0  5  0 270793445
[17]  B05  1 33  -2413.0 4092005.7 -0.3  0.0  1  0      1755
[18]  B10 1f 41   -706.1 4092001.8  1.0  1.0  5  0 270793441
[19]  B28 1f 46   2157.7 4091994.3  1.0  1.0  5  0 270793487
[20]  B09  1  7  -3426.1 4092008.8  0.1  0.0  1  0      1140
[21]  B13  1  7  -4415.8 4092010.9  0.0  0.0  1  0       524
$GNGGA,000000.000,,,,,0,00,,,M,,,,0000*2B
$GNRMC,000000.000,A,,,,,,,000000,,*26
$GPGSA,A,1,,,,,,,,,,,,,,,*1E
$BDGSA,A,1,,,,,,,,,,,,,,,*0F
$GPGSV,2,1,06,04,00,000,42,07,00,000,47,08,00,000,46,09,00,000,47*7A
$GPGSV,2,2,06,16,00,000,43,27,00,000,47*79
$BDGSV,1,1,03,07,00,000,35,10,00,000,41,28,00,000,46*56
$LOGTIM,0,0.000000,0.000000,0.000000,0.000000,0.000*0A
EndT:        0
---00000026--- Acq_st=3 2019-5-22 03:13:11 
[00]  G04  f 42   -555.7 2046000.7  1.0  1.0  5  0 270808489
[01]  G07  f 47  -3360.1 2046004.4  1.0  1.0  5  0 270808490
[02]  G08  f 46   -837.9 2046001.1  1.0  1.0  5  0 270808498
[03]  G09  f 47    587.7 2045999.3  1.0  1.0  5  0 270808490
[04]  G16  f 44   1303.7 2045998.3  1.0  1.0  5  0 270808492
[05]  G27  f 47   1401.5 2045998.2  1.0  1.0  5  0 270808497
[16]  B07 1f 36   -632.8 4092001.6  1.0  1.0  5  0 270794445
[18]  B10 1f 41   -707.3 4092001.8  1.0  1.0  5  0 270794441
[19]  B28 1f 46   2156.0 4091994.3  1.0  1.0  5  0 270794487
[20]  B09  1  7  -3382.8 4092009.4 -0.2  0.0  1  0      2140
[21]  B13  1  7  -4424.2 4092011.0  0.2  0.0  1  0      1524
$GNGGA,000000.000,,,,,0,00,,,M,,,,0000*2B
$GNRMC,000000.000,A,,,,,,,000000,,*26
$GPGSA,A,1,,,,,,,,,,,,,,,*1E
$BDGSA,A,1,,,,,,,,,,,,,,,*0F
$GPGSV,2,1,06,04,00,000,42,07,00,000,47,08,00,000,46,09,00,000,47*7A
$GPGSV,2,2,06,16,00,000,44,27,00,000,47*7E
$BDGSV,1,1,03,07,00,000,36,10,00,000,41,28,00,000,46*55
$LOGTIM,0,0.000000,0.000000,0.000000,0.000000,0.000*0A
EndT:        0
---00000027--- Acq_st=3 2019-5-22 03:13:12 
[00]  G04  f 42   -556.0 2046000.7  1.0  1.0  5  0 270809489
[01]  G07  f 47  -3360.9 2046004.4  1.0  1.0  5  0 270809490
[02]  G08  f 46   -838.3 2046001.1  1.0  1.0  5  0 270809498
[03]  G09  f 48    587.5 2045999.2  1.0  1.0  5  0 270809490
[04]  G16  f 43   1302.9 2045998.3  1.0  1.0  5  0 270809492
[05]  G27  f 47   1400.9 2045998.2  1.0  1.0  5  0 270809497
[16]  B07 1f 36   -634.3 4092001.7  1.0  1.0  5  0 270795445
[17]  B27  1  7   -517.9 4092000.9  0.1  0.0  1  0      2755
[18]  B10 1f 41   -708.7 4092001.8  1.0  1.0  5  0 270795441
[19]  B28 1f 46   2155.5 4091994.3  1.0  1.0  5  0 270795487
$GNGGA,000000.000,,,,,0,00,,,M,,,,0000*2B
$GNRMC,000000.000,A,,,,,,,000000,,*26
$GPGSA,A,1,,,,,,,,,,,,,,,*1E
$BDGSA,A,1,,,,,,,,,,,,,,,*0F
$GPGSV,2,1,06,04,00,000,42,07,00,000,47,08,00,000,46,09,00,000,48*75
$GPGSV,2,2,06,16,00,000,43,27,00,000,47*79
$BDGSV,1,1,03,07,00,000,36,10,00,000,41,28,00,000,46*55
$LOGTIM,0,0.000000,0.000000,0.000000,0.000000,0.000*0A
EndT:        0
---00000028--- Acq_st=7 2019-5-22 03:13:13 
[00]  G04  f 42   -556.0 2046000.7  1.0  1.0  5  0 270810489
[01]  G07  f 47  -3361.1 2046004.4  1.0  1.0  5  0 270810490
[02]  G08  f 47   -838.2 2046001.1  1.0  1.0  5  0 270810498
[03]  G09  f 48    587.3 2045999.2  1.0  1.0  5  0 270810490
[04]  G16  f 43   1302.1 2045998.3  1.0  1.0  5  0 270810492
[05]  G27  f 47   1400.8 2045998.2  1.0  1.0  5  0 270810497
[16]  B07 1f 35   -634.8 4092001.6  1.0  1.0  5  0 270796445
[17]  B27  1  7   -439.6 4092000.9  0.0  0.0  1  0       206
[18]  B10 1f 41   -709.6 4092001.8  1.0  1.0  5  0 270796441
[19]  B28 1f 46   2154.8 4091994.3  1.0  1.0  5  0 270796487
$GNGGA,000000.000,,,,,0,00,,,M,,,,0000*2B
$GNRMC,000000.000,A,,,,,,,000000,,*26
$GPGSA,A,1,,,,,,,,,,,,,,,*1E
$BDGSA,A,1,,,,,,,,,,,,,,,*0F
$GPGSV,2,1,06,04,00,000,42,07,00,000,47,08,00,000,47,09,00,000,48*74
$GPGSV,2,2,06,16,00,000,43,27,00,000,47*79
$BDGSV,1,1,03,07,00,000,35,10,00,000,41,28,00,000,46*56
$LOGTIM,0,0.000000,0.000000,0.000000,0.000000,0.000*0A
EndT:        0
---00000029--- Acq_st=3 2019-5-22 03:13:14 
[00]  G04  f 41   -555.5 2046000.7  1.0  1.0  5  0 270811489
[01]  G07  f 47  -3361.0 2046004.4  1.0  1.0  5  0 270811490
[02]  G08  f 47   -837.7 2046001.1  1.0  1.0  5  0 270811498
[03]  G09  f 47    587.7 2045999.3  1.0  1.0  5  0 270811490
[04]  G16  f 43   1302.3 2045998.3  1.0  1.0  5  0 270811492
[05]  G27  f 47   1401.1 2045998.2  1.0  1.0  5  0 270811497
[16]  B07 1f 36   -634.3 4092001.7  1.0  1.0  5  0 270797445
[17]  B27  1 11   -454.0 4092001.2  0.2  0.0  1  0      1206
[18]  B10 1f 41   -709.2 4092001.8  1.0  1.0  5  0 270797441
[19]  B28 1f 46   2155.6 4091994.3  1.0  1.0  5  0 270797487
$GNGGA,000000.000,,,,,0,00,,,M,,,,0000*2B
$GNRMC,000000.000,A,,,,,,,000000,,*26
$GPGSA,A,1,,,,,,,,,,,,,,,*1E
$BDGSA,A,1,,,,,,,,,,,,,,,*0F
$GPGSV,2,1,06,04,00,000,41,07,00,000,47,08,00,000,47,09,00,000,47*78
$GPGSV,2,2,06,16,00,000,43,27,00,000,47*79
$BDGSV,1,1,03,07,00,000,36,10,00,000,41,28,00,000,46*55
$LOGTIM,0,0.000000,0.000000,0.000000,0.000000,0.000*0A
EndT:        1
---00000030--- Acq_st=3 2019-5-22 03:13:15 
[00]  G04  f 41   -556.5 2046000.7  1.0  1.0  5  0 270812489
[01]  G07  f 47  -3362.2 2046004.4  1.0  1.0  5  0 270812490
[02]  G08  f 47   -838.8 2046001.1  1.0  1.0  5  0 270812498
[03]  G09  f 47    586.8 2045999.2  1.0  1.0  5  0 270812490
[04]  G16  f 43   1301.0 2045998.3  1.0  1.0  5  0 270812492
[05]  G27  f 47   1400.3 2045998.2  1.0  1.0  5  0 270812497
[06]  G22  1  7   1239.0 2045999.3  0.1  0.0  1  0         7
[07]  G30  1  7  -2479.1 2046005.4  0.0  0.0  1  0         0
[16]  B07 1f 35   -636.0 4092001.6  1.0  1.0  5  0 270798445
[17]  B27  1  7   -426.9 4092001.0 -0.1  0.0  1  0      2206
[18]  B10 1f 41   -710.5 4092001.8  1.0  1.0  5  0 270798441
[19]  B28 1f 46   2153.9 4091994.3  1.0  1.0  5  0 270798487
$GNGGA,000000.000,,,,,0,00,,,M,,,,0000*2B
$GNRMC,000000.000,A,,,,,,,000000,,*26
$GPGSA,A,1,,,,,,,,,,,,,,,*1E
$BDGSA,A,1,,,,,,,,,,,,,,,*0F
$GPGSV,2,1,06,04,00,000,41,07,00,000,47,08,00,000,47,09,00,000,47*78
$GPGSV,2,2,06,16,00,000,43,27,00,000,47*79
$BDGSV,1,1,03,07,00,000,35,10,00,000,41,28,00,000,46*56
$LOGTIM,0,0.000000,0.000000,0.000000,0.000000,0.000*0A
EndT:        0
---00000031--- Acq_st=3 2019-5-22 03:13:16 
[00]  G04  f 42   -556.0 2046000.7  1.0  1.0  5  0 270813489
[01]  G07  f 47  -3361.8 2046004.4  1.0  1.0  5  0 270813490
[02]  G08  f 47   -837.9 2046001.1  1.0  1.0  5  0 270813498
[03]  G09  f 48    587.6 2045999.2  1.0  1.0  5  0 270813490
[04]  G16  f 43   1301.4 2045998.3  1.0  1.0  5  0 270813492
[05]  G27  f 47   1400.8 2045998.2  1.0  1.0  5  0 270813497
[06]  G22  1  7   1078.9 2045999.1 -0.1  0.0  1  0         4
[16]  B07 1f 35   -635.5 4092001.7  1.0  1.0  5  0 270799445
[18]  B10 1f 41   -710.7 4092001.9  1.0  1.0  5  0 270799441
[19]  B28 1f 46   2154.8 4091994.3  1.0  1.0  5  0 270799487
$GNGGA,000000.000,,,,,0,00,,,M,,,,0000*2B
$GNRMC,000000.000,A,,,,,,,000000,,*26
$GPGSA,A,1,,,,,,,,,,,,,,,*1E
$BDGSA,A,1,,,,,,,,,,,,,,,*0F
$GPGSV,2,1,06,04,00,000,42,07,00,000,47,08,00,000,47,09,00,000,48*74
$GPGSV,2,2,06,16,00,000,43,27,00,000,47*79
$BDGSV,1,1,03,07,00,000,35,10,00,000,41,28,00,000,46*56
$LOGTIM,0,0.000000,0.000000,0.000000,0.000000,0.000*0A
EndT:        0
---00000032--- Acq_st=3 2019-5-22 03:13:17 
[00]  G04  f 42   -555.8 2046000.7  1.0  1.0  5  0 270814489
[01]  G07  f 48  -3362.3 2046004.4  1.0  1.0  5  0 270814490
[02]  G08  f 47   -838.3 2046001.1  1.0  1.0  5  0 270814498
[03]  G09  f 48    587.7 2045999.2  1.0  1.0  5  0 270814490
[04]  G16  f 44   1300.7 2045998.3  1.0  1.0  5  0 270814492
[05]  G27  f 47   1400.7 2045998.2  1.0  1.0  5  0 270814497
[06]  G22  1  7    943.2 2045999.0 -0.1  0.0  1  0         4
[16]  B07 1f 35   -637.8 4092001.7  1.0  1.0  5  0 270800445
[17]  B05  1 32  -2417.0 4092006.3  0.2  0.0  1  0      3206
[18]  B10 1f 41   -711.2 4092001.9  1.0  1.0  5  0 270800441
[19]  B28 1f 46   2154.3 4091994.4  1.0  1.0  5  0 270800487
$GNGGA,000000.000,,,,,0,00,,,M,,,,0000*2B
$GNRMC,000000.000,A,,,,,,,000000,,*26
$GPGSA,A,1,,,,,,,,,,,,,,,*1E
$BDGSA,A,1,,,,,,,,,,,,,,,*0F
$GPGSV,2,1,06,04,00,000,42,07,00,000,48,08,00,000,47,09,00,000,48*7B
$GPGSV,2,2,06,16,00,000,44,27,00,000,47*7E
$BDGSV,1,1,03,07,00,000,35,10,00,000,41,28,00,000,46*56
$LOGTIM,0,0.000000,0.000000,0.000000,0.000000,0.000*0A
EndT:        0
---00000033--- Acq_st=3 2019-5-22 03:13:18 
[00]  G04  f 42   -557.4 2046000.7  1.0  1.0  5 3f 270815489
[01]  G07  f 47  -3364.5 2046004.4  1.0  1.0  5  0 270815490
[02]  G08  f 47   -840.2 2046001.1  1.0  1.0  5  0 270815498
[03]  G09  f 48    585.5 2045999.2  1.0  1.0  5  0 270815490
[04]  G16  f 44   1298.4 2045998.3  1.0  1.0  5  0 270815492
[05]  G27  f 47   1398.5 2045998.2  1.0  1.0  5  0 270815497
[16]  B07 1f 36   -638.5 4092001.7  1.0  1.0  5  0 270801445
[17]  B05  1 34  -2409.8 4092006.6 -0.8  0.0  1  0       810
[18]  B10 1f 42   -713.6 4092001.9  1.0  1.0  5  0 270801441
[19]  B28 1f 46   2151.9 4091994.3  1.0  1.0  5  0 270801487
[20]  B13  1  7  -4619.8 4092012.0  0.0  0.0  1  0      3140
lsq: nits= 4
$GNGGA,031318.566,3112.7074,N,12136.4472,E,1,07,2.3,-26.0,M,,,,0000*04
$GNRMC,031318.566,A,3112.7074,N,12136.4472,E,0.07,0.00,220519,,*1D
$GPGSA,A,3,07,08,09,16,,,,,,,,,3.5,2.3,2.7*31
$BDGSA,A,3,07,10,28,,,,,,,,,,3.5,2.3,2.7*2D
$GPGSV,2,1,06,04,00,000,42,07,00,000,47,08,00,000,47,09,00,000,48*74
$GPGSV,2,2,06,16,00,000,44,27,00,000,47*7E
$BDGSV,1,1,03,07,00,000,36,10,00,000,42,28,00,000,46*56
$LOGTIM,3,9583831.224274,9583650.903646,0.000000,0.000000,-64.165*16
EndT:        1
---00000034--- Acq_st=3 2019-5-22 03:13:19 
[00]  G04  f 41   -559.6 2046000.7  1.0  1.0  5 3f 270816489
[01]  G07  f 47  -3366.6 2046004.4  1.0  1.0  5  0 270816490
[02]  G08  f 47   -841.8 2046001.1  1.0  1.0  5  0 270816498
[03]  G09  f 48    583.9 2045999.3  1.0  1.0  5  0 270816490
[04]  G16  f 44   1296.3 2045998.4  1.0  1.0  5  0 270816492
[05]  G27  f 47   1396.8 2045998.2  1.0  1.0  5  0 270816497
[16]  B07 1f 35   -641.3 4092001.7  1.0  1.0  5  0 270802445
[17]  B05  1 33  -2403.7 4092007.1  0.1  0.0  1  0      1810
[18]  B10 1f 42   -716.0 4092001.8  1.0  1.0  5  0 270802441
[19]  B28 1f 46   2150.0 4091994.4  1.0  1.0  5  0 270802487
[20]  B13  1  7  -4420.9 4092011.9  0.1  0.0  1  0       457
lsq: nits= 2
$GNGGA,031320.000,3112.7066,N,12136.4348,E,1,07,1.7,16.5,M,,,,0000*2B
$GNRMC,031320.000,A,3112.7066,N,12136.4348,E,2.16,117.00,220519,,*1B
$GPGSA,A,3,07,08,09,16,,,,,,,,,2.0,1.7,1.0*36
$BDGSA,A,3,07,10,28,,,,,,,,,,2.0,1.7,1.0*2A
$GPGSV,2,1,06,04,00,000,41,07,00,000,47,08,00,000,47,09,00,000,48*77
$GPGSV,2,2,06,16,00,000,44,27,00,000,47*7E
$BDGSV,1,1,03,07,00,000,35,10,00,000,42,28,00,000,46*55
$LOGTIM,3,-60.546720,-220.435752,0.000000,0.000000,-62.772*24
EndT:        3
---00000035--- Acq_st=3 2019-5-22 03:13:20 
[00]  G04  f 41   -560.6 2046000.7  1.0  1.0  5 3f 270817922
[01]  G07  f 47  -3368.1 2046004.4  1.0  1.0  5  0 270817924
[02]  G08  f 47   -843.0 2046001.1  1.0  1.0  5  0 270817931
[03]  G09  f 47    582.6 2045999.3  1.0  1.0  5  0 270817924
[04]  G16  f 44   1294.6 2045998.3  1.0  1.0  5  0 270817926
[05]  G27  f 46   1395.2 2045998.2  1.0  1.0  5  0 270817931
[16]  B07 1f 35   -643.8 4092001.7  1.0  0.9  5  0 270803879
[18]  B10 1f 42   -718.0 4092001.9  1.0  1.0  5  0 270803875
[19]  B28 1f 46   2148.5 4091994.4  1.0  1.0  5  0 270803920
[20]  B13  1  7  -4409.9 4092012.0  0.0  0.0  1  0      1891
lsq: nits= 2
$GNGGA,031321.000,3112.7112,N,12136.4338,E,1,07,1.7,32.8,M,,,,0000*24
$GNRMC,031321.000,A,3112.7112,N,12136.4338,E,2.17,112.01,220519,,*1A
$GPGSA,A,3,07,08,09,16,,,,,,,,,2.0,1.7,1.0*36
$BDGSA,A,3,07,10,28,,,,,,,,,,2.0,1.7,1.0*2A
$GPGSV,2,1,06,04,00,000,41,07,34,317,47,08,72,264,47,09,29,267,47*77
$GPGSV,2,2,06,16,40,056,44,27,00,000,46*78
$BDGSV,1,1,03,07,67,010,35,10,52,317,42,28,35,042,46*57
$LOGTIM,3,-112.644279,-269.895087,0.000000,0.000000,-63.111*1E
EndT:        3
---00000036--- Acq_st=3 2019-5-22 03:13:22 
[00]  G04  f 42   -560.5 2046000.7  1.0  1.0  5 3f 270818922
[01]  G07  f 47  -3368.5 2046004.4  1.0  1.0  5  0 270818924
[02]  G08  f 47   -843.4 2046001.1  1.0  1.0  5  0 270818931
[03]  G09  f 47    582.4 2045999.3  1.0  1.0  5  0 270818924
[04]  G16  f 44   1294.1 2045998.3  1.0  1.0  5  0 270818926
[05]  G27  f 46   1395.1 2045998.2  1.0  1.0  5  0 270818931
[16]  B07 1f 35   -643.9 4092001.7  1.0  0.9  5  0 270804879
[18]  B10 1f 41   -718.4 4092001.9  1.0  1.0  5  0 270804875
[19]  B28 1f 46   2148.3 4091994.3  1.0  1.0  5  0 270804920
lsq: nits= 2
$GNGGA,031322.000,3112.7136,N,12136.4334,E,1,06,1.8,42.0,M,,,,0000*2C
$GNRMC,031322.000,A,3112.7136,N,12136.4334,E,1.71,112.01,220519,,*10
$GPGSA,A,3,07,08,09,16,,,,,,,,,2.1,1.8,1.0*38
$BDGSA,A,3,07,10,,,,,,,,,,,2.1,1.8,1.0*2E
$GPGSV,2,1,06,04,00,000,42,07,34,317,47,08,72,264,47,09,29,267,47*74
$GPGSV,2,2,06,16,40,056,44,27,00,000,46*78
$BDGSV,1,1,04,07,67,010,35,10,52,317,41,28,35,042,46,03,51,200,00*66
$LOGTIM,3,-171.418583,-327.278405,0.000000,0.000000,-63.295*11
EndT:        3
---00000037--- Acq_st=7 2019-5-22 03:13:22 
[00]  G04  f 41   -559.5 2046000.7  1.0  1.0  5 3f 270819922
[01]  G07  f 47  -3367.6 2046004.4  1.0  1.0  5  0 270819924
[02]  G08  f 46   -842.0 2046001.1  1.0  1.0  5  0 270819931
[03]  G09  f 47    583.7 2045999.2  1.0  1.0  5  0 270819924
[04]  G16  f 43   1295.0 2045998.3  1.0  1.0  5  0 270819926
[05]  G27  f 47   1396.1 2045998.2  1.0  1.0  5  0 270819931
[16]  B07 1f 35   -643.8 4092001.7  1.0  0.9  5  0 270805879
[18]  B10 1f 41   -718.0 4092001.9  1.0  1.0  5  0 270805875
[19]  B28 1f 46   2148.9 4091994.3  1.0  1.0  5  0 270805920
lsq: nits= 2
$GNGGA,031323.000,3112.7155,N,12136.4327,E,1,06,1.8,49.5,M,,,,0000*24
$GNRMC,031323.000,A,3112.7155,N,12136.4327,E,1.50,112.01,220519,,*15
$GPGSA,A,3,07,08,09,16,,,,,,,,,2.1,1.8,1.1*39
$BDGSA,A,3,07,28,,,,,,,,,,,2.1,1.8,1.1*24
$GPGSV,2,1,06,04,00,000,41,07,34,317,47,08,72,264,46,09,29,267,47*76
$GPGSV,2,2,06,16,40,056,43,27,00,000,47*7E
$BDGSV,1,1,04,07,67,010,35,10,52,317,41,28,35,042,46,03,51,200,00*66
$LOGTIM,3,-231.195602,-386.218984,0.000000,0.000000,-63.257*1B
EndT:        3
---00000038--- Acq_st=3 2019-5-22 03:13:23 
[00]  G04  f 41   -556.7 2046000.7  1.0  1.0  5 3f 270820922
[01]  G07  f 47  -3365.7 2046004.4  1.0  1.0  5  0 270820924
[02]  G08  f 46   -839.8 2046001.1  1.0  1.0  5  0 270820931
[03]  G09  f 47    585.8 2045999.2  1.0  1.0  5  0 270820924
[04]  G16  f 43   1296.6 2045998.3  1.0  1.0  5  0 270820926
[05]  G27  f 46   1398.3 2045998.2  1.0  1.0  5  0 270820931
[16]  B07 1f 35   -640.8 4092001.6  1.0  1.0  5  0 270806879
[18]  B10 1f 41   -716.1 4092001.9  1.0  1.0  5  0 270806875
[19]  B28 1f 46   2150.9 4091994.4  1.0  1.0  5  0 270806920
lsq: nits= 2
$GNGGA,031324.000,3112.7160,N,12136.4330,E,1,07,1.7,53.3,M,,,,0000*20
$GNRMC,031324.000,A,3112.7160,N,12136.4330,E,1.18,112.01,220519,,*1E
$GPGSA,A,3,07,08,09,16,,,,,,,,,2.0,1.7,1.0*36
$BDGSA,A,3,07,10,28,,,,,,,,,,2.0,1.7,1.0*2A
$GPGSV,2,1,06,04,00,000,41,07,34,317,47,08,72,264,46,09,29,267,47*76
$GPGSV,2,2,06,16,40,056,43,27,00,000,46*7F
$BDGSV,1,1,04,07,67,010,35,10,52,317,41,28,35,042,46,03,51,200,00*66
$LOGTIM,3,-293.547855,-447.194673,0.000000,0.000000,-63.398*1C
EndT:        3
---00000039--- Acq_st=3 2019-5-22 03:13:24 
[00]  G04  f 41   -557.4 2046000.7  1.0  1.0  5 3f 270821922
[01]  G07  f 47  -3366.5 2046004.4  1.0  1.0  5  0 270821924
[02]  G08  f 47   -840.5 2046001.1  1.0  1.0  5  0 270821931
[03]  G09  f 48    585.3 2045999.2  1.0  1.0  5  0 270821924
[04]  G16  f 43   1295.8 2045998.3  1.0  1.0  5  0 270821926
[05]  G27  f 47   1397.4 2045998.2  1.0  1.0  5  0 270821931
[06]  G30  1  7  -1522.2 2046004.0  0.0  0.0  1  0         4
[16]  B07 1f 35   -642.6 4092001.7  1.0  0.9  5  0 270807879
[18]  B10 1f 42   -717.2 4092001.8  1.0  1.0  5  0 270807875
[19]  B28 1f 47   2150.5 4091994.3  1.0  1.0  5  0 270807920
lsq: nits= 2
$GNGGA,031325.000,3112.7158,N,12136.4331,E,1,08,1.7,57.1,M,,,,0000*22
$GNRMC,031325.000,A,3112.7158,N,12136.4331,E,0.87,112.01,220519,,*12
$GPGSA,A,3,07,08,09,16,27,,,,,,,,2.0,1.7,1.0*33
$BDGSA,A,3,07,10,28,,,,,,,,,,2.0,1.7,1.0*2A
$GPGSV,2,1,06,04,00,000,41,07,34,317,47,08,72,264,47,09,29,267,48*78
$GPGSV,2,2,06,16,40,056,43,27,00,000,47*7E
$BDGSV,1,1,04,07,67,010,35,10,52,317,42,28,35,042,47,03,51,200,00*64
$LOGTIM,3,-356.618666,-509.483932,0.000000,0.000000,-63.542*10
EndT:        3
---00000040--- Acq_st=3 2019-5-22 03:13:25 
[00]  G04  f 41   -555.1 2046000.7  1.0  1.0  5 3f 270822922
[01]  G07  f 47  -3364.4 2046004.4  1.0  1.0  5  0 270822924
[02]  G08  f 47   -838.0 2046001.1  1.0  1.0  5  0 270822931
[03]  G09  f 48    588.0 2045999.2  1.0  1.0  5  0 270822924
[04]  G16  f 43   1297.8 2045998.3  1.0  1.0  5  0 270822926
[05]  G27  f 46   1399.8 2045998.2  1.0  1.0  5  0 270822931
[06]  G30  1 24  -3821.3 2046007.9  0.0  0.0  1  0         7
[16]  B07 1f 35   -640.3 4092001.7  1.0  1.0  5  0 270808879
[18]  B10 1f 42   -715.1 4092001.9  1.0  0.9  5  0 270808875
[19]  B28 1f 47   2152.7 4091994.4  1.0  1.0  5  0 270808920
lsq: nits= 2
$GNGGA,031326.000,3112.7153,N,12136.4333,E,1,08,1.7,59.2,M,,,,0000*25
$GNRMC,031326.000,A,3112.7153,N,12136.4333,E,0.51,112.01,220519,,*13
$GPGSA,A,3,07,08,09,16,27,,,,,,,,2.0,1.7,1.0*33
$BDGSA,A,3,07,10,28,,,,,,,,,,2.0,1.7,1.0*2A
$GPGSV,2,1,06,04,00,000,41,07,34,317,47,08,72,264,47,09,29,267,48*78
$GPGSV,2,2,06,16,40,056,43,27,62,026,46*7F
$BDGSV,1,1,04,07,67,010,35,10,52,317,42,28,35,042,47,03,51,200,00*64
$LOGTIM,3,-420.414337,-572.798007,0.000000,0.000000,-63.519*1D
EndT:        3
---00000041--- Acq_st=3 2019-5-22 03:13:26 
[00]  G04  f 41   -554.6 2046000.7  1.0  1.0  5 3f 270823922
[01]  G07  f 47  -3364.5 2046004.4  1.0  1.0  5  0 270823924
[02]  G08  f 47   -837.8 2046001.1  1.0  1.0  5  0 270823931
[03]  G09  f 48    587.9 2045999.2  1.0  1.0  5  0 270823924
[04]  G16  f 43   1297.5 2045998.3  1.0  1.0  5  0 270823926
[05]  G27  f 47   1399.9 2045998.2  1.0  1.0  5  0 270823931
[16]  B07 1f 34   -640.9 4092001.7  1.0  1.0  5  0 270809879
[17]  B05  1 31  -2411.4 4092005.2  0.0  0.0  1  0       215
[18]  B10 1f 41   -715.8 4092001.9  1.0  1.0  5  0 270809875
[19]  B28 1f 46   2152.4 4091994.3  1.0  1.0  5  0 270809920
[20]  B09  1  7  -3520.4 4092008.8  0.0  0.0  1  0      2891
lsq: nits= 2
$GNGGA,031327.000,3112.7145,N,12136.4334,E,1,08,1.7,60.4,M,,,,0000*28
$GNRMC,031327.000,A,3112.7145,N,12136.4334,E,0.43,112.01,220519,,*11
$GPGSA,A,3,07,08,09,16,27,,,,,,,,2.0,1.7,1.0*33
$BDGSA,A,3,07,10,28,,,,,,,,,,2.0,1.7,1.0*2A
$GPGSV,2,1,06,04,00,000,41,07,34,317,47,08,72,264,47,09,29,267,48*78
$GPGSV,2,2,06,16,40,056,43,27,62,026,47*7E
$BDGSV,1,1,04,07,67,010,34,10,52,317,41,28,35,042,46,03,51,200,00*67
$LOGTIM,3,-484.599597,-636.760859,0.000000,0.000000,-63.778*19
EndT:        3
---00000042--- Acq_st=3 2019-5-22 03:13:27 
[00]  G04  f 40   -554.0 2046000.7  1.0  1.0  5 3f 270824922
[01]  G07  f 47  -3364.4 2046004.4  1.0  1.0  5  0 270824924
[02]  G08  f 47   -837.1 2046001.1  1.0  1.0  5  0 270824931
[03]  G09  f 48    588.7 2045999.2  1.0  1.0  5  0 270824924
[04]  G16  f 43   1297.4 2045998.3  1.0  1.0  5  0 270824926
[05]  G27  f 47   1400.3 2045998.2  1.0  1.0  5  0 270824931
[16]  B07 1f 35   -641.4 4092001.7  1.0  1.0  5  0 270810879
[17]  B05  1 33  -2406.4 4092006.1  0.4  0.0  1  0      1215
[18]  B10 1f 41   -716.2 4092001.8  1.0  1.0  5  0 270810875
[19]  B28 1f 46   2152.6 4091994.3  1.0  1.0  5  0 270810920
[20]  B09  1  7  -3392.8 4092009.1 -0.2  0.0  1  0       600
[21]  B12  1  7  -3904.0 4092010.0 -0.1  0.0  1  0       109
[22]  B13  1  7  -4463.4 4092011.1 -0.0  0.0  1  0         0
lsq: nits= 2
$GNGGA,031328.000,3112.7139,N,12136.4330,E,1,07,1.8,61.5,M,,,,0000*28
$GNRMC,031328.000,A,3112.7139,N,12136.4330,E,0.31,112.01,220519,,*14
$GPGSA,A,3,07,08,09,16,27,,,,,,,,2.1,1.8,1.1*3C
$BDGSA,A,3,07,28,,,,,,,,,,,2.1,1.8,1.1*24
$GPGSV,2,1,06,04,00,000,40,07,34,317,47,08,72,264,47,09,29,267,48*79
$GPGSV,2,2,06,16,40,056,43,27,62,026,47*7E
$BDGSV,2,1,05,07,67,010,35,10,52,317,41,28,35,042,46,03,51,200,00*64
$BDGSV,2,2,05,27,84,145,00*54
$LOGTIM,3,-548.586370,-701.017615,0.000000,0.000000,-63.782*18
EndT:        2
---00000043--- Acq_st=3 2019-5-22 03:13:28 
[00]  G04  f 40   -551.1 2046000.7  1.0  1.0  5 3f 270825922
[01]  G07  f 48  -3361.8 2046004.4  1.0  1.0  5  0 270825924
[02]  G08  f 47   -834.7 2046001.1  1.0  1.0  5  0 270825931
[03]  G09  f 48    591.4 2045999.2  1.0  1.0  5  0 270825924
[04]  G16  f 43   1299.4 2045998.3  1.0  1.0  5  0 270825926
[05]  G27  f 47   1402.9 2045998.1  1.0  1.0  5  0 270825931
[16]  B07 1f 35   -638.4 4092001.7  1.0  1.0  5  0 270811879
[17]  B05  1 34  -2397.0 4092006.9 -0.2  0.0  1  0      2215
[18]  B10 1f 41   -713.6 4092001.8  1.0  1.0  5  0 270811875
[19]  B28 1f 46   2155.3 4091994.3  1.0  1.0  5  0 270811920
[20]  B09  1  7  -3407.2 4092009.0  0.0  0.0  1  0      1600
[21]  B12  1  7  -3877.9 4092010.0 -0.0  0.0  1  0      1109
[22]  B13  1  7  -4394.4 4092011.1  0.2  0.0  1  0       984
[23]  B15  1  7  -3387.5 4092009.2  0.1  0.0  1  0       493
lsq: nits= 2
$GNGGA,031329.000,3112.7126,N,12136.4332,E,1,08,1.7,61.1,M,,,,0000*21
$GNRMC,031329.000,A,3112.7126,N,12136.4332,E,0.10,112.01,220519,,*1A
$GPGSA,A,3,07,08,09,16,27,,,,,,,,2.0,1.7,1.0*33
$BDGSA,A,3,07,10,28,,,,,,,,,,2.0,1.7,1.0*2A
$GPGSV,2,1,06,04,00,000,40,07,34,317,48,08,72,264,47,09,29,267,48*76
$GPGSV,2,2,06,16,40,056,43,27,62,026,47*7E
$BDGSV,2,1,05,07,67,010,35,10,52,317,41,28,35,042,46,03,51,200,00*64
$BDGSV,2,2,05,27,84,145,00*54
$LOGTIM,3,-613.262987,-765.756497,0.000000,0.000000,-63.790*11
EndT:        3
---00000044--- Acq_st=3 2019-5-22 03:13:29 
[00]  G04  f 41   -552.5 2046000.7  1.0  1.0  5 3f 270826922
[01]  G07  f 47  -3363.2 2046004.4  1.0  1.0  5  0 270826924
[02]  G08  f 46   -835.9 2046001.1  1.0  1.0  5  0 270826931
[03]  G09  f 48    590.1 2045999.2  1.0  1.0  5  0 270826924
[04]  G16  f 42   1298.1 2045998.3  1.0  1.0  5  0 270826926
[05]  G27  f 46   1401.5 2045998.2  1.0  1.0  5  0 270826931
[16]  B07 1f 34   -640.4 4092001.6  1.0  1.0  5  0 270812879
[18]  B10 1f 41   -715.7 4092001.9  1.0  1.0  5  0 270812875
[19]  B28 1f 46   2153.7 4091994.3  1.0  1.0  5  0 270812920
[20]  B09  1  7  -3397.1 4092009.0 -0.1  0.0  1  0      2600
[21]  B12  1  8  -3861.4 4092010.1 -0.1  0.0  1  0      2109
[22]  B13  1  7  -4394.1 4092011.1  0.2  0.0  1  0      1984
[23]  B15  1  7  -3403.6 4092008.9  0.1  0.0  1  0      1493
lsq: nits= 2
$GNGGA,031330.000,3112.7114,N,12136.4326,E,1,07,1.8,60.7,M,,,,0000*2A
$GNRMC,031330.000,A,3112.7114,N,12136.4326,E,0.23,112.01,220519,,*16
$GPGSA,A,3,07,08,09,16,27,,,,,,,,2.1,1.8,1.0*3D
$BDGSA,A,3,07,10,,,,,,,,,,,2.1,1.8,1.0*2E
$GPGSV,2,1,06,04,00,000,41,07,34,317,47,08,72,264,46,09,29,267,48*79
$GPGSV,2,2,06,16,40,056,42,27,62,026,46*7E
$BDGSV,2,1,05,07,67,010,34,10,52,317,41,28,35,042,46,03,51,200,00*65
$BDGSV,2,2,05,27,84,145,00*54
$LOGTIM,3,-677.338885,-829.805346,0.000000,0.000000,-64.056*11
EndT:        2
---00000045--- Acq_st=3 2019-5-22 03:13:31 
[00]  G04  f 41   -552.5 2046000.7  1.0  1.0  5 3f 270827922
[01]  G07  f 48  -3363.9 2046004.4  1.0  1.0  5  0 270827924
[02]  G08  f 47   -836.2 2046001.1  1.0  1.0  5  0 270827931
[03]  G09  f 48    589.9 2045999.2  1.0  1.0  5  0 270827924
[04]  G16  f 44   1297.5 2045998.3  1.0  1.0  5  0 270827926
[05]  G27  f 46   1401.4 2045998.2  1.0  1.0  5  0 270827931
[16]  B07 1f 34   -641.4 4092001.6  1.0  1.0  5  0 270813879
[17]  B24  1  9  -4903.5 4092012.1 -0.1  0.0  1  0       403
[18]  B10 1f 41   -716.6 4092001.8  1.0  1.0  5  0 270813875
[19]  B28 1f 46   2153.0 4091994.4  1.0  1.0  5  0 270813920
[20]  B27  1  7   -540.7 4092000.9  0.0  0.0  1  0      2600
[21]  B29  1  7   -466.9 4092001.5 -0.0  0.0  1  0      3109
[23]  B15  1  7  -3398.0 4092009.0 -0.0  0.0  1  0      2493
lsq: nits= 2
$GNGGA,031331.000,3112.7115,N,12136.4325,E,1,08,1.7,60.4,M,,,,0000*2A
$GNRMC,031331.000,A,3112.7115,N,12136.4325,E,0.12,112.01,220519,,*17
$GPGSA,A,3,07,08,09,16,27,,,,,,,,2.0,1.7,1.0*33
$BDGSA,A,3,07,10,28,,,,,,,,,,2.0,1.7,1.0*2A
$GPGSV,2,1,06,04,00,000,41,07,34,317,48,08,72,264,47,09,29,267,48*77
$GPGSV,2,2,06,16,40,056,44,27,62,026,46*78
$BDGSV,2,1,05,07,67,010,34,10,52,317,41,28,35,042,46,03,51,200,00*65
$BDGSV,2,2,05,27,84,145,00*54
$LOGTIM,3,-741.599436,-894.440347,0.000000,0.000000,-64.037*11
EndT:        2
---00000046--- Acq_st=7 2019-5-22 03:13:31 
[00]  G04  f 41   -549.0 2046000.7  1.0  1.0  5 3f 270828922
[01]  G07  f 47  -3360.8 2046004.4  1.0  1.0  5  0 270828924
[02]  G08  f 46   -832.7 2046001.1  1.0  1.0  5  0 270828931
[03]  G09  f 48    593.3 2045999.2  1.0  1.0  5  0 270828924
[04]  G16  f 43   1300.3 2045998.3  1.0  1.0  5  0 270828926
[05]  G27  f 46   1404.5 2045998.2  1.0  1.0  5  0 270828931
[16]  B07 1f 34   -638.8 4092001.6  1.0  1.0  5  0 270814879
[17]  B24  1  7  -4892.2 4092011.9  0.0  0.0  1  0      1403
[18]  B10 1f 41   -713.4 4092001.9  1.0  1.0  5  0 270814875
[19]  B28 1f 46   2156.6 4091994.3  1.0  1.0  5  0 270814920
[20]  B27  1  7   -402.7 4092001.1  0.0  0.0  1  0       788
[21]  B29  1  7   -396.1 4092001.1  0.1  0.0  1  0       664
lsq: nits= 2
$GNGGA,031332.000,3112.7120,N,12136.4322,E,1,08,1.7,60.1,M,,,,0000*2D
$GNRMC,031332.000,A,3112.7120,N,12136.4322,E,0.15,112.01,220519,,*12
$GPGSA,A,3,07,08,09,16,27,,,,,,,,2.0,1.7,1.0*33
$BDGSA,A,3,07,10,28,,,,,,,,,,2.0,1.7,1.0*2A
$GPGSV,2,1,06,04,00,000,41,07,34,317,47,08,72,264,46,09,29,267,48*79
$GPGSV,2,2,06,16,40,056,43,27,62,026,46*7F
$BDGSV,2,1,05,07,67,010,34,10,52,317,41,28,35,042,46,03,51,200,00*65
$BDGSV,2,2,05,27,84,145,00*54
$LOGTIM,3,-805.393218,-958.494532,0.000000,0.000000,-63.886*11
EndT:        2
---00000047--- Acq_st=3 2019-5-22 03:13:32 
[00]  G04  f 41   -551.3 2046000.8  1.0  1.0  5 3f 270829922
[01]  G07  f 47  -3363.5 2046004.4  1.0  1.0  5  0 270829924
[02]  G08  f 47   -834.9 2046001.1  1.0  1.0  5  0 270829931
[03]  G09  f 48    590.8 2045999.2  1.0  1.0  5  0 270829924
[04]  G16  f 44   1297.8 2045998.3  1.0  1.0  5  0 270829926
[05]  G27  f 47   1402.2 2045998.2  1.0  1.0  5  0 270829931
[16]  B07 1f 34   -641.5 4092001.6  1.0  0.9  5  0 270815879
[17]  B24  1  7  -4922.6 4092012.1  0.0  0.0  1  0      2403
[18]  B10 1f 41   -716.2 4092001.8  1.0  1.0  5  0 270815875
[19]  B28 1f 46   2153.8 4091994.4  1.0  1.0  5  0 270815920
[20]  B27  1  7   -368.9 4092001.1  0.2  0.0  1  0      1788
[21]  B29  1  7   -399.3 4092000.9 -0.0  0.0  1  0      1664
lsq: nits= 2
$GNGGA,031333.000,3112.7125,N,12136.4305,E,1,07,1.8,60.6,M,,,,0000*2B
$GNRMC,031333.000,A,3112.7125,N,12136.4305,E,0.63,112.01,220519,,*12
$GPGSA,A,3,07,08,09,16,27,,,,,,,,2.1,1.8,1.0*3D
$BDGSA,A,3,07,10,,,,,,,,,,,2.1,1.8,1.0*2E
$GPGSV,2,1,06,04,00,000,41,07,34,317,47,08,72,264,47,09,29,267,48*78
$GPGSV,2,2,06,16,40,056,44,27,62,026,47*79
$BDGSV,2,1,05,07,67,010,34,10,52,317,41,28,35,042,46,03,51,200,00*65
$BDGSV,2,2,05,27,84,145,00*54
$LOGTIM,3,-867.974553,-1020.985160,0.000000,0.000000,-64.078*29
EndT:        2
---00000048--- Acq_st=3 2019-5-22 03:13:33 
[00]  G04  f 40   -552.0 2046000.8  1.0  1.0  5 3f 270830922
[01]  G07  f 47  -3364.0 2046004.4  1.0  1.0  5  0 270830924
[02]  G08  f 47   -835.4 2046001.1  1.0  1.0  5  0 270830931
[03]  G09  f 47    590.5 2045999.2  1.0  1.0  5  0 270830924
[04]  G16  f 43   1296.8 2045998.3  1.0  1.0  5  0 270830926
[05]  G27  f 47   1401.5 2045998.2  1.0  1.0  5  0 270830931
[06]  G21  1 21   2355.0 2045997.1 -0.1  0.0  1  0         8
[07]  G30  1  7  -3756.3 2046005.7 -0.0  0.0  1  0         2
[16]  B07 1f 34   -642.7 4092001.6  1.0  0.9  5  0 270816879
[18]  B10 1f 41   -717.8 4092001.9  1.0  1.0  5  0 270816875
[19]  B28 1f 46   2152.7 4091994.4  1.0  1.0  5  0 270816920
[20]  B27  1  7   -417.8 4092001.0 -0.1  0.0  1  0      2788
[21]  B29  1  7   -392.6 4092001.2  0.1  0.0  1  0      2664
lsq: nits= 2
$GNGGA,031334.000,3112.7142,N,12136.4307,E,1,08,1.7,60.8,M,,,,0000*21
$GNRMC,031334.000,A,3112.7142,N,12136.4307,E,0.74,112.01,220519,,*10
$GPGSA,A,3,07,08,09,16,27,,,,,,,,2.0,1.7,1.0*33
$BDGSA,A,3,07,10,28,,,,,,,,,,2.0,1.7,1.0*2A
$GPGSV,2,1,06,04,00,000,40,07,34,317,47,08,72,264,47,09,29,267,47*76
$GPGSV,2,2,06,16,40,056,43,27,62,026,47*7E
$BDGSV,2,1,05,07,67,010,34,10,52,317,41,28,35,042,46,03,51,200,00*65
$BDGSV,2,2,05,27,84,145,00*54
$LOGTIM,3,-932.286915,-1085.536159,0.000000,0.000000,-64.289*2D
EndT:        2
---00000049--- Acq_st=3 2019-5-22 03:13:34 
[00]  G04  f 40   -551.5 2046000.7  1.0  1.0  5 3f 270831922
[01]  G07  f 47  -3364.2 2046004.4  1.0  1.0  5  0 270831924
[02]  G08  f 47   -835.2 2046001.1  1.0  1.0  5  0 270831931
[03]  G09  f 47    591.0 2045999.2  1.0  1.0  5  0 270831924
[04]  G16  f 42   1297.0 2045998.3  1.0  1.0  5  0 270831926
[05]  G27  f 46   1401.9 2045998.2  1.0  1.0  5  0 270831931
[16]  B07 1f 34   -641.5 4092001.8  1.0  1.0  5  0 270817879
[18]  B10 1f 41   -717.6 4092001.9  1.0  1.0  5  0 270817875
[19]  B28 1f 46   2153.2 4091994.3  1.0  1.0  5  0 270817920
lsq: nits= 2
$GNGGA,031335.000,3112.7154,N,12136.4310,E,1,08,1.7,60.3,M,,,,0000*2A
$GNRMC,031335.000,A,3112.7154,N,12136.4310,E,0.61,112.01,220519,,*14
$GPGSA,A,3,07,08,09,16,27,,,,,,,,2.0,1.7,1.0*33
$BDGSA,A,3,07,10,28,,,,,,,,,,2.0,1.7,1.0*2A
$GPGSV,2,1,06,04,00,000,40,07,34,317,47,08,72,264,47,09,29,267,47*76
$GPGSV,2,2,06,16,40,056,42,27,62,026,46*7E
$BDGSV,2,1,05,07,67,010,34,10,52,317,41,28,35,042,46,03,51,200,00*65
$BDGSV,2,2,05,27,84,145,00*54
$LOGTIM,3,-997.037910,-1150.368828,0.000000,0.000000,-64.403*20
EndT:        2
---00000050--- Acq_st=3 2019-5-22 03:13:35 
[00]  G04  f 40   -550.6 2046000.7  1.0  1.0  5 3f 270832922
[01]  G07  f 47  -3363.7 2046004.4  1.0  1.0  5  0 270832924
[02]  G08  f 47   -834.3 2046001.1  1.0  1.0  5  0 270832931
[03]  G09  f 47    591.6 2045999.2  1.0  1.0  5  0 270832924
[04]  G16  f 42   1297.3 2045998.4  1.0  1.0  5  0 270832926
[05]  G27  f 46   1402.5 2045998.2  1.0  1.0  5  0 270832931
[16]  B07 1f 34   -642.1 4092001.7  1.0  1.0  5  0 270818879
[17]  B05  1 35  -2403.3 4092005.7  0.1  0.0  1  0       270
[18]  B10 1f 41   -717.7 4092001.9  1.0  1.0  5  0 270818875
[19]  B28 1f 47   2153.9 4091994.4  1.0  1.0  5  0 270818920
[20]  B09  1  7  -3498.1 4092009.3 -0.0  0.0  1  0      2788
lsq: nits= 2
$GNGGA,031336.000,3112.7164,N,12136.4309,E,1,08,1.7,59.4,M,,,,0000*2F
$GNRMC,031336.000,A,3112.7164,N,12136.4309,E,0.42,112.01,220519,,*1D
$GPGSA,A,3,07,08,09,16,27,,,,,,,,2.0,1.7,1.0*33
$BDGSA,A,3,07,10,28,,,,,,,,,,2.0,1.7,1.0*2A
$GPGSV,2,1,06,04,00,000,40,07,34,317,47,08,72,264,47,09,29,267,47*76
$GPGSV,2,2,06,16,40,056,42,27,62,026,46*7E
$BDGSV,2,1,05,07,67,010,34,10,52,317,41,28,35,042,47,03,51,200,00*64
$BDGSV,2,2,05,27,84,145,00*54
$LOGTIM,3,-1062.185281,-1215.513024,0.000000,0.000000,-64.460*10
EndT:        2
---00000051--- Acq_st=3 2019-5-22 03:13:36 
[00]  G04  f 41   -549.7 2046000.7  1.0  1.0  5 3f 270833922
[01]  G07  f 47  -3363.4 2046004.4  1.0  1.0  5  0 270833924
[02]  G08  f 48   -833.7 2046001.1  1.0  1.0  5  0 270833931
[03]  G09  f 48    592.3 2045999.2  1.0  1.0  5  0 270833924
[04]  G16  f 42   1297.7 2045998.3  1.0  1.0  5  0 270833926
[05]  G27  f 46   1403.0 2045998.2  1.0  1.0  5  0 270833931
[16]  B07 1f 34   -642.6 4092001.7  1.0  1.0  5  0 270819879
[17]  B05  1 33  -2402.4 4092004.6 -0.1  0.0  1  0      1270
[18]  B10 1f 41   -717.4 4092001.9  1.0  1.0  5  0 270819875
[19]  B28 1f 47   2154.1 4091994.3  1.0  1.0  5  0 270819920
[20]  B09  1  7  -3396.6 4092009.4  0.1  0.0  1  0       655
[21]  B13  1  7  -4571.0 4092011.6  0.0  0.0  1  0        39
lsq: nits= 2
$GNGGA,031337.000,3112.7172,N,12136.4306,E,1,08,1.7,58.1,M,,,,0000*22
$GNRMC,031337.000,A,3112.7172,N,12136.4306,E,0.31,112.01,220519,,*10
$GPGSA,A,3,07,08,09,16,27,,,,,,,,2.0,1.7,1.0*33
$BDGSA,A,3,07,10,28,,,,,,,,,,2.0,1.7,1.0*2A
$GPGSV,2,1,06,04,00,000,41,07,34,317,47,08,72,264,48,09,29,267,48*77
$GPGSV,2,2,06,16,40,056,42,27,62,026,46*7E
$BDGSV,2,1,05,07,67,010,34,10,52,317,41,28,35,042,47,03,51,200,00*64
$BDGSV,2,2,05,27,84,145,00*54
$LOGTIM,3,-1127.595207,-1280.859234,0.000000,0.000000,-64.543*17
EndT:        2
---00000052--- Acq_st=3 2019-5-22 03:13:37 
[00]  G04  f 41   -548.4 2046000.7  1.0  1.0  5 3f 270834922
[01]  G07  f 48  -3362.4 2046004.4  1.0  1.0  5  0 270834924
[02]  G08  f 48   -832.6 2046001.1  1.0  1.0  5  0 270834931
[03]  G09  f 47    593.4 2045999.2  1.0  1.0  5  0 270834924
[04]  G16  f 42   1298.3 2045998.3  1.0  1.0  5  0 270834926
[05]  G27  f 46   1403.9 2045998.2  1.0  1.0  5  0 270834931
[16]  B07 1f 33   -642.7 4092001.7  1.0  0.9  5  0 270820879
[17]  B05  1 33  -2394.8 4092005.9 -0.6  0.0  1  0      2270
[18]  B10 1f 41   -717.0 4092001.8  1.0  1.0  5  0 270820875
[19]  B28 1f 47   2155.2 4091994.3  1.0  1.0  5  0 270820920
[20]  B09  1  7  -3397.6 4092009.0 -0.0  0.0  1  0      1655
[21]  B13  1  7  -4397.7 4092012.0  0.0  0.0  1  0      1039
lsq: nits= 2
$GNGGA,031338.000,3112.7173,N,12136.4308,E,1,08,1.7,56.8,M,,,,0000*25
$GNRMC,031338.000,A,3112.7173,N,12136.4308,E,0.03,112.01,220519,,*11
$GPGSA,A,3,07,08,09,16,27,,,,,,,,2.0,1.7,1.0*33
$BDGSA,A,3,07,10,28,,,,,,,,,,2.0,1.7,1.0*2A
$GPGSV,2,1,07,04,00,000,41,07,34,317,48,08,72,264,48,09,29,267,47*76
$GPGSV,2,2,07,16,40,056,42,27,62,026,46,26,20,081,00*40
$BDGSV,2,1,05,07,67,010,33,10,52,317,41,28,35,042,47,03,51,200,00*63
$BDGSV,2,2,05,27,84,145,00*54
$LOGTIM,3,-1193.434302,-1346.614703,0.000000,0.000000,-64.625*18
EndT:        3
---00000053--- Acq_st=3 2019-5-22 03:13:38 
