SD initialized success
Create debug.log Failed! 3
bbram_blkflag = 1
rtcflag = 0
BBRAM Block OK: 01 EPHflag: 4660a1c8 8c4483ff, rtc 00
Hot-start nowtime:day = 24,minute = 29,seconds = 34.00
BD Pred_Dopp 1 -1245.80
BD Pred_Dopp 2 -1093.42
BD Pred_Dopp 3 -1229.10
GPS Pred_Dopp 4 -4817.39
BD Pred_Dopp 4 -1200.85
BD Pred_Dopp 5 -1193.21
BD Pred_Dopp 6  2913.15
GPS Pred_Dopp 7 -2374.38
BD Pred_Dopp 7 -5172.46
GPS Pred_Dopp 8 -6307.70
BD Pred_Dopp 8 -2973.26
GPS Pred_Dopp 9 -1971.90
BD Pred_Dopp 9 11781.63
BD Pred_Dopp 10 -24451.95
GPS Pred_Dopp 14  2463.34
GPS Pred_Dopp 16 -8244.81
BD Pred_Dopp 16  4310.54
BD Pred_Dopp 19 -2484.26
GPS Pred_Dopp 22 -27127.83
GPS Pred_Dopp 23 17703.85
BD Pred_Dopp 23 10390.11
GPS Pred_Dopp 26  4443.48
GPS Pred_Dopp 27 -13844.65
BD Pred_Dopp 27 -8634.61
BD Pred_Dopp 28 -12254.94
GPS Pred_Dopp 31  9966.40
BD Pred_Dopp 32 -7604.91
GPS 0 Init Dop: 10000,80
GPS 1 Init Dop: 10000,80
GPS 2 Init Dop: 10000,80
GPS 3 Init Dop: -4692, 2
GPS 4 Init Dop: 10000,80
GPS 5 Init Dop: 10000,80
GPS 6 Init Dop: -2249, 2
GPS 7 Init Dop: -6182, 2
GPS 8 Init Dop: -1846, 2
GPS 9 Init Dop: 10000,80
GPS10 Init Dop: 10000,80
GPS11 Init Dop: 10000,80
GPS12 Init Dop: 10000,80
GPS13 Init Dop:  2588, 2
GPS14 Init Dop: 10000,80
GPS15 Init Dop: -8119, 2
GPS16 Init Dop: 10000,80
GPS17 Init Dop: 10000,80
GPS18 Init Dop: 10000,80
GPS19 Init Dop: 10000,80
GPS20 Init Dop: 10000,80
GPS21 Init Dop:-27002, 2
GPS22 Init Dop: 17828, 2
GPS23 Init Dop: 10000,80
GPS24 Init Dop: 10000,80
GPS25 Init Dop:  4568, 2
GPS26 Init Dop:-13719, 2
GPS27 Init Dop: 10000,80
GPS28 Init Dop: 10000,80
GPS29 Init Dop: 10000,80
GPS30 Init Dop: 10091, 2
GPS31 Init Dop: 10000,80
BDS 0 Init Dop: -1120, 2
BDS 1 Init Dop:  -968, 2
BDS 2 Init Dop: -1104, 2
BDS 3 Init Dop: -1075, 2
BDS 4 Init Dop: -1068, 2
BDS 5 Init Dop:  3038, 2
BDS 6 Init Dop: -5047, 2
BDS 7 Init Dop: -2848, 2
BDS 8 Init Dop: 11906, 2
BDS 9 Init Dop:-24326, 2
BDS10 Init Dop: 10000,80
BDS11 Init Dop: 10000,80
BDS12 Init Dop: 10000,80
BDS13 Init Dop: 10000,80
BDS14 Init Dop: 10000,80
BDS15 Init Dop:  4435, 2
BDS16 Init Dop: 10000,80
BDS17 Init Dop: 10000,80
BDS18 Init Dop: -2359, 2
BDS19 Init Dop: 10000,80
BDS20 Init Dop: 10000,80
BDS21 Init Dop: 10000,80
BDS22 Init Dop: 10515, 2
BDS23 Init Dop: 10000,80
BDS24 Init Dop: 10000,80
BDS25 Init Dop: 10000,80
BDS26 Init Dop: -8509, 2
BDS27 Init Dop:-12129, 2
BDS28 Init Dop: 10000,80
BDS29 Init Dop: 10000,80
BDS30 Init Dop: 10000,80
BDS31 Init Dop: -7479, 2
Good luck!
$GNGGA,000000.000,,,,,0,00,,,M,,,,0000*2B
$GNRMC,000000.000,A,,,,,,,060180,,*29
$GPGSA,A,1,,,,,,,,,,,,,,,*1E
$BDGSA,A,1,,,,,,,,,,,,,,,*0F
$GLGSA,A,1,,,,,,,,,,,,,,,*02
$B3CN0,0,0,0,0,0,0,0,0,0,0,0,0,0,0*4C
---00000001--- Acq_st=3 0  2019-4-24 3:29:35 
ch18 satid=39 freq=-1104 acq ok!
$GNGGA,000000.000,,,,,0,00,,,M,,,,0000*2B
$GNRMC,000000.000,A,,,,,,,060180,,*29
$GPGSA,A,1,,,,,,,,,,,,,,,*1E
$BDGSA,A,1,,,,,,,,,,,,,,,*0F
$GLGSA,A,1,,,,,,,,,,,,,,,*02
$B3CN0,0,0,0,0,0,0,0,0,0,0,0,0,0,0*4C
---00000002--- Acq_st=3 0  2019-4-24 3:29:36 
[16]  37(B01)  1 10 18  1  -1370.0  4092003.2 -0.0  1 0  375 1157 1637
[17]  38(B02)  1 10 10  0  -1468.0  4092005.2 -0.1  1 0  345  525 1181
[18]  39(B03)  1 33 29  0  -1104.0  4092004.3 -0.0  1 0  223  739 1795
[19]  40(B04)  1 33 24  0  -1075.0  4092004.2 -0.1  1 0  243  713 1358
[20]  41(B05)  1 30 26  0  -1068.0  4092004.2  0.1  1 0  135  803 1298
$GNGGA,000000.000,,,,,0,00,,,M,,,,0000*2B
$GNRMC,000000.000,A,,,,,,,060180,,*29
$GPGSA,A,1,,,,,,,,,,,,,,,*1E
$BDGSA,A,1,,,,,,,,,,,,,,,*0F
$GLGSA,A,1,,,,,,,,,,,,,,,*02
$B3CN0,0,0,0,0,0,0,0,0,0,0,0,0,0,0*4C
---00000003--- Acq_st=3 0  2019-4-24 3:29:37 
[16]  37(B01)  1 10 10  1  -1577.8  4092005.0 -0.0  1 0  580 1298  668
[17]  38(B02)  1 10 14  1  -1555.5  4092003.9  0.0  1 0 1069 1223  261
[18]  39(B03)  9 43 31  0  -1087.0  4092002.7  1.0  1 0 1422 2434 1051
[19]  40(B04)  9 41 20  0  -1072.5  4092003.6  1.0  1 0 1103 1806  802
[20]  41(B05)  9 38 25  0  -1054.3  4092004.0  0.9  1 0  820 1859 1209
$GNGGA,000000.000,,,,,0,00,,,M,,,,0000*2B
$GNRMC,000000.000,A,,,,,,,060180,,*29
$GPGSA,A,1,,,,,,,,,,,,,,,*1E
$BDGSA,A,1,,,,,,,,,,,,,,,*0F
$GLGSA,A,1,,,,,,,,,,,,,,,*02
$B3CN0,0,0,0,0,0,0,0,0,0,0,0,0,0,0*4C
---00000004--- Acq_st=3 0  2019-4-24 3:29:38 
[16]  37(B01)  1 10 20  1  -1862.2  4092005.0  0.1  1 0  283  243  360
[17]  38(B02)  1 10 10  1  -1765.8  4092004.7  0.1  1 0  264  231  249
[18]  39(B03)  f 43 32  0  -1084.6  4092002.7 -0.2  2 0 1106 1473 1009
[19]  40(B04)  f 40 22  0  -1074.7  4092002.7 -0.7  2 0  984 1319  394
[20]  41(B05)  f 37 26  0  -1057.0  4092002.6  0.2  2 0 1197 1255  123
ch33 satid=77 freq=-500 acq ok!
$GNGGA,000000.000,,,,,0,00,,,M,,,,0000*2B
$GNRMC,000000.000,A,,,,,,,060180,,*29
$GPGSA,A,1,,,,,,,,,,,,,,,*1E
$BDGSA,A,1,,,,,,,,,,,,,,,*0F
$GLGSA,A,1,,,,,,,,,,,,,,,*02
$BDGSV,1,1,03,03,00,000,43,04,00,000,40,05,00,000,36*5F
$B3CN0,0,0,0,0,0,0,0,0,0,0,0,0,0,0*4C
---00000005--- Acq_st=3 0  2019-4-24 3:29:39 
[16]  37(B01)  1 10 10  0  -1820.5  4092005.4 -0.1  1 0   73  516  472
[17]  38(B02)  1 10 23  0  -2204.4  4092004.6  0.2  1 0  277   84  269
[18]  39(B03)  f 42 31  0  -1086.5  4092002.7 -0.1  2 0 1622 1989  867
[19]  40(B04)  f 39 25  0  -1077.3  4092002.8  0.5  2 0  998 1591 1017
[20]  41(B05)  f 37 20  0  -1059.3  4092002.8  0.6  2 0  866 1798 1280
[21]  66(B30)  1  7  7  0  -4303.4  4092013.6 -0.0  1 0  447 1265 1948
[32]  76(N-5)  1  7  7  0  -3994.8  1022003.0 -0.1  1 0   348  316  322
[33]  77(N-4)  1  7  7  0   2317.2  1022001.9  0.0  1 0   361 1316 1463
[50]  39(B03)  1 21 10  1  -1188.3 20460020.1 -0.0  1 0  589  621  389
[51]  40(B04)  1 26 24  1  -1117.2 20460024.7 -0.2  1 0  445  272  562
[52]  41(B05)  1 22 21  1   -810.8 20460021.6 -0.0  1 0  362  321  239
ch34 satid=80 freq=2750 acq ok!
ch35 satid=81 freq=0 acq ok!
ch36 satid=82 freq=-1500 acq ok!
ch37 satid=84 freq=-4250 acq ok!
ch38 satid=85 freq=-500 acq ok!
$GNGGA,000000.000,,,,,0,00,,,M,,,,0000*2B
$GNRMC,000000.000,A,,,,,,,060180,,*29
$GPGSA,A,1,,,,,,,,,,,,,,,*1E
$BDGSA,A,1,,,,,,,,,,,,,,,*0F
$GLGSA,A,1,,,,,,,,,,,,,,,*02
$BDGSV,1,1,03,03,00,000,42,04,00,000,40,05,00,000,37*5F
$B3CN0,0,0,0,0,0,0,0,0,0,0,0,0,0,0*4C
---00000006--- Acq_st=7 0  2019-4-24 3:29:40 
[16]  37(B01)  1 10 10  1  -2481.9  4092004.9 -0.2  1 0  525  461  523
[17]  38(B02)  7 18 10  0  -2421.2  4092006.4  0.1  2 0  676  379  346
[18]  39(B03)  f 43 30  0  -1081.9  4092002.7  0.5  2 0 1833 2086  737
[19]  40(B04)  f 39 24  0  -1074.4  4092002.6 -0.7  2 0 1191 1560  730
[20]  41(B05)  f 38 28  0  -1055.0  4092002.7  0.6  2 0  948  923  962
[21]  66(B30)  7  7  7  0  -4296.5  4092011.0  0.1  5 0  678 1336  713
[32]  76(N-5)  1 24 16  0  -3796.5  1022003.5  0.3  1 0   358  721  351
[33]  77(N-4)  1 23 15  0   -450.9  1022000.6  1.0  1 0  1301 1845  894
[34]  80(N-1)  1 27 24  0   2826.5  1021998.6  0.4  1 0   785  961  352
[35]  81(N00)  1 21 26  1    167.3  1022000.8  0.3  1 0   265 1469 2285
[36]  82(N01)  1 28 18  0  -1463.9  1022001.9  0.2  1 0   677 1700 1199
[37]  84(N03)  1 23  7  0  -4249.8  1022005.5  0.2  1 0   386 1355 2202
[38]  85(N04)  1 23  7  0   -500.0  1022001.3  0.0  1 0  1510 2572 1467
[50]  39(B03)  1 23 23  1  -1231.9 20460020.0 -0.1  1 0  214  365  493
[51]  40(B04)  1 10 19  1   -885.2 20460023.0 -0.1  1 0  415  163  222
[52]  41(B05)  1 23 22  0  -1355.7 20460023.0 -0.0  1 0  357  485  368
$GNGGA,000000.000,,,,,0,00,,,M,,,,0000*2B
$GNRMC,000000.000,A,,,,,,,060180,,*29
$GPGSA,A,1,,,,,,,,,,,,,,,*1E
$BDGSA,A,1,,,,,,,,,,,,,,,*0F
$GLGSA,A,1,,,,,,,,,,,,,,,*02
$BDGSV,1,1,04,02,00,000,16,03,00,000,43,04,00,000,39,05,00,000,38*6D
$B3CN0,0,0,0,0,0,0,0,0,0,0,0,0,0,0*4C
---00000007--- Acq_st=7 0  2019-4-24 3:29:41 
[17]  38(B02)  7 10 10  0  -2590.2  4092006.9 -0.0  2 0  307  264   69
[18]  39(B03) 1f 43 33  0  -1086.8  4092002.7 -0.3  2 0 1503 1953 1081
[19]  40(B04) 1f 40 10  0  -1079.3  4092002.6  0.7  2 0 1265 1648  775
[20]  41(B05) 1f 37 21  0  -1055.7  4092002.8 -0.5  2 0 1478 1303  824
[21]  66(B30)  7 39  7  0  -4305.3  4092011.1  0.2  2 0  690  758  398
[32]  76(N-5)  1 25 16  0  -3815.4  1022002.7  0.6  1 0   796  771  337
[33]  77(N-4)  1 24  7  0   -457.7  1022000.2  0.9  1 0   977 1579  855
[34]  80(N-1)  1 29 25  0   2819.9  1021997.9  1.0  1 0   706 1038  465
[35]  81(N00)  1 26 13  0    159.5  1022000.3  1.0  1 0  1546 1877  893
[36]  82(N01)  1 29 20  0  -1471.3  1022000.8  1.0  1 0   891 1858  886
[37]  84(N03)  1 24 17  0  -4261.4  1022002.7  0.9  1 0  1559 2083  897
[38]  85(N04)  1 49  7  0   -565.0  1022000.3  1.0  1 0  1592 2706 1134
[50]  39(B03)  1 10 16  1  -1356.6 20460019.4  0.4  1 0  391  584  176
[51]  40(B04)  1 23 21  0   -303.3 20460015.9 -0.0  1 0  536  543  221
[52]  41(B05)  1 19 23  1  -1147.2 20460024.2 -0.1  1 0  584  641  509
ch0 satid=7 freq=-4250 acq ok!
ch1 satid=8 freq=-3750 acq ok!
$GNGGA,000000.000,,,,,0,00,,,M,,,,0000*2B
$GNRMC,000000.000,A,,,,,,,060180,,*29
$GPGSA,A,1,,,,,,,,,,,,,,,*1E
$BDGSA,A,1,,,,,,,,,,,,,,,*0F
$GLGSA,A,1,,,,,,,,,,,,,,,*02
$BDGSV,1,1,04,03,00,000,43,04,00,000,40,05,00,000,37,30,00,000,39*60
$B3CN0,0,0,0,0,0,0,0,0,0,0,0,0,0,0*4C
---00000008--- Acq_st=3 0  2019-4-24 3:29:42 
[00]  07(G08)  1 15  7  0  -4250.0  2046007.8 -0.0  1 0  120  973 2908
[01]  08(G09)  1 15  7  0  -3750.0  2046006.7  0.1  1 0  454 1980 3151
[17]  38(B02)  7 10 10  0  -2813.5  4092007.2  0.0  2 0  348  570  424
[18]  39(B03) 1f 43 31  0  -1080.2  4092002.7 -0.4  2 0  926 1650 1028
[19]  40(B04) 1f 40 18  0  -1070.6  4092002.8 -0.1  2 0  957 1179  735
[20]  41(B05) 1f 38 18  0  -1050.8  4092002.4 -0.5  2 0 1035 1039  382
[21]  66(B30)  7 39  7  0  -4298.7  4092011.1 -0.2  2 0 1343 1599  776
[32]  76(N-5)  7 35 19  0  -3812.2  1022002.4  0.0  2 0   370  398  296
[33]  77(N-4)  7 39 17  0   -449.2  1022000.2 -0.2  2 0  1213 1958 1132
[34]  80(N-1)  7 26 20  0   2826.6  1021998.2  0.8 10 0   642 1324  701
[35]  81(N00)  7 24  7  0    166.3  1021999.8  0.9 10 0  1173 1993  799
[36]  82(N01)  7 18  7  0  -1464.2  1022000.9  1.0 10 0  1344 2088 1439
[37]  84(N03)  7 46  7  0  -4251.7  1022002.6 -0.1  2 0  1460 2075 1025
[38]  85(N04)  7 48  7  0   -556.8  1022000.3 -0.0  2 0  1679 3108 1600
[50]  39(B03)  1 22 10  0  -1045.3 20460022.2 -0.1  1 0  215  209  437
[51]  40(B04)  1 21 25  1   -316.1 20460020.7  0.0  1 0  460  311  178
[52]  41(B05)  1 24 19  0  -1329.1 20460020.8 -0.1  1 0  250  497  341
ch2 satid=15 freq=500 acq ok!
ch3 satid=22 freq=-2000 acq ok!
ch4 satid=25 freq=1250 acq ok!
$GNGGA,000000.000,,,,,0,00,,,M,,,,0000*2B
$GNRMC,000000.000,A,,,,,,,060180,,*29
$GPGSA,A,1,,,,,,,,,,,,,,,*1E
$BDGSA,A,1,,,,,,,,,,,,,,,*0F
$GLGSA,A,1,,,,,,,,,,,,,,,*02
$BDGSV,1,1,04,03,00,000,43,04,00,000,40,05,00,000,38,30,00,000,39*6F
$B3CN0,0,0,0,0,0,0,0,0,0,0,0,0,0,0*4C
---00000009--- Acq_st=3 0  2019-4-24 3:29:43 
[00]  07(G08)  1 31  7  0  -4249.0  2046005.3  0.4  1 0 2057 2269  843
[01]  08(G09)  1 30  7  0  -3730.7  2046005.1  0.8  1 0 2001 2677 1055
[02]  15(G16)  1 29  7  0    507.0  2045999.3  0.3  1 0 1659 2999 1764
[03]  22(G23)  1  7  7  0  -2000.0  2046004.8 -0.0  1 0  177 1260 3232
[04]  25(G26)  1  7  7  0   1250.0  2046000.5  0.0  1 0  785 1761 1924
[17]  38(B02)  7 10 10  0  -2775.0  4092007.2  0.1  2 0  894  910  811
[18]  39(B03) 1f 42 31  0  -1090.4  4092002.7  0.1  2 0 1878 2108  728
[19]  40(B04) 1f 41 23  0  -1081.4  4092002.6 -0.5  2 0 1337 1168  203
[20]  41(B05) 1f 38 30  0  -1061.7  4092002.6 -0.7  2 0  916  840  252
[21]  66(B30)  7 39  7  0  -4302.6  4092011.2  0.2  2 0  983 1314  306
[32]  76(N-5)  7 35 20  0  -3821.1  1022002.4 -0.1  2 0   391  418  363
[33]  77(N-4)  7 46  7  0   -458.7  1022000.3  0.1  2 0  1218 2153 1349
[34]  80(N-1)  7 43 24  0   2816.8  1021998.2  0.1  2 0   830 1419  746
[35]  81(N00)  7 46 15  0    158.3  1021999.8 -0.0  2 0  1554 2053  876
[36]  82(N01)  7 45 19  0  -1471.6  1022000.9  0.1  2 0   893 2318 1569
[37]  84(N03)  7 46 15  0  -4260.4  1022002.7 -0.1  2 0  1491 2137 1179
[38]  85(N04)  7 48  7  0   -563.1  1022000.3 -0.1  2 0  1500 2992 1623
ch5 satid=26 freq=-2500 acq ok!
ch6 satid=30 freq=1000 acq ok!
ch22 satid=43 freq=-750 acq ok!
$GNGGA,000000.000,,,,,0,00,,,M,,,,0000*2B
$GNRMC,000000.000,A,,,,,,,060180,,*29
$GPGSA,A,1,,,,,,,,,,,,,,,*1E
$BDGSA,A,1,,,,,,,,,,,,,,,*0F
$GLGSA,A,1,,,,,,,,,,,,,,,*02
$BDGSV,1,1,04,03,00,000,43,04,00,000,40,05,00,000,37,30,00,000,39*60
$B3CN0,0,0,0,0,0,0,0,0,0,0,0,0,0,0*4C
---00000010--- Acq_st=3 0  2019-4-24 3:29:44 
[00]  07(G08)  7 33  7  0  -4246.3  2046005.4  0.3  5 0 1671 2478 1119
[01]  08(G09)  7 32  7  0  -3728.2  2046004.7  0.4  5 0 1783 2721 1549
[02]  15(G16)  7 20  7  0    509.1  2045999.3  0.8 10 0 1983 3535 1521
[03]  22(G23)  1 26 12  0  -2099.2  2046003.0  0.6  1 0 2876 3734 1063
[04]  25(G26)  1 23  7  0   1340.3  2045998.1  0.0  1 0 1563 2435 1069
[05]  26(G27)  1 27  7  0  -2539.5  2046004.5  0.5  1 0 3071 4340 1875
[06]  30(G31)  1 18  7  0   1063.7  2045998.5  0.2  1 0  940 2698 1859
[16]  37(B01)  1 36 10  0  -1500.0  4092002.9 -0.0  1 0  706 1115  851
[17]  42(B06)  1  7  7  0     -0.0  4092000.5 -0.1  1 0  829 1864  954
[18]  39(B03) 1f 43 31  0  -1090.8  4092002.7  0.3  2 0 1513 1819  528
[19]  40(B04) 1f 40 16  0  -1080.8  4092002.8 -0.3  2 0 1092 1747 1173
[20]  41(B05) 1f 38 23  0  -1059.1  4092002.6  0.8  2 0 1148 1584 1077
[21]  66(B30)  7 39  7  0  -4303.0  4092011.1 -0.1  2 0 1591 1152  345
[22]  43(B07)  1  7  7  0   -750.0  4092003.4 -0.1  1 0  164  483 1543
[32]  76(N-5)  7 36 18  0  -3819.0  1022002.3 -0.1  2 0    78  481  294
[33]  77(N-4)  7 46  7  0   -456.6  1022000.3  0.0  2 0  1043 1632  666
[34]  80(N-1)  7 43 26  0   2818.6  1021998.2 -0.2  2 0   820 1614  804
[35]  81(N00)  7 47 17  0    159.6  1021999.8 -0.1  2 0  1533 2238 1024
[36]  82(N01)  7 46 19  0  -1471.7  1022000.9 -0.0  2 0  1220 2425 1234
[37]  84(N03)  7 47 11  0  -4260.5  1022002.6  0.1  2 0  1427 2382  964
[38]  85(N04)  7 48  7  0   -563.7  1022000.3  0.2  2 0  1933 3217 1410
[50]  39(B03)  1 25 21  0   -937.8 20460017.6  0.0  1 0  349  227  313
[51]  40(B04)  1 19 22  0   -714.7 20460019.3 -0.1  1 0  597  965  585
[52]  41(B05)  1 25 25  1   -980.8 20460015.2 -0.0  1 0  628  540  408
ch24 satid=45 freq=0 acq ok!
ch25 satid=46 freq=-1000 acq ok!
$GNGGA,000000.000,,,,,0,00,,,M,,,,0000*2B
$GNRMC,000000.000,A,,,,,,,060180,,*29
$GPGSA,A,1,,,,,,,,,,,,,,,*1E
$BDGSA,A,1,,,,,,,,,,,,,,,*0F
$GLGSA,A,1,,,,,,,,,,,,,,,*02
$GPGSV,1,1,03,08,00,000,33,09,00,000,32,16,00,000,20*4F
$BDGSV,1,1,04,03,00,000,43,04,00,000,40,05,00,000,38,30,00,000,39*6F
$B3CN0,0,0,0,0,0,0,0,0,0,0,0,0,0,0*4C
---00000011--- Acq_st=3 0  2019-4-24 3:29:45 
[00]  07(G08)  7 43  7  0  -4240.6  2046005.4 -0.1  2 0 2159 3643 1660
[01]  08(G09)  7 43  7  0  -3728.4  2046004.8 -0.0  2 0 1704 2529  864
[02]  15(G16)  7 45  7  0    515.3  2045999.3  0.0  2 0 2038 3470 2092
[03]  22(G23)  7 31  7  0  -2093.8  2046002.6  0.4  5 0 2768 3888 1898
[04]  25(G26)  7 27  7  0   1343.7  2045998.2  0.2 10 0 1146 1774  471
[05]  26(G27)  7 27  7  0  -2533.0  2046003.1  0.6 10 0 3102 4021 1232
[06]  30(G31)  7 17  7  0   1069.4  2045998.6  0.9 10 0 1295 3064 1917
[16]  37(B01)  1 25 10  1  -1595.5  4092005.0  0.6  1 0 1042  922  386
[17]  42(B06)  1  7  7  0    253.1  4091999.0  0.5  1 0 1220 1784  783
[18]  39(B03) 1f 43 30  0  -1087.0  4092002.7  0.0  2 0 1095 1659  438
[19]  40(B04) 1f 39 25  0  -1077.4  4092002.7 -0.1  2 0 1478 1513  661
[20]  41(B05) 1f 37 26  0  -1065.0  4092002.7 -0.7  2 0 1082 1065  224
[21]  66(B30) 1f 39  7  0  -4300.5  4092011.1  0.2  2 0  941 1667  667
[22]  43(B07)  1  7 13  0   -841.8  4092002.5  0.2  1 0 1235 2085 1164
[24]  45(B09)  1  7  8  0   -213.7  4092001.4  0.1  1 0 2297 2945  999
[25]  46(B10)  1  7  7  0   -930.9  4092004.9  0.1  1 0 1149 2576 1948
[32]  76(N-5)  7 36 19  0  -3815.1  1022002.3 -0.0  2 0   278  612  421
[33]  77(N-4)  7 46  7  0   -453.2  1022000.3 -0.1  2 0  1044 1789  940
[34]  80(N-1)  7 43 26  0   2821.5  1021998.2  0.3  2 0   746 1313  919
[35]  81(N00)  7 47 13  0    162.3  1021999.8  0.1  2 0  1151 1905  966
[36]  82(N01)  7 46 20  0  -1467.7  1022000.9 -0.0  2 0   745 1825 1197
[37]  84(N03)  7 46 12  0  -4257.0  1022002.7  0.1  2 0  1419 2365  838
[38]  85(N04)  7 48  7  0   -558.4  1022000.3  0.0  2 0  1699 2922 1186
[50]  39(B03)  1 22 23  1  -1126.6 20460019.1  0.0  1 0  209  258  275
[51]  40(B04)  1 25 22  1   -883.0 20460020.8 -0.0  1 0  256  282  655
[52]  41(B05)  1 19 22  0  -1233.3 20460022.9 -0.1  1 0  987  867  564
ch26 satid=52 freq=250 acq ok!
$GNGGA,000000.000,,,,,0,00,,,M,,,,0000*2B
$GNRMC,000000.000,A,,,,,,,060180,,*29
$GPGSA,A,1,,,,,,,,,,,,,,,*1E
$BDGSA,A,1,,,,,,,,,,,,,,,*0F
$GLGSA,A,1,,,,,,,,,,,,,,,*02
$GPGSV,2,1,07,08,00,000,43,09,00,000,43,16,00,000,44,23,00,000,45*7B
$GPGSV,2,2,07,26,00,000,42,27,00,000,45,31,00,000,43*4D
$BDGSV,2,1,08,06,00,000,31,03,00,000,43,04,00,000,39,05,00,000,37*6C
$BDGSV,2,2,08,30,00,000,39,07,00,000,30,09,00,000,25,10,00,000,23*63
$B3CN0,0,0,0,0,0,0,0,0,0,0,0,0,0,0*4C
---00000012--- Acq_st=3 0  2019-4-24 3:29:46 
[00]  07(G08)  7 43 12  0  -4242.3  2046005.4 -0.0  2 0 1799 2880 1054
[01]  08(G09)  7 43  7  0  -3726.1  2046004.8  0.0  2 0 1440 2347 1043
[02]  15(G16)  7 44  7  0    512.3  2045999.3  0.0  2 0 1397 2835 1368
[03]  22(G23)  7 45  7  0  -2090.2  2046002.6  0.0  2 0 3173 4474 2123
[04]  25(G26)  7 42  7  0   1344.7  2045998.1 -0.1  2 0 1538 2307  997
[05]  26(G27)  7 45  7  0  -2533.0  2046003.2 -0.0  2 0 3318 4057 1393
[06]  30(G31)  7 43  7  0   1069.6  2045998.6 -0.1  2 0 1058 2532 1633
[16]  37(B01)  1 20 14  0  -1587.2  4092002.7  0.4  1 0  795  919  724
[17]  42(B06)  7 32  7  0    255.6  4091999.2  0.2  5 0 1766 2045  939
[18]  39(B03) 1f 43 31  0  -1088.0  4092002.8 -0.3  2 0 1739 2365 1095
[19]  40(B04) 1f 39 10  0  -1081.8  4092002.7 -0.2  2 0 1061 1227  499
[20]  41(B05) 1f 37 30  0  -1063.3  4092002.6 -0.6  2 0 1072  869  645
[21]  66(B30) 1f 39  7  0  -4303.6  4092011.2 -0.2  2 0  674  643  165
[22]  43(B07)  7 30  7  0   -839.9  4092002.1  0.1  5 0 2031 2337  755
[24]  45(B09)  7 26  7  0   -208.9  4092000.4  0.2 10 0 2113 2545  820
[25]  46(B10)  7 24  7  0   -929.2  4092002.2  0.4 10 0 1771 1714  304
[26]  52(B16)  1  7  7  0    274.1  4091999.3  0.4  1 0 1538 1467  461
[27]  55(B19)  1  7  7  0  -1250.0  4092003.4  0.0  1 0  208  886  646
[32]  76(N-5)  f 33  8  0  -3813.8  1022002.4 -0.0  5 0   219  371   99
[33]  77(N-4)  f 36  7  0   -451.3  1022000.3 -0.0  2 0   966 1815  923
[34]  80(N-1)  f 36 18  0   2819.9  1021998.2 -0.1  2 0   562 1138  612
[35]  81(N00)  f 37  7  0    161.9  1021999.9  0.1  2 0  1318 2196 1095
[36]  82(N01)  f 37 11  0  -1468.7  1022000.9 -0.1  2 0  1033 1961 1285
[37]  84(N03)  f 37  7  0  -4255.6  1022002.7 -0.1  2 0  1437 2327 1356
[38]  85(N04)  f 37  7  0   -557.8  1022000.3 -0.1  2 0  1770 2798 1238
[50]  39(B03)  1 20 16  1  -1260.9 20460013.5  0.0  1 0  402  583  502
[51]  40(B04)  1 22 19  0   -119.2 20460017.7 -0.1  1 0  261  186  224
[52]  41(B05)  1 25 19  0  -1575.5 20460023.6 -0.1  1 0  642  463  304
[53]  66(B30)  1  7  9  0  -3434.3 20460067.1 -0.2  1 0  646  768  265
ch28 satid=59 freq=500 acq ok!
ch29 satid=63 freq=-4000 acq ok!
ch30 satid=64 freq=-1250 acq ok!
---00000013--- Acq_st=3 0  2019-4-24 3:29:47 
[00]  07(G08)  7 43  9  0  -4241.1  2046005.4 -0.0  2 0 1533 2903 1326
[01]  08(G09)  7 43  7  0  -3723.5  2046004.8 -0.1  2 0 1825 2807 1111
[02]  15(G16)  7 44  7  0    516.0  2045999.3  0.0  2 0 2467 3546 1778
[03]  22(G23)  7 45  7  0  -2088.9  2046002.6 -0.0  2 0 3358 4146 1514
[04]  25(G26)  7 42 11  0   1343.8  2045998.2 -0.0  2 0 1116 1708  865
[05]  26(G27)  7 45  7  0  -2531.6  2046003.2 -0.0  2 0 3161 4432 2045
[06]  30(G31)  7 42  7  0   1071.2  2045998.6 -0.0  2 0 1520 2624 1022
[16]  37(B01)  1 10 10  0  -1693.8  4092002.4  0.0  1 0  962  349  352
[17]  42(B06)  7 42 12  0    259.3  4091999.2  0.0  2 0 1228 2240 1430
[18]  39(B03) 1f 43 31  0  -1088.0  4092002.8 -0.2  2 0 1037 1964 1235
[19]  40(B04) 1f 41 20  0  -1078.6  4092002.7  0.2  2 0 1493 1887  845
[20]  41(B05) 1f 37 19  0  -1062.8  4092002.7 -0.1  2 0   71 1243 1129
[21]  66(B30) 1f 39  7  0  -4301.9  4092011.1  0.1  2 0  664  894  325
[22]  43(B07)  7 43  7  0   -841.3  4092002.1  0.0  2 0 1374 2071  464
[24]  45(B09)  7 44  7  0   -208.2  4092000.4 -0.0  2 0 1847 2377  875
[25]  46(B10)  7 43  7  0   -929.2  4092002.3  0.1  2 0 2439 2577  698
[26]  52(B16)  7 26  7  0    277.3  4091999.1  0.2 10 0 1256 2109  665
[27]  55(B19)  1  7  7  0  -1131.5  4092002.7  0.1  1 0  577 1461  610
[28]  59(B23)  1  7  7  0    671.8  4091997.8  0.0  1 0 1800 2615 1366
[29]  63(B27)  1  7  7  0  -4000.0  4092009.5 -0.1  1 0 1269 2253 1112
[30]  64(B28)  1  7  7  0  -1250.0  4092004.0 -0.0  1 0 1615 3440 2088
[32]  76(N-5)  f 36  7  0  -3815.8  1022002.4 -0.0  2 0   484  716  454
[33]  77(N-4)  f 45  7  0   -451.0  1022000.3 -0.2  2 0   709 1744  932
[34]  80(N-1)  f 43 12  0   2823.0  1021998.2  0.1  2 0   313 1107  940
[35]  81(N00)  f 46  7  0    161.7  1021999.9  0.0  2 0  1266 2217 1108
[36]  82(N01)  f 45  7  0  -1468.4  1022000.9  0.1  2 0  1580 2711 1060
[37]  84(N03)  f 45  7  0  -4255.6  1022002.7  0.0  2 0  1250 2431 1418
[38]  85(N04)  f 46  7  0   -557.6  1022000.3 -0.0  2 0  1751 2929 1360
[50]  39(B03)  1 19 22  0  -1567.0 20460019.1 -0.1  1 0  544  653  486
[51]  40(B04)  1 26 22  1    190.1 20460021.1 -0.1  1 0  430  433  345
[52]  41(B05)  1 23 25  1  -2020.5 20460023.7 -0.1  1 0  229  293  413
[53]  66(B30)  1  7  7  0  -3021.5 20460068.6  0.1  1 0  164  383  304
$GNGGA,000000.000,,,,,0,00,,,M,,,,0000*2B
$GNRMC,000000.000,A,,,,,,,060180,,*29
$GPGSA,A,1,,,,,,,,,,,,,,,*1E
$BDGSA,A,1,,,,,,,,,,,,,,,*0F
$GLGSA,A,1,,,,,,,,,,,,,,,*02
$GPGSV,2,1,07,08,00,000,43,09,00,000,43,16,00,000,44,23,00,000,45*7B
$GPGSV,2,2,07,26,00,000,42,27,00,000,45,31,00,000,42*4C
$BDGSV,3,1,09,06,00,000,42,03,00,000,43,04,00,000,41,05,00,000,37*67
$BDGSV,3,2,09,30,00,000,39,07,00,000,43,09,00,000,44,10,00,000,43*66
$BDGSV,3,3,09,16,00,000,26*52
$B3CN0,0,0,0,0,0,0,0,0,0,0,0,0,0,0*4C
---00000014--- Acq_st=7 0  2019-4-24 3:29:48 
[00]  07(G08)  7 43  7  0  -4243.5  2046005.4  0.1  2 0 2201 3167 1250
[01]  08(G09)  7 43  7  0  -3723.9  2046004.8  0.0  2 0 2034 2895 1221
[02]  15(G16)  7 44  7  0    511.0  2045999.3  0.0  2 0 2324 3819 1959
[03]  22(G23)  7 45  7  0  -2090.1  2046002.6 -0.0  2 0 2595 4040 1879
[04]  25(G26)  7 42  7  0   1344.1  2045998.2 -0.0  2 0 1400 2244 1069
[05]  26(G27)  7 45  7  0  -2531.0  2046003.2 -0.0  2 0 3088 4471 1805
[06]  30(G31)  7 43 10  0   1069.6  2045998.6  0.0  2 0 1348 2376 1094
[16]  37(B01)  1 17 10  0  -1601.0  4092001.8  0.1  1 0 1015  499  519
[17]  42(B06)  7 41 12  0    252.6  4091999.2 -0.0  2 0 1911 2061 1287
[18]  39(B03) 1f 43 31  0  -1087.9  4092002.6 -0.2  2 0 2070 2301  848
[19]  40(B04) 1f 40 26  0  -1077.0  4092002.8  0.3  2 0 1613 2227  992
[20]  41(B05) 1f 39 24  0  -1058.9  4092002.7 -0.1  2 0  864 1257 1132
[21]  66(B30) 1f 38  7  0  -4303.2  4092011.1 -0.2  2 0  757  889  666
[22]  43(B07)  7 42  7  0   -841.5  4092002.1 -0.0  2 0 1942 2717  996
[24]  45(B09)  7 43  7  0   -207.3  4092000.4 -0.0  2 0 1935 2532 1230
[25]  46(B10)  7 43  7  0   -928.3  4092002.3 -0.0  2 0 2047 2360  907
[26]  52(B16)  7 43  7  0    273.8  4091999.1 -0.1  2 0 1347 2155  860
[27]  55(B19)  7 34  7  0  -1128.0  4092002.9  0.0  5 0  880 1100  148
[28]  59(B23)  7 24  7  0    674.8  4091998.2  0.2 10 0 1893 3170 1949
[29]  63(B27)  1  7 12  0  -4226.1  4092009.7  0.1  1 0  856 1563  877
[30]  64(B28)  1  7  7  0  -1134.5  4092002.7  0.4  1 0 2046 3485 1675
[32]  76(N-5)  f 35 12  0  -3813.1  1022002.3  0.0  2 0   243  628  186
[33]  77(N-4)  f 45  7  0   -451.3  1022000.3  0.1  2 0  1022 1946  907
[34]  80(N-1)  f 42 17  0   2819.7  1021998.2  0.0  2 0   610 1086  618
[35]  81(N00)  f 46  7  0    161.6  1021999.9 -0.0  2 0  1357 2118 1126
[36]  82(N01)  f 45 13  0  -1468.6  1022000.9 -0.1  2 0  1127 1821 1321
[37]  84(N03)  f 45  7  0  -4255.8  1022002.7  0.0  2 0  1117 2152 1374
[38]  85(N04)  f 46  7  0   -556.3  1022000.3  0.1  2 0  1579 2817 1199
[53]  66(B30)  1  7  7  0  -3363.4 20460069.4  0.0  1 0  398  113  468
$GNGGA,000000.000,,,,,0,00,,,M,,,,0000*2B
$GNRMC,000000.000,A,,,,,,,060180,,*29
$GPGSA,A,1,,,,,,,,,,,,,,,*1E
$BDGSA,A,1,,,,,,,,,,,,,,,*0F
$GLGSA,A,1,,,,,,,,,,,,,,,*02
$GPGSV,2,1,07,08,00,000,43,09,00,000,43,16,00,000,44,23,00,000,45*7B
$GPGSV,2,2,07,26,00,000,42,27,00,000,45,31,00,000,43*4D
$BDGSV,3,1,11,06,00,000,41,03,00,000,43,04,00,000,40,05,00,000,39*62
$BDGSV,3,2,11,30,00,000,38,07,00,000,42,09,00,000,43,10,00,000,43*68
$BDGSV,3,3,11,16,00,000,43,19,00,000,34,23,00,000,24*50
$B3CN0,0,0,0,0,0,0,0,0,0,0,0,0,0,0*4C
---00000015--- Acq_st=7 0  2019-4-24 3:29:49 
[00]  07(G08)  f 43  7  0  -4240.0  2046005.4 -0.1  2 0 2022 3001 1032
[01]  08(G09)  f 43  7  0  -3723.1  2046004.8  0.0  2 0 1888 2738 1129
[02]  15(G16)  f 44  7  0    515.0  2045999.3 -0.0  2 0 2501 3341 1683
[03]  22(G23)  f 45  7  0  -2088.8  2046002.7 -0.0  2 0 2090 4189 2307
[04]  25(G26)  f 41  8  0   1340.5  2045998.2  0.0  2 0 1132 1857  590
[05]  26(G27)  f 45  7  0  -2528.1  2046003.2 -0.0  2 0 2418 3808 1456
[06]  30(G31)  f 42  7  0   1074.2  2045998.6  0.0  2 0 1403 2083  866
[17]  42(B06)  7 41 13  0    257.0  4091999.2  0.1  2 0 1202 1536  487
[18]  39(B03) 1f 43 30  0  -1087.7  4092002.7  0.1  2 0 1690 1807  484
[19]  40(B04) 1f 39 10  0  -1076.2  4092002.8  0.3  2 0 1094 1554  918
[20]  41(B05) 1f 37 30  0  -1060.5  4092002.7  0.6  2 0  815 1282  528
[21]  66(B30) 1f 38  7  0  -4307.8  4092011.2  0.2  2 0  740 1082  818
[22]  43(B07)  7 43  7  0   -839.3  4092002.1 -0.0  2 0 1955 2212  650
[24]  45(B09)  7 43  7  0   -205.6  4092000.4 -0.0  2 0 2137 2711 1086
[25]  46(B10)  7 43  7  0   -929.6  4092002.3  0.0  2 0 1880 2210  655
[26]  52(B16)  7 42  7  0    277.6  4091999.1  0.0  2 0 1758 2797 1526
[27]  55(B19)  7 38  7  0  -1125.5  4092002.8 -0.2  2 0  803 1101  433
[28]  59(B23)  7 45  9  0    677.0  4091998.2  0.0  2 0 1844 2787 1313
[29]  63(B27)  1  7 14  0  -4221.3  4092009.5  0.4  1 0 1229 2055  866
[30]  64(B28)  7 31  7  0  -1129.8  4092002.9  0.2  5 0 1974 3567 1623
[32]  76(N-5)  f 36  7  0  -3811.3  1022002.5  0.1  2 0   504  762  186
[33]  77(N-4)  f 45  7  0   -448.4  1022000.3 -0.0  2 0   900 1857  944
[34]  80(N-1)  f 43  9  0   2822.8  1021998.2 -0.2  2 0   415 1012  733
[35]  81(N00)  f 46  7  0    163.4  1021999.9  0.0  2 0  1549 2300  949
[36]  82(N01)  f 45 13  0  -1466.9  1022000.9 -0.0  2 0  1338 1953 1005
[37]  84(N03)  f 45  7  0  -4253.1  1022002.7 -0.0  2 0  1510 2492 1372
[38]  85(N04)  f 47  7  0   -554.1  1022000.3 -0.0  2 0  1729 3056 1517
[50]  39(B03)  1 14 10  0   -730.8 20460016.5  0.0  1 0  436  553  559
[51]  40(B04)  1 21 24  1   -461.7 20460014.4 -0.1  1 0  100  232  109
[52]  41(B05)  1 25 23  1   -820.5 20460011.7 -0.2  1 0  488  925  403
[53]  66(B30)  1  7  7  0  -2689.4 20460069.1  0.0  1 0  244  627  547
$GNGGA,032949.789,2944.9065,N,10633.0894,E,1,10,1.0,327.9,M,,,,0000*1E
$GNRMC,032949.789,A,2944.9065,N,10633.0894,E,0.34,0.00,090180,,*1A
$GPGSA,A,3,08,09,16,23,26,27,31,,,,,,1.9,1.0,1.7*39
$BDGSA,A,3,03,04,05,,,,,,,,,,1.9,1.0,1.7*2E
$GLGSA,A,3,,,,,,,,,,,,,1.9,1.0,1.7*21
$GPGSV,2,1,07,08,00,000,43,09,00,000,43,16,00,000,44,23,00,000,45*7B
$GPGSV,2,2,07,26,00,000,41,27,00,000,45,31,00,000,42*4F
$BDGSV,3,1,12,06,00,000,41,03,00,000,43,04,00,000,39,05,00,000,37*61
$BDGSV,3,2,12,30,00,000,38,07,00,000,43,09,00,000,43,10,00,000,43*6A
$BDGSV,3,3,12,16,00,000,42,19,00,000,38,23,00,000,45,28,00,000,31*61
$B3CN0,0,0,0,0,0,0,0,0,0,0,0,0,0,0*4C
---00000016--- Acq_st=7 0  2000-1-9 3:29:50 
[00]  07(G08)  f 43  7  0  -4236.2  2046005.4  0.0  2 0 1719 2990 1693
[01]  08(G09)  f 43  7  0  -3717.3  2046004.8 -0.0  2 0 2023 2690 1130
[02]  15(G16)  f 44  7  0    519.0  2045999.3  0.0  2 0 1837 3601 1983
[03]  22(G23)  f 45  7  0  -2084.0  2046002.6  0.0  2 0 2468 4265 1996
[04]  25(G26)  f 41  7  0   1352.0  2045998.2 -0.0  2 0 1578 2447 1113
[05]  26(G27)  f 44 10  0  -2523.9  2046003.2  0.0  2 0 3034 4597 2257
[06]  30(G31)  f 42 10  0   1077.5  2045998.5 -0.0  2 0 1380 2307 1125
[17]  42(B06)  7 42  8  0    261.6  4091999.2 -0.0  2 0 1093 1783  932
[18]  39(B03) 1f 43 31  0  -1081.0  4092002.7 -0.2  2 0 1655 1855 1008
[19]  40(B04) 1f 38 22  0  -1073.0  4092002.7 -0.8  2 0  729 1176  645
[20]  41(B05) 1f 37 20  0  -1053.3  4092002.6 -0.4  2 0  703 1032  491
[21]  66(B30) 1f 39  7  0  -4305.1  4092011.1 -0.2  2 0  639  960  569
[22]  43(B07)  7 43  7  0   -837.0  4092002.1  0.0  2 0 1701 2227  628
[24]  45(B09)  7 43  7  0   -199.5  4092000.4 -0.0  2 0 2129 2318 1006
[25]  46(B10)  7 43  7  0   -924.4  4092002.3 -0.0  2 0 1612 2321 1121
[26]  52(B16)  7 42  7  0    281.7  4091999.1  0.0  2 0 1385 1622  572
[27]  55(B19)  7 38  7  0  -1122.2  4092002.8  0.1  2 0 1045  786   72
[28]  59(B23)  7 44  9  0    681.5  4091998.1 -0.0  2 0 1872 2576  744
[29]  63(B27)  1  7 12  0  -4216.8  4092009.2  0.6  1 0 1053 1888  766
[30]  64(B28)  7 45  7  0  -1121.3  4092002.9  0.0  2 0 1913 3490 1907
[32]  76(N-5)  f 36  7  0  -3806.7  1022002.4 -0.0  2 0   277  827  573
[33]  77(N-4)  f 45  7  0   -442.8  1022000.2 -0.0  2 0  1271 2121  664
[34]  80(N-1)  f 43 18  0   2827.4  1021998.1 -0.0  2 0  1033 1424  672
[35]  81(N00)  f 46  7  0    167.2  1021999.8 -0.0  2 0  1244 2154 1239
[36]  82(N01)  f 45  7  0  -1463.0  1022000.9 -0.0  2 0   862 1931  900
[37]  84(N03)  f 45  7  0  -4249.2  1022002.7  0.0  2 0  1118 2253 1212
[38]  85(N04)  f 46  7  0   -548.8  1022000.3  0.1  2 0  1592 2921 1389
[50]  39(B03)  1 20 18  0   -708.3 20460020.8 -0.2  1 0  414  417  442
[51]  40(B04)  1 22 23  0   -621.3 20460017.7  0.0  1 0  290   77  125
[52]  41(B05)  1 19 22  1   -366.7 20460023.3 -0.0  1 0  406  678  959
Refix G07: 2, 271808.916422, -3685
Refix G08: 2, 271808.926485, -4235
Refix G09: 2, 271808.924352, -3718
Refix G14: 2, 271808.916116, 2635
Refix G16: 2, 271808.931094, 518
Refix G22: 2, 271808.915747, 1043
Refix G23: 2, 271808.930226, -2084
Refix G26: 2, 271808.925701, 1347
Refix G27: 2, 271808.931526, -2525
Refix G31: 2, 271808.920078, 1074
$GNGGA,032951.000,2944.9063,N,10633.0906,E,1,10,0.9,326.7,M,,,,0000*1A
$GNRMC,032951.000,A,2944.9063,N,10633.0906,E,0.14,0.00,090180,,*1B
$GPGSA,A,3,08,09,16,23,26,27,31,,,,,,1.4,0.9,1.0*3B
$BDGSA,A,3,03,04,05,,,,,,,,,,1.4,0.9,1.0*2C
$GLGSA,A,3,,,,,,,,,,,,,1.4,0.9,1.0*23
$GPGSV,2,1,07,08,00,000,43,09,00,000,43,16,00,000,44,23,00,000,45*7B
$GPGSV,2,2,07,26,00,000,41,27,00,000,44,31,00,000,42*4E
$BDGSV,3,1,12,06,00,000,42,03,00,000,43,04,00,000,38,05,00,000,37*63
$BDGSV,3,2,12,30,00,000,39,07,00,000,43,09,00,000,43,10,00,000,43*6B
$BDGSV,3,3,12,16,00,000,42,19,00,000,38,23,00,000,44,28,00,000,45*63
$B3CN0,0,0,0,0,0,0,0,0,0,0,0,0,0,0*4C
---00000017--- Acq_st=3 0  2000-1-9 3:29:51 
[00]  07(G08)  f 43  7  0  -4237.7  2046005.4 -0.1  2 0 1951 2602 1117
[01]  08(G09)  f 43  7  0  -3718.4  2046004.8  0.0  2 0 1553 2017 1170
[02]  15(G16)  f 43  7  0    517.5  2045999.3 -0.0  2 0 2266 2848  552
[03]  22(G23)  f 45  7  0  -2086.5  2046002.6 -0.0  2 0 2267 4157 1925
[04]  25(G26)  f 41  7  0   1344.1  2045998.2 -0.0  2 0 1618 2205  639
[05]  26(G27)  f 44 10  0  -2525.4  2046003.2  0.0  2 0 2537 4013 1996
[06]  30(G31)  f 42  7  0   1069.0  2045998.6  0.1  2 0 1675 2783 1054
[08]  09(G10)  1  7  7  0   7250.0  2045990.6 -0.1  1 0  314  896  355
[17]  42(B06) 1f 42  7  0    257.3  4091999.2 -0.0  2 0 1179 1546  876
[18]  39(B03) 1f 43 31  0  -1084.9  4092002.7  0.1  2 0  900 1421  752
[19]  40(B04) 1f 38 23  0  -1078.6  4092002.7  0.4  2 0  901 1148  658
[20]  41(B05) 1f 38 26  0  -1056.5  4092002.6 -0.6  2 0 1450 1564  672
[21]  66(B30) 1f 38  7  0  -4297.6  4092011.2  0.1  2 0  699  909  659
[22]  43(B07) 1f 43  7  0   -840.1  4092002.0 -0.0  2 0 1534 2123  933
[24]  45(B09) 1f 43  7  0   -203.9  4092000.4  0.0  2 0 2017 2145  962
[25]  46(B10) 1f 42  7  0   -925.5  4092002.3 -0.1  2 0 1422 1577  656
[26]  52(B16) 1f 42  7  0    280.4  4091999.1 -0.0  2 0 1757 2068  303
[27]  55(B19) 1f 38  7  0  -1126.2  4092002.8  0.1  2 0  589  858  681
[28]  59(B23) 1f 44  8  0    677.8  4091998.1 -0.1  2 0 1861 2666 1063
[29]  63(B27)  1  7 12  0  -4225.2  4092009.7  0.6  1 0 1290 1913 1040
[30]  64(B28) 1f 44  7  0  -1126.1  4092002.9 -0.0  2 0 2313 3330 1278
[32]  76(N-5)  f 36 12  0  -3809.3  1022002.3  0.1  2 0   426 1047  395
[33]  77(N-4)  f 45  7  0   -445.1  1022000.2 -0.0  2 0  1193 1830  894
[34]  80(N-1)  f 43  7  0   2824.8  1021998.2 -0.0  2 0   702 1204  378
[35]  81(N00)  f 45  7  0    163.4  1021999.9  0.0  2 0  1004 2185 1378
[36]  82(N01)  f 45 14  0  -1465.4  1022000.9  0.1  2 0  1115 2100  893
[37]  84(N03)  f 46  7  0  -4250.7  1022002.7 -0.0  2 0  1195 2443 1074
[38]  85(N04)  f 46  7  0   -551.4  1022000.3  0.0  2 0  1879 3090 1644
[50]  39(B03)  1 13 18  1   -856.2 20460021.1 -0.2  1 0  277  467  461
[51]  40(B04)  1 18 17  1  -1058.9 20460024.5 -0.1  1 0  371  700  277
[52]  41(B05)  1 23 22  0    153.7 20460018.7  0.1  1 0  129  609  704
[53]  66(B30)  1  7  7  0  -3443.5 20460068.9 -0.0  1 0  374  244  232
Refix G07: 2, 271809.916424, -3685
Refix G08: 2, 271809.926488, -4235
Refix G09: 2, 271809.924355, -3717
Refix G14: 2, 271809.916114, 2635
Refix G16: 2, 271809.931094, 519
Refix G22: 2, 271809.915746, 1042
Refix G23: 2, 271809.930227, -2083
Refix G26: 2, 271809.925700, 1349
Refix G27: 2, 271809.931527, -2524
Refix G31: 2, 271809.920077, 1075
$GNGGA,032952.000,2944.9055,N,10633.0898,E,1,18,0.7,326.1,M,,,,0000*1A
$GNRMC,032952.000,A,2944.9055,N,10633.0898,E,0.32,0.00,090180,,*1F
$GPGSA,A,3,08,09,16,23,26,27,31,,,,,,0.8,0.7,0.4*3D
$BDGSA,A,3,03,04,05,06,07,09,10,16,19,23,28,,0.8,0.7,0.4*27
$GLGSA,A,3,,,,,,,,,,,,,0.8,0.7,0.4*25
$GPGSV,3,1,10,08,38,188,43,09,29,313,43,16,59,011,43,23,60,285,45*7E
$GPGSV,3,2,10,26,35,042,41,27,64,145,44,31,19,098,42,07,10,302,00*75
$GPGSV,3,3,10,14,03,149,00,22,05,205,00*70
$BDGSV,3,1,12,06,40,171,42,03,54,172,43,04,23,109,38,05,26,243,38*62
$BDGSV,3,2,12,30,00,000,38,07,64,009,43,09,64,202,43,10,62,306,42*63
$BDGSV,3,3,12,16,46,179,42,19,21,291,38,23,18,082,44,28,43,082,44*68
$B3CN0,0,0,0,0,0,0,0,0,0,0,0,0,0,0*4C
---00000018--- Acq_st=3 0  2000-1-9 3:29:52 
[00]  07(G08)  f 43  7  0  -4237.4  2046005.4 -0.0  2 0 1642 3332 1597
[01]  08(G09)  f 43  7  0  -3720.1  2046004.8 -0.0  2 0 2214 2699 1348
[02]  15(G16)  f 43  7  0    513.7  2045999.3 -0.0  2 0 1764 2997 1127
[03]  22(G23)  f 44  7  0  -2087.6  2046002.7  0.0  2 0 2356 4324 2192
[04]  25(G26)  f 41  7  0   1343.6  2045998.2  0.0  2 0  734 1672 1229
[05]  26(G27)  f 44  7  0  -2529.3  2046003.2 -0.0  2 0 2730 4608 2346
[06]  30(G31)  f 42 10  0   1072.0  2045998.6 -0.0  2 0 1863 2939 1250
[08]  09(G10)  1 11  7  0   6865.0  2045991.2 -0.1  1 0  176  213  115
[17]  42(B06) 1f 41  8  0    256.7  4091999.2 -0.0  2 0 1327 1492  540
[18]  39(B03) 1f 42 31  0  -1092.8  4092002.7  0.4  2 0 2390 2323  766
[19]  40(B04) 1f 39 23  0  -1073.9  4092002.6 -0.0  2 0 1757 2209 1265
[20]  41(B05) 1f 38 27  0  -1058.4  4092002.6 -0.6  2 0  898 1172  290
[21]  66(B30) 1f 39  7  0  -4308.1  4092011.2  0.0  2 0  896 1235  462
[22]  43(B07) 1f 43  7  0   -842.2  4092002.1  0.1  2 0 1834 2193  643
[24]  45(B09) 1f 43  7  0   -206.0  4092000.4  0.0  2 0 1501 2133  765
[25]  46(B10) 1f 43  7  0   -928.9  4092002.3  0.0  2 0 2047 2661  896
[26]  52(B16) 1f 42  7  0    277.1  4091999.1  0.1  2 0 1817 2482  988
[27]  55(B19) 1f 38  7  0  -1129.6  4092002.8 -0.4  2 0  531 1247  741
[28]  59(B23) 1f 43  7  0    676.3  4091998.1  0.0  2 0 2014 2178 1014
[30]  64(B28) 1f 44  7  0  -1125.5  4092002.9  0.0  2 0 2737 3218 1351
[32]  76(N-5)  f 36  8  0  -3811.6  1022002.3 -0.1  2 0   559  871  453
[33]  77(N-4)  f 45  7  0   -447.2  1022000.2  0.1  2 0   970 1815 1089
[34]  80(N-1)  f 43 17  0   2823.1  1021998.2 -0.1  2 0   667 1315  353
[35]  81(N00)  f 46  7  0    161.8  1021999.9  0.0  2 0  1017 1768  862
[36]  82(N01)  f 44 15  0  -1468.0  1022000.9 -0.1  2 0  1282 2210  921
[37]  84(N03)  f 45  7  0  -4253.6  1022002.7 -0.1  2 0  1211 2390 1061
[38]  85(N04)  f 47  7  0   -555.0  1022000.3 -0.0  2 0  1738 3330 1789
[49]  42(B06)  1 10  8  0    311.4 20459995.9 -0.0  1 0  397  145  111
[50]  39(B03)  1 10 18  0   -675.6 20460022.3  0.1  1 0  613  701  476
[51]  40(B04)  1 21 24  0  -1068.5 20460027.4  0.0  1 0  172  671  448
[52]  41(B05)  1 24 26  0   1307.2 20460023.7  0.0  1 0   27  304  463
[53]  66(B30)  1  7  7  0  -3294.7 20460068.8  0.0  1 0  468  154  207
[54]  43(B07)  1  8  7  0   -727.7 20460010.6  0.1  1 0  561  774  540
[56]  45(B09)  1  7  9  0    208.8 20460002.8 -0.1  1 0  347  514  696
[57]  46(B10)  1  7  7  0   -617.4 20460013.2  0.1  1 0  216  289  262
[58]  52(B16)  1  7 10  0    131.4 20459995.0 -0.0  1 0  382  533  475
[59]  55(B19)  1  7  7  0  -1065.3 20460018.9  0.1  1 0  602  216  207
[60]  59(B23)  1  7  7  0    661.6 20459990.4  0.0  1 0  123   39  442
[62]  64(B28)  1  7  7  0   -956.2 20460018.5  0.0  1 0  257  448  199
Refix G07: 2, 271810.916426, -3688
Refix G08: 2, 271810.926490, -4236
Refix G09: 2, 271810.924357, -3720
Refix G14: 2, 271810.916113, 2634
Refix G16: 2, 271810.931094, 517
Refix G22: 2, 271810.915746, 1040
Refix G23: 2, 271810.930229, -2085
Refix G26: 2, 271810.925699, 1346
Refix G27: 2, 271810.931529, -2525
Refix G31: 2, 271810.920077, 1073
$GNGGA,032953.000,2944.9057,N,10633.0900,E,1,18,0.7,325.7,M,,,,0000*1C
$GNRMC,032953.000,A,2944.9057,N,10633.0900,E,0.34,0.00,090180,,*1A
$GPGSA,A,3,08,09,16,23,26,27,31,,,,,,0.8,0.7,0.4*3D
$BDGSA,A,3,03,04,05,06,07,09,10,16,19,23,28,,0.8,0.7,0.4*27
$GLGSA,A,3,,,,,,,,,,,,,0.8,0.7,0.4*25
$GPGSV,3,1,10,08,38,188,43,09,29,313,43,16,59,011,43,23,60,285,44*7F
$GPGSV,3,2,10,26,35,042,41,27,64,145,44,31,19,098,42,07,10,302,00*75
$GPGSV,3,3,10,14,03,149,00,22,05,205,00*70
$BDGSV,3,1,12,06,40,171,41,03,54,172,42,04,23,109,39,05,26,243,38*61
$BDGSV,3,2,12,30,00,000,39,07,64,009,43,09,64,202,43,10,62,306,43*63
$BDGSV,3,3,12,16,46,179,42,19,21,291,38,23,18,082,43,28,43,082,44*6F
$B3CN0,0,0,0,0,0,0,0,0,0,0,0,0,0,0*4C
---00000019--- Acq_st=3 0  2000-1-9 3:29:53 
[00]  07(G08)  f 43  7  0  -4233.2  2046005.5  0.1  2 0 1775 2455  905
[01]  08(G09)  f 43  7  0  -3715.4  2046004.8  0.0  2 0 2236 3123 1606
[02]  15(G16)  f 44  7  0    519.4  2045999.2  0.0  2 0 2829 4025 2291
[03]  22(G23)  f 46  7  0  -2082.3  2046002.6 -0.0  2 0 2793 4551 1927
[04]  25(G26)  f 41  7  0   1347.9  2045998.2 -0.0  2 0 1415 1826  601
[05]  26(G27)  f 45  7  0  -2522.3  2046003.2 -0.0  2 0 3321 4993 2317
[06]  30(G31)  f 42  7  0   1077.1  2045998.6 -0.0  2 0 1599 2533 1290
[08]  09(G10)  1  7  7  0   7488.9  2045991.3 -0.0  1 0  293  320  465
[16]  37(B01)  1 41 13  0  -1086.4  4092003.9  0.9  1 0  444 1515 1146
[17]  42(B06) 1f 41 12  0    263.6  4091999.2  0.1  2 0 1624 2057  822
[18]  39(B03) 1f 43 31  0  -1083.1  4092002.7 -0.0  2 0 1593 1856  636
[19]  40(B04) 1f 37 26  0  -1075.4  4092002.7 -0.7  2 0 1014 1412  756
[20]  41(B05) 1f 39 25  0  -1055.5  4092002.8 -0.6  2 0  402  719  645
[21]  66(B30) 1f 38  7  0  -4302.6  4092011.1  0.3  2 0  973 1162  371
[22]  43(B07) 1f 43  7  0   -837.3  4092002.1  0.0  2 0 1863 2640 1363
[24]  45(B09) 1f 43  7  0   -201.8  4092000.4 -0.0  2 0 1329 1746  902
[25]  46(B10) 1f 43  7  0   -922.2  4092002.3  0.0  2 0 1900 2536 1187
[26]  52(B16) 1f 42  7  0    286.2  4091999.2 -0.0  2 0 1712 2125  980
[27]  55(B19) 1f 38  7  0  -1125.5  4092002.8 -0.1  2 0  709  782  439
[28]  59(B23) 1f 44  7  0    681.2  4091998.1 -0.0  2 0 1348 2263  844
[29]  38(B02)  1 25 26  1  -1058.4  4092002.8 -0.1  1 0  739  713 1264
[30]  64(B28) 1f 44  7  0  -1120.8  4092002.8 -0.0  2 0 2596 3381 1470
[32]  76(N-5)  f 36  7  0  -3804.3  1022002.4 -0.0  2 0   774  819  317
[33]  77(N-4)  f 45  7  0   -440.2  1022000.3 -0.1  2 0   927 1659  976
[34]  80(N-1)  f 42  7  0   2828.3  1021998.2 -0.2  2 0   555 1130  679
[35]  81(N00)  f 46  7  0    167.3  1021999.8 -0.1  2 0  1178 2273 1277
[36]  82(N01)  f 45 13  0  -1462.4  1022000.9  0.1  2 0   844 1795  898
[37]  84(N03)  f 46  7  0  -4247.3  1022002.7 -0.0  2 0  1534 2588 1241
[38]  85(N04)  f 47  7  0   -547.4  1022000.3 -0.1  2 0  1957 2954 1460
[49]  42(B06)  1  7  7  0     -0.9 20459996.5 -0.0  1 0  688  305  255
[53]  66(B30)  1  7  7  0  -3861.6 20460067.9  0.0  1 0   38  108  889
[54]  43(B07)  1  7  7  0   -677.5 20460008.1  0.1  1 0  524  477  414
[56]  45(B09)  1  7  7  0    449.1 20460001.4 -0.0  1 0  717  550  345
[57]  46(B10)  1  7  7  0   -337.0 20460014.0  0.2  1 0  680 1042  782
[58]  52(B16)  1  7  7  0   -341.4 20459996.8  0.1  1 0  223  356  368
[59]  55(B19)  1  7  7  0   -905.5 20460017.4 -0.0  1 0  406  293  187
[60]  59(B23)  1  7  7  0   1268.9 20459990.5  0.0  1 0  559  673  904
[62]  64(B28)  1  7 11  0   -668.1 20460017.6  0.2  1 0  540  244  600
Refix G07: 2, 271811.916428, -3687
Refix G08: 2, 271811.926493, -4236
Refix G09: 2, 271811.924359, -3719
Refix G14: 2, 271811.916111, 2634
Refix G16: 2, 271811.931093, 518
Refix G22: 2, 271811.915745, 1040
Refix G23: 2, 271811.930230, -2084
Refix G26: 2, 271811.925698, 1347
Refix G27: 2, 271811.931530, -2524
Refix G31: 2, 271811.920076, 1074
$GNGGA,032954.000,2944.9057,N,10633.0901,E,1,18,0.7,325.3,M,,,,0000*1E
$GNRMC,032954.000,A,2944.9057,N,10633.0901,E,0.29,0.00,090180,,*10
$GPGSA,A,3,08,09,16,23,26,27,31,,,,,,0.8,0.7,0.4*3D
$BDGSA,A,3,03,04,05,06,07,09,10,16,19,23,28,,0.8,0.7,0.4*27
$GLGSA,A,3,,,,,,,,,,,,,0.8,0.7,0.4*25
$GPGSV,3,1,10,08,38,188,43,09,29,313,43,16,59,011,44,23,60,285,46*7A
$GPGSV,3,2,10,26,35,042,41,27,64,145,45,31,19,098,42,07,10,302,00*74
$GPGSV,3,3,10,14,03,149,00,22,05,205,00*70
$BDGSV,3,1,12,06,40,171,41,03,54,172,45,04,23,109,37,05,26,243,39*69
$BDGSV,3,2,12,30,00,000,38,07,64,009,43,09,64,202,43,10,62,306,43*62
$BDGSV,3,3,12,16,46,179,42,19,21,291,38,23,18,082,44,28,43,082,44*68
$B3CN0,0,0,0,0,0,0,0,0,0,0,0,0,0,0*4C
---00000020--- Acq_st=3 0  2000-1-9 3:29:54 
[00]  07(G08)  f 43  7  0  -4240.4  2046005.5 -0.1  2 0  993 2232 1088
[01]  08(G09)  f 43  7  0  -3720.9  2046004.8 -0.0  2 0 1476 2575 1675
[02]  15(G16)  f 44  8  0    513.9  2045999.3  0.0  2 0 2407 3395 1960
[03]  22(G23)  f 45  7  0  -2088.2  2046002.7 -0.0  2 0 3031 4228 1782
[04]  25(G26)  f 41  7  0   1341.0  2045998.2  0.0  2 0 1797 2090  870
[05]  26(G27)  f 45  7  0  -2531.4  2046003.2 -0.0  2 0 2630 4215 2389
[06]  30(G31)  f 42  7  0   1070.3  2045998.6  0.0  2 0 1256 2879 1186
[08]  09(G10)  1  7 11  0   6960.1  2045991.2 -0.1  1 0  176  367  655
[16]  37(B01)  f 40 19  0  -1092.0  4092002.7  0.6  2 0 1053  989  489
[17]  42(B06) 1f 41  9  0    258.4  4091999.2 -0.1  2 0  998 1687 1294
[18]  39(B03) 1f 43 32  0  -1091.6  4092002.8  0.4  2 0 1271 2042 1148
[19]  40(B04) 1f 39 21  0  -1081.0  4092002.7  0.2  2 0 1132 1407  786
[20]  41(B05) 1f 38 27  0  -1061.3  4092002.7  0.2  2 0  896  982  419
[21]  66(B30) 1f 38  8  0  -4305.9  4092011.2  0.1  2 0 1014  628  415
[22]  43(B07) 1f 43  7  0   -842.0  4092002.1 -0.0  2 0 1844 3070 1878
[24]  45(B09) 1f 43  7  0   -208.7  4092000.4 -0.0  2 0 1783 2378 1017
[25]  46(B10) 1f 43  7  0   -930.3  4092002.3 -0.0  2 0 2261 2685 1166
[26]  52(B16) 1f 42  7  0    277.1  4091999.1 -0.0  2 0  838 1295  448
[27]  55(B19) 1f 38  7  0  -1131.9  4092002.9  0.0  2 0  884 1203  401
[28]  59(B23) 1f 44  9  0    676.0  4091998.1 -0.0  2 0 1856 2485 1293
[29]  38(B02)  1 31 26  0   -967.8  4092005.5  0.2  1 0  316  896 1839
[30]  64(B28) 1f 44  7  0  -1127.0  4092002.8 -0.0  2 0 2195 2823  911
[32]  76(N-5)  f 36 10  0  -3810.3  1022002.4 -0.0  2 0   237  297  465
[33]  77(N-4)  f 45  7  0   -446.9  1022000.3 -0.1  2 0  1215 1896  771
[34]  80(N-1)  f 43 16  0   2821.1  1021998.1  0.1  2 0   931 1207  477
[35]  81(N00)  f 46  7  0    160.9  1021999.9  0.0  2 0  1204 2088  897
[36]  82(N01)  f 45 13  0  -1469.7  1022000.9  0.1  2 0  1378 2460 1500
[37]  84(N03)  f 46  7  0  -4253.9  1022002.7  0.1  2 0  1067 2145  988
[38]  85(N04)  f 47  7  0   -553.4  1022000.3 -0.1  2 0  1687 3032 1531
[49]  42(B06)  1  7  7  0   -371.1 20459996.1 -0.2  1 0  920  404  229
[50]  39(B03)  1 18 23  0  -1114.9 20460017.4  0.1  1 0  180  163  478
[51]  40(B04)  1 10 25  0   -555.7 20460022.6 -0.2  1 0  162  805  752
[52]  41(B05)  1 26 24  0   -479.8 20460019.2  0.1  1 0  231  354  469
[53]  66(B30)  1  7  7  0  -4295.3 20460069.1 -0.1  1 0  334  189  401
[54]  43(B07)  1  7  7  0   -688.6 20460012.5 -0.1  1 0 1037  827  686
[56]  45(B09)  1  7  7  0    616.1 20460004.2 -0.1  1 0  645  757  673
[57]  46(B10)  1  7  7  0   -397.0 20460014.8  0.1  1 0  390  397  385
[58]  52(B16)  1  7  7  0  -1033.8 20459997.0  0.1  1 0  341  136  269
[59]  55(B19)  1  7  7  0   -732.6 20460018.6 -0.0  1 0  474  458  275
[60]  59(B23)  1  7  7  0   1279.8 20459988.8  0.1  1 0  421  269  238
[62]  64(B28)  1  7 11  0   -698.0 20460017.4 -0.0  1 0  403  439  266
Refix G07: 2, 271812.916431, -3689
Refix G08: 2, 271812.926496, -4238
Refix G09: 2, 271812.924362, -3721
Refix G14: 2, 271812.916109, 2632
Refix G16: 2, 271812.931093, 516
Refix G22: 2, 271812.915744, 1038
Refix G23: 2, 271812.930231, -2086
Refix G26: 2, 271812.925698, 1345
Refix G27: 2, 271812.931532, -2526
Refix G31: 2, 271812.920075, 1072
$GNGGA,032955.000,2944.9058,N,10633.0903,E,1,18,0.7,325.1,M,,,,0000*10
$GNRMC,032955.000,A,2944.9058,N,10633.0903,E,0.24,0.00,090180,,*11
$GPGSA,A,3,08,09,16,23,26,27,31,,,,,,0.8,0.7,0.4*3D
$BDGSA,A,3,03,04,05,06,07,09,10,16,19,23,28,,0.8,0.7,0.4*27
$GLGSA,A,3,,,,,,,,,,,,,0.8,0.7,0.4*25
$GPGSV,3,1,10,08,38,188,43,09,29,313,43,16,59,011,44,23,60,285,45*79
$GPGSV,3,2,10,26,35,042,41,27,64,145,45,31,19,098,42,07,10,302,00*74
$GPGSV,3,3,10,14,03,149,00,22,05,205,00*70
$BDGSV,3,1,12,01,40,125,40,06,40,171,41,03,54,172,43,04,23,109,39*68
$BDGSV,3,2,12,05,26,243,38,30,00,000,38,07,64,009,43,09,64,202,43*6A
$BDGSV,3,3,12,10,62,306,43,16,46,179,42,19,21,291,38,23,18,082,44*68
$B3CN0,0,0,0,0,0,0,0,0,0,0,0,0,0,0*4C
---00000021--- Acq_st=3 0  2000-1-9 3:29:55 
[00]  07(G08)  f 43  7  0  -4232.2  2046005.4  0.1  2 0 1647 2766 1409
[01]  08(G09)  f 44  7  0  -3713.7  2046004.8 -0.0  2 0 2002 2921 1522
[02]  15(G16)  f 44  7  0    521.9  2045999.3  0.0  2 0 1797 3016 1763
[03]  22(G23)  f 46  7  0  -2079.7  2046002.6 -0.0  2 0 2619 4055 1785
[04]  25(G26)  f 41  7  0   1346.7  2045998.2  0.0  2 0 1498 1747  646
[05]  26(G27)  f 46  7  0  -2518.6  2046003.2  0.0  2 0 3319 5024 2128
[06]  30(G31)  f 42  7  0   1076.7  2045998.6 -0.0  2 0 1451 2168  762
[08]  09(G10)  1 12  7  0   6979.8  2045991.2 -0.1  1 0  300  192  219
[16]  37(B01)  f 40 10  0  -1084.2  4092002.8 -0.5  2 0 1051 1206  250
[17]  42(B06) 1f 41 10  0    266.0  4091999.2  0.1  2 0 1677 2248 1260
[18]  39(B03) 1f 43 29  0  -1081.1  4092002.7 -0.0  2 0 1654 2107  736
[19]  40(B04) 1f 39 23  0  -1075.0  4092002.6  0.2  2 0 1488 1565  387
[20]  41(B05) 1f 38 26  0  -1052.4  4092002.7  0.6  2 0  739  962  162
[21]  66(B30) 1f 39  7  0  -4301.0  4092011.2  0.1  2 0  851 1243  728
[22]  43(B07) 1f 43  7  0   -836.3  4092002.1  0.0  2 0 1558 1884  922
[24]  45(B09) 1f 43  7  0   -203.0  4092000.4  0.0  2 0 2098 2584 1102
[25]  46(B10) 1f 43  7  0   -924.3  4092002.3 -0.1  2 0 2135 2770 1207
[26]  52(B16) 1f 42  7  0    285.3  4091999.1 -0.0  2 0 1652 2629 1493
[27]  55(B19) 1f 38  7  0  -1118.5  4092002.8  0.2  2 0 1351 1320  531
[28]  59(B23) 1f 44  9  0    683.4  4091998.1  0.0  2 0 2284 2931 1049
[29]  38(B02)  f 38 29  0  -1051.5  4092003.0  0.2  2 0  451 1052 1389
[30]  64(B28) 1f 44  7  0  -1120.0  4092002.8  0.0  2 0 1959 2746  722
[32]  76(N-5)  f 36  9  0  -3803.8  1022002.4 -0.0  2 0   447  749  281
[33]  77(N-4)  f 45  7  0   -438.7  1022000.3  0.1  2 0   852 1653  876
[34]  80(N-1)  f 42  7  0   2828.0  1021998.2  0.3  2 0   385 1171  888
[35]  81(N00)  f 46  7  0    167.7  1021999.9  0.0  2 0  1347 2270 1362
[36]  82(N01)  f 44 15  0  -1461.7  1022000.9 -0.1  2 0  1066 1970  956
[37]  84(N03)  f 46  7  0  -4245.5  1022002.7  0.0  2 0  1649 2406 1178
[38]  85(N04)  f 47  7  0   -545.0  1022000.3  0.0  2 0  1545 3262 1545
[48]  37(B01)  1 10 18  1   -925.8 20460019.8  0.1  1 0  348  451  321
[49]  42(B06)  1  7  7  0    199.2 20459997.0  0.3  1 0  281  556  849
[50]  39(B03)  1 18 10  1  -1088.3 20460016.9  0.1  1 0  536  533  331
[51]  40(B04)  1 18 25  1   -375.2 20460015.0  0.1  1 0  169  697  700
[52]  41(B05)  1 22 24  0    321.1 20460020.5 -0.1  1 0  586 1042  706
[54]  43(B07)  1  7  7  0   -677.6 20460010.3 -0.0  1 0  776  999  772
[56]  45(B09)  1  7  7  0    689.1 20460002.7 -0.0  1 0   98  282  470
[57]  46(B10)  1  7  7  0   -204.1 20460014.5  0.0  1 0  624  402  486
[58]  52(B16)  1  7  8  0  -1255.4 20459995.7 -0.0  1 0  289  238  154
[59]  55(B19)  1  7  8  0   -755.5 20460019.8  0.0  1 0  914  655  517
[60]  59(B23)  1  7  7  0   1182.6 20459989.0 -0.1  1 0  487   50  290
[62]  64(B28)  1  7  7  0   -475.4 20460017.4 -0.1  1 0  577  404  379
Refix G07: 2, 271813.916433, -3686
Refix G08: 2, 271813.926498, -4233
Refix G09: 2, 271813.924364, -3716
Refix G14: 2, 271813.916108, 2636
Refix G16: 2, 271813.931092, 520
Refix G22: 2, 271813.915744, 1041
Refix G23: 2, 271813.930233, -2081
Refix G26: 2, 271813.925697, 1349
Refix G27: 2, 271813.931533, -2521
Refix G31: 2, 271813.920074, 1076
$GNGGA,032956.000,2944.9059,N,10633.0904,E,1,18,0.7,324.7,M,,,,0000*12
$GNRMC,032956.000,A,2944.9059,N,10633.0904,E,0.26,0.00,090180,,*16
$GPGSA,A,3,08,09,16,23,26,27,31,,,,,,0.8,0.7,0.4*3D
$BDGSA,A,3,03,04,05,06,07,09,10,16,19,23,28,,0.8,0.7,0.4*27
$GLGSA,A,3,,,,,,,,,,,,,0.8,0.7,0.4*25
$GPGSV,3,1,10,08,38,188,43,09,29,313,44,16,59,011,44,23,60,285,46*7D
$GPGSV,3,2,10,26,35,042,41,27,64,145,46,31,19,098,42,07,10,302,00*77
$GPGSV,3,3,10,14,03,149,00,22,05,205,00*70
$BDGSV,3,1,12,01,40,125,40,06,40,171,41,03,54,172,43,04,23,109,39*68
$BDGSV,3,2,12,05,26,243,38,30,00,000,39,07,64,009,43,09,64,202,43*6B
$BDGSV,3,3,12,10,62,306,43,16,46,179,42,19,21,291,38,23,18,082,44*68
$B3CN0,0,0,0,0,0,0,0,0,0,0,0,0,0,0*4C
---00000022--- Acq_st=7 0  2000-1-9 3:29:56 
[00]  07(G08)  f 43  7  0  -4241.9  2046005.4  0.0  2 0 2002 2972 1164
[01]  08(G09)  f 43  7  0  -3727.5  2046004.8 -0.0  2 0 1653 2519 1111
[02]  15(G16)  f 44  7  0    511.8  2045999.3  0.1  2 0 1804 3232 1599
[03]  22(G23)  f 45  7  0  -2087.5  2046002.7 -0.0  2 0 2565 4339 2247
[04]  25(G26)  f 41 10  0   1338.5  2045998.2  0.0  2 0 1829 1978  566
[05]  26(G27)  f 45  8  0  -2530.5  2046003.2  0.1  2 0 2455 4487 2318
[06]  30(G31)  f 43  7  0   1062.8  2045998.5 -0.0  2 0 1374 2567 1349
[16]  37(B01) 1f 38 10  0  -1097.2  4092002.7  0.7  2 0 1638 1446  985
[17]  42(B06) 1f 41  7  0    254.8  4091999.2 -0.1  2 0 1394 1862 1033
[18]  39(B03) 1f 43 32  0  -1092.3  4092002.7 -0.0  2 0 1544 1989  837
[19]  40(B04) 1f 40 22  0  -1080.5  4092002.7 -0.2  2 0  940 1044  306
[20]  41(B05) 1f 37 20  0  -1064.2  4092002.5  0.8  2 0  597  689  383
[21]  66(B30) 1f 39  7  0  -4312.0  4092011.2  0.2  2 0  495  861  256
[22]  43(B07) 1f 43  7  0   -845.3  4092002.1  0.1  2 0 2191 2483 1374
[24]  45(B09) 1f 43  7  0   -212.5  4092000.4 -0.0  2 0 1883 2367 1123
[25]  46(B10) 1f 43  7  0   -931.5  4092002.3  0.0  2 0 1413 2077  627
[26]  52(B16) 1f 42  7  0    275.7  4091999.2  0.1  2 0 1620 2030  670
[27]  55(B19) 1f 38  7  0  -1131.9  4092002.9 -0.0  2 0  887 1152  620
[28]  59(B23) 1f 44 10  0    674.7  4091998.1  0.0  2 0 2277 3011 1229
[29]  38(B02) 1f 39 24  0  -1057.1  4092002.9  0.2  2 0  775 1268 1044
[30]  64(B28) 1f 44  7  0  -1130.3  4092002.9 -0.0  2 0 2572 3287 1146
[32]  76(N-5)  f 36  9  0  -3813.8  1022002.4 -0.0  2 0   110  535  515
[33]  77(N-4)  f 45  7  0   -446.6  1022000.3 -0.0  2 0  1102 1922  945
[34]  80(N-1)  f 43 16  0   2820.1  1021998.2  0.1  2 0   470 1339  767
[35]  81(N00)  f 46  7  0    157.6  1021999.9  0.0  2 0  1480 2390  884
[36]  82(N01)  f 45  7  0  -1472.6  1022000.9 -0.0  2 0  1128 1890  703
[37]  84(N03)  f 46  7  0  -4256.2  1022002.7  0.0  2 0  1700 2449  888
[38]  85(N04)  f 47  7  0   -555.1  1022000.3 -0.0  2 0  1640 2994 1770
[48]  37(B01)  1 10 10  1   -873.5 20460021.7  0.0  1 0  493  319  557
[49]  42(B06)  1  7  7  0    432.5 20459995.0  0.1  1 0  798  401  394
[50]  39(B03)  1 14 20  0  -1020.8 20460016.5 -0.2  1 0  521   99  165
[51]  40(B04)  1 19 23  1    -30.2 20460016.5 -0.0  1 0  118  342  483
[52]  41(B05)  1 26 26  0    353.8 20460021.1  0.0  1 0  660  719  430
[53]  66(B30)  1  7  7  0  -3489.0 20460069.6  0.0  1 0  429   48  116
[54]  43(B07)  1  7  9  0   -826.3 20460009.3 -0.2  1 0  825  375  176
[56]  45(B09)  1  7  7  0    714.0 20460002.5  0.0  1 0  640  349  500
[57]  46(B10)  1  7  7  0   -194.5 20460012.7  0.1  1 0  255  162  217
[58]  52(B16)  1  7  8  0   -890.0 20459995.6 -0.0  1 0  291  322  424
[59]  55(B19)  1  7  7  0   -566.2 20460018.5 -0.1  1 0  235  315  464
[60]  59(B23)  1  7  7  0   1296.4 20459992.3  0.0  1 0  307  486  424
[61]  38(B02)  1 10 36  1   -849.0 20460021.7  0.0  1 0  373  135  274
[62]  64(B28)  1  7  7  0  -1004.2 20460018.5 -0.1  1 0  450  337  237
Refix G07: 2, 271814.916435, -3693
Refix G08: 2, 271814.926501, -4242
Refix G09: 2, 271814.924366, -3724
Refix G14: 2, 271814.916106, 2627
Refix G16: 2, 271814.931092, 510
Refix G22: 2, 271814.915743, 1034
Refix G23: 2, 271814.930234, -2090
Refix G26: 2, 271814.925696, 1339
Refix G27: 2, 271814.931535, -2531
Refix G31: 2, 271814.920074, 1066
$GNGGA,032957.000,2944.9061,N,10633.0911,E,1,20,0.7,324.7,M,,,,0000*17
$GNRMC,032957.000,A,2944.9061,N,10633.0911,E,0.12,0.00,240419,,*15
$GPGSA,A,3,08,09,16,23,26,27,31,,,,,,0.8,0.7,0.4*3D
$BDGSA,A,3,01,02,03,04,05,06,07,09,10,16,19,23,0.8,0.7,0.4*2E
$GLGSA,A,3,,,,,,,,,,,,,0.8,0.7,0.4*25
$GPGSV,3,1,10,08,38,188,43,09,29,313,43,16,59,011,44,23,60,285,45*79
$GPGSV,3,2,10,26,35,042,41,27,64,145,45,31,19,098,43,07,10,302,00*75
$GPGSV,3,3,10,14,03,149,00,22,05,205,00*70
$BDGSV,3,1,12,01,40,125,38,06,40,171,41,03,54,172,43,04,23,109,40*69
$BDGSV,3,2,12,05,26,243,37,30,00,000,39,07,64,009,43,09,64,202,43*64
$BDGSV,3,3,12,10,62,306,43,16,46,179,42,19,21,291,38,23,18,082,44*68
$B3CN0,0,0,0,0,0,0,0,0,0,0,0,0,0,0*4C
---00000023--- Acq_st=3 0  2019-4-24 3:29:57 
[00]  07(G08)  f 43  7  0  -4241.4  2046005.4  0.0  2 0 1533 2474 1207
[01]  08(G09)  f 43  7  0  -3726.3  2046004.8 -0.0  2 0 1529 2830 1331
[02]  15(G16)  f 45  7  0    512.6  2045999.3 -0.0  2 0 1696 2904 2140
[03]  22(G23)  f 46  7  0  -2088.4  2046002.7 -0.0  2 0 2510 4417 2421
[04]  25(G26)  f 41  8  0   1342.0  2045998.2  0.0  2 0 1983 1957  744
[05]  26(G27)  f 45  7  0  -2529.6  2046003.2 -0.0  2 0 2777 3996 1903
[06]  30(G31)  f 42  7  0   1067.3  2045998.5  0.1  2 0 1258 1778  430
[16]  37(B01) 1f 40 10  0  -1089.3  4092002.6 -0.5  2 0 1301 1467 1010
[17]  42(B06) 1f 41  9  0    250.6  4091999.2  0.0  2 0 1764 2228 1003
[18]  39(B03) 1f 43 30  0  -1093.0  4092002.7  0.3  2 0 1353 1658  936
[19]  40(B04) 1f 39 18  0  -1085.9  4092002.7 -0.2  2 0 1129 1539  684
[20]  41(B05) 1f 38 22  0  -1064.6  4092002.6 -0.4  2 0 1149 1568  848
[21]  66(B30) 1f 39 11  0  -4313.0  4092011.2 -0.0  2 0 1167 1046  394
[22]  43(B07) 1f 43  7  0   -843.7  4092002.1  0.0  2 0 1726 2369 1015
[24]  45(B09) 1f 43  7  0   -211.4  4092000.4  0.1  2 0 1622 2002  585
[25]  46(B10) 1f 43  7  0   -933.3  4092002.3  0.0  2 0 1472 2229 1089
[26]  52(B16) 1f 42  7  0    274.2  4091999.1  0.1  2 0 1632 1892  729
[27]  55(B19) 1f 38  7  0  -1126.7  4092002.8  0.2  2 0 1700 1889  755
[28]  59(B23) 1f 44  8  0    674.3  4091998.1  0.0  2 0 2292 2831 1358
[29]  38(B02) 1f 41 28  0  -1058.9  4092002.8  0.1  2 0  657 1473  964
[30]  64(B28) 1f 44  7  0  -1131.0  4092002.8 -0.1  2 0 2079 2761 1198
[32]  76(N-5)  f 36  7  0  -3812.9  1022002.4  0.1  2 0   388  538  506
[33]  77(N-4)  f 45 13  0   -447.2  1022000.3 -0.1  2 0  1198 1801  793
[34]  80(N-1)  f 43 13  0   2819.5  1021998.2 -0.2  2 0   774 1304  752
[35]  81(N00)  f 46 10  0    156.9  1021999.9  0.0  2 0  1254 2042 1002
[36]  82(N01)  f 45 11  0  -1472.1  1022000.9  0.1  2 0  1049 1823  889
[37]  84(N03)  f 46  7  0  -4255.5  1022002.7 -0.0  2 0  1558 2511 1044
[38]  85(N04)  f 47  7  0   -553.6  1022000.3 -0.0  2 0  1367 2779 1736
[48]  37(B01)  7 14 10  1  -1138.8 20460017.4 -0.2  2 0  333   87  477
[50]  39(B03)  1 23 17  1   -601.4 20460024.8 -0.0  1 0  378  317   38
[51]  40(B04)  1 25 22  0    247.8 20460019.1  0.1  1 0  371  120  468
[52]  41(B05)  1 24 25  0    195.9 20460023.9  0.0  1 0  407  796  314
[53]  66(B30)  1  7  7  0  -4131.3 20460067.7 -0.0  1 0  334  419  271
[61]  38(B02)  1 10 13  0   -603.0 20460010.8  0.0  1 0  136  238  104
Refix G07: 2, 271815.916438, -3693
Refix G08: 2, 271815.926504, -4240
Refix G09: 2, 271815.924369, -3722
Refix G14: 2, 271815.916104, 2629
Refix G16: 2, 271815.931092, 513
Refix G22: 2, 271815.915742, 1035
Refix G23: 2, 271815.930235, -2087
Refix G26: 2, 271815.925695, 1341
Refix G27: 2, 271815.931537, -2528
Refix G31: 2, 271815.920073, 1069
$GNGGA,032958.000,2944.9064,N,10633.0916,E,1,20,0.7,325.3,M,,,,0000*1F
$GNRMC,032958.000,A,2944.9064,N,10633.0916,E,0.06,0.00,240419,,*1D
$GPGSA,A,3,08,09,16,23,26,27,31,,,,,,0.8,0.7,0.4*3D
$BDGSA,A,3,01,02,03,04,05,06,07,09,10,16,19,23,0.8,0.7,0.4*2E
$GLGSA,A,3,,,,,,,,,,,,,0.8,0.7,0.4*25
$GPGSV,3,1,10,08,38,188,43,09,29,313,43,16,59,011,45,23,60,285,46*7B
$GPGSV,3,2,10,26,35,042,41,27,64,145,45,31,19,098,42,07,10,302,00*74
$GPGSV,3,3,10,14,03,149,00,22,05,205,00*70
$BDGSV,3,1,12,01,40,125,40,06,40,171,41,03,54,172,43,04,23,109,39*68
$BDGSV,3,2,12,05,26,243,38,30,00,000,39,07,64,009,43,09,64,202,43*6B
$BDGSV,3,3,12,10,62,306,43,16,46,179,42,19,21,291,38,23,18,082,44*68
$B3CN0,0,0,0,0,0,0,0,0,0,0,0,0,0,0*4C
---00000024--- Acq_st=3 0  2019-4-24 3:29:58 
[00]  07(G08)  f 43  7  0  -4238.7  2046005.4 -0.0  2 0 1450 2764 1214
[01]  08(G09)  f 43  7  0  -3721.9  2046004.7 -0.0  2 0 1975 2934 1356
[02]  15(G16)  f 44  7  0    516.6  2045999.3  0.0  2 0 2241 3295 1739
[03]  22(G23)  f 45  7  0  -2083.4  2046002.6  0.0  2 0 2545 4132 2021
[04]  25(G26)  f 40  8  0   1344.4  2045998.2  0.0  2 0 1168 1783  858
[05]  26(G27)  f 45  7  0  -2524.6  2046003.2 -0.1  2 0 2093 3731 1612
[06]  30(G31)  f 42  7  0   1070.8  2045998.6 -0.1  2 0  831 2145 1346
[08]  16(G17)  1  7  7  0  -3624.3  2046004.0 -0.1  1 0  267  185  198
[16]  37(B01) 1f 40 10  0  -1085.0  4092002.7 -0.2  2 0  983 1537  706
[17]  42(B06) 1f 41 12  0    258.3  4091999.2 -0.1  2 0 1276 1578 1032
[18]  39(B03) 1f 43 31  0  -1087.7  4092002.7  0.1  2 0 1685 1880  793
[19]  40(B04) 1f 39 25  0  -1078.0  4092002.8 -0.2  2 0 1213 1230  552
[20]  41(B05) 1f 38 26  0  -1061.2  4092002.7  0.6  2 0 1705 1767  931
[21]  66(B30) 1f 39  7  0  -4306.2  4092011.2 -0.0  2 0  696 1316  580
[22]  43(B07) 1f 43 13  0   -843.2  4092002.1 -0.0  2 0 2067 2749 1321
[24]  45(B09) 1f 43  7  0   -204.3  4092000.4  0.0  2 0 2096 2432 1089
[25]  46(B10) 1f 44  7  0   -928.0  4092002.3 -0.0  2 0 1976 2285  918
[26]  52(B16) 1f 42  7  0    280.5  4091999.1 -0.1  2 0 1479 2429 1587
[27]  55(B19) 1f 38  7  0  -1130.3  4092002.9  0.2  2 0 1360 1088   73
[28]  59(B23) 1f 44  7  0    675.1  4091998.1 -0.0  2 0 1940 2810 1086
[29]  38(B02) 1f 41 26  0  -1055.1  4092002.6  0.2  2 0 1405 1735  368
[30]  64(B28) 1f 44  7  0  -1126.5  4092002.8  0.0  2 0 2344 3066 1223
[32]  76(N-5)  f 36  9  0  -3806.7  1022002.4 -0.0  2 0   157  539  548
[33]  77(N-4)  f 45  7  0   -440.9  1022000.3  0.1  2 0  1640 2152 1097
[34]  80(N-1)  f 43 16  0   2824.2  1021998.1  0.0  2 0  1003 1599  784
[35]  81(N00)  f 46  7  0    161.3  1021999.9  0.1  2 0  1281 2078 1072
[36]  82(N01)  f 45 12  0  -1467.7  1022000.9 -0.0  2 0  1584 2303 1116
[37]  84(N03)  f 46  7  0  -4250.3  1022002.7 -0.1  2 0  1443 2371 1316
[38]  85(N04)  f 47  7  0   -548.7  1022000.3 -0.1  2 0  2148 3680 1814
[48]  37(B01)  7 18 16  1  -1108.7 20460015.8 -0.1  2 0  310  339  493
[49]  42(B06)  1  7  7  0    203.0 20459996.6  0.1  1 0  571  471  342
[50]  39(B03)  1 19 22  1   -600.7 20460019.0  0.0  1 0  270  337  349
[51]  40(B04)  1 25 26  1     92.2 20460017.5 -0.0  1 0  134   63  239
[52]  41(B05)  1 20 23  0    206.0 20460018.3 -0.1  1 0  519  534  439
[53]  66(B30)  1  7  7  0  -3938.2 20460069.5 -0.0  1 0  536  215  915
[54]  43(B07)  1  7  7  0   -684.0 20460012.9  0.0  1 0  110  176  217
[56]  45(B09)  1  7  7  0   -171.0 20460002.4 -0.1  1 0  186  638  842
