SD initialized success
Create debug.log Failed! 3
GPS 0 Init Dop: 10000,80
GPS 1 Init Dop: 10000,80
GPS 2 Init Dop: 10000,80
GPS 3 Init Dop: 10000,80
GPS 4 Init Dop: 10000,80
GPS 5 Init Dop: 10000,80
GPS 6 Init Dop: 10000,80
GPS 7 Init Dop: 10000,80
GPS 8 Init Dop: 10000,80
GPS 9 Init Dop: 10000,80
GPS10 Init Dop: 10000,80
GPS11 Init Dop: 10000,80
GPS12 Init Dop: 10000,80
GPS13 Init Dop: 10000,80
GPS14 Init Dop: 10000,80
GPS15 Init Dop: 10000,80
GPS16 Init Dop: 10000,80
GPS17 Init Dop: 10000,80
GPS18 Init Dop: 10000,80
GPS19 Init Dop: 10000,80
GPS20 Init Dop: 10000,80
GPS21 Init Dop: 10000,80
GPS22 Init Dop: 10000,80
GPS23 Init Dop: 10000,80
GPS24 Init Dop: 10000,80
GPS25 Init Dop: 10000,80
GPS26 Init Dop: 10000,80
GPS27 Init Dop: 10000,80
GPS28 Init Dop: 10000,80
GPS29 Init Dop: 10000,80
GPS30 Init Dop: 10000,80
GPS31 Init Dop: 10000,80
BDS 0 Init Dop: 10000,80
BDS 1 Init Dop: 10000,80
BDS 2 Init Dop: 10000,80
BDS 3 Init Dop: 10000,80
BDS 4 Init Dop: 10000,80
BDS 5 Init Dop: 10000,80
BDS 6 Init Dop: 10000,80
BDS 7 Init Dop: 10000,80
BDS 8 Init Dop: 10000,80
BDS 9 Init Dop: 10000,80
BDS10 Init Dop: 10000,80
BDS11 Init Dop: 10000,80
BDS12 Init Dop: 10000,80
BDS13 Init Dop: 10000,80
BDS14 Init Dop: 10000,80
BDS15 Init Dop: 10000,80
BDS16 Init Dop: 10000,80
BDS17 Init Dop: 10000,80
BDS18 Init Dop: 10000,80
BDS19 Init Dop: 10000,80
BDS20 Init Dop: 10000,80
BDS21 Init Dop: 10000,80
BDS22 Init Dop: 10000,80
BDS23 Init Dop: 10000,80
BDS24 Init Dop: 10000,80
BDS25 Init Dop: 10000,80
BDS26 Init Dop: 10000,80
BDS27 Init Dop: 10000,80
BDS28 Init Dop: 10000,80
BDS29 Init Dop: 10000,80
BDS30 Init Dop: 10000,80
BDS31 Init Dop: 10000,80
Good luck!
ch0 satid=6 freq=-3750 acq ok!
ch1 satid=7 freq=-4500 acq ok!
ch2 satid=8 freq=-4000 acq ok!
$GNGGA,000000.000,,,,,0,00,,,M,,,,0000*2B
$GNRMC,000000.000,A,,,,,,,060180,,*29
$GPGSA,A,1,,,,,,,,,,,,,,,*1E
$BDGSA,A,1,,,,,,,,,,,,,,,*0F
$GLGSA,A,1,,,,,,,,,,,,,,,*02
$B3CN0,0,0,0,0,0,0,0,0,0,0,0,0,0,0*4C
---00000001--- Acq_st=3 0  2000-1-1 0:1:35 
[00]  06(G07)  1  7  7  0  -3750.0  2046006.6 -0.1  1 0  236  896 1613
[01]  07(G08)  1 24  7  0  -4500.0  2046008.0 -0.0  1 0  486  948 1563
[02]  08(G09)  1 25  7  0  -4000.0  2046007.1 -0.0  1 0  789 1693 1527
ch3 satid=15 freq=250 acq ok!
ch4 satid=22 freq=-2500 acq ok!
ch5 satid=25 freq=1250 acq ok!
ch6 satid=26 freq=-3000 acq ok!
$GNGGA,000000.000,,,,,0,00,,,M,,,,0000*2B
$GNRMC,000000.000,A,,,,,,,060180,,*29
$GPGSA,A,1,,,,,,,,,,,,,,,*1E
$BDGSA,A,1,,,,,,,,,,,,,,,*0F
$GLGSA,A,1,,,,,,,,,,,,,,,*02
$B3CN0,0,0,0,0,0,0,0,0,0,0,0,0,0,0*4C
---00000002--- Acq_st=3 0  2000-1-1 0:1:36 
[00]  06(G07)  1 28  7  0  -3675.8  2046005.1  0.6  1 0 1301 2308 1246
[01]  07(G08)  1 37  7  0  -4487.5  2046005.7  0.9  1 0 1461 2284 1143
[02]  08(G09)  1 43 17  0  -4005.7  2046005.0  0.8  1 0 1650 2742 1645
[03]  15(G16)  1 29  7  0    266.4  2046000.1  0.2  1 0 2168 3148 1733
[04]  22(G23)  1 24  7  0  -2500.0  2046005.9  0.0  1 0  333 2468 3730
[05]  25(G26)  1  7  7  0   1250.0  2046000.2 -0.0  1 0 1539 2652 1776
[06]  26(G27)  1  7  7  0  -3000.0  2046005.2 -0.0  1 0  488 1625 3344
ch8 satid=30 freq=1000 acq ok!
ch18 satid=39 freq=-1000 acq ok!
$GNGGA,000000.000,,,,,0,00,,,M,,,,0000*2B
$GNRMC,000000.000,A,,,,,,,060180,,*29
$GPGSA,A,1,,,,,,,,,,,,,,,*1E
$BDGSA,A,1,,,,,,,,,,,,,,,*0F
$GLGSA,A,1,,,,,,,,,,,,,,,*02
$B3CN0,0,0,0,0,0,0,0,0,0,0,0,0,0,0*4C
---00000003--- Acq_st=3 0  2000-1-1 0:1:37 
[00]  06(G07)  7 34  7  0  -3679.2  2046004.7  0.1  5 0 2242 2420 1149
[01]  07(G08)  7 34  7  0  -4486.8  2046005.8  0.2  5 0 1999 2635  871
[02]  08(G09)  7 33 12  0  -4004.6  2046005.1  0.3  5 0 1172 2401 1415
[03]  15(G16)  7 22  7  0    269.1  2045999.5  0.8 10 0 1926 3130 1581
[04]  22(G23)  1 46  7  0  -2502.7  2046003.2  0.6  1 0 3071 3127 1205
[05]  25(G26)  1 32  7  0   1235.7  2045998.1  0.6  1 0 1731 2520 1053
[06]  26(G27)  1 27  9  0  -2965.3  2046004.1  0.5  1 0 2519 3702 1805
[08]  30(G31)  1 21  7  0    920.1  2045999.0  0.1  1 0 1318 2102  461
[16]  37(B01)  1 22 18  0  -1000.0  4092004.2 -0.1  1 0  669 1198 1105
[17]  38(B02)  1 18 14  1  -1250.0  4092004.1 -0.1  1 0  104  857  939
[18]  39(B03)  1 19 33  1  -1000.0  4092003.3 -0.0  1 0  681 1330 1521
[19]  40(B04)  1 10 10  0  -1500.0  4092004.9 -0.1  1 0  345  766 1238
ch22 satid=43 freq=-1000 acq ok!
ch24 satid=45 freq=-250 acq ok!
ch25 satid=46 freq=-1000 acq ok!
$GNGGA,000000.000,,,,,0,00,,,M,,,,0000*2B
$GNRMC,000000.000,A,,,,,,,060180,,*29
$GPGSA,A,1,,,,,,,,,,,,,,,*1E
$BDGSA,A,1,,,,,,,,,,,,,,,*0F
$GLGSA,A,1,,,,,,,,,,,,,,,*02
$GPGSV,1,1,04,07,00,000,34,08,00,000,34,09,00,000,33,16,00,000,22*7C
$B3CN0,0,0,0,0,0,0,0,0,0,0,0,0,0,0*4C
---00000004--- Acq_st=3 0  2000-1-1 0:1:38 
[00]  06(G07)  7 40  8  0  -3677.1  2046004.7  0.0  2 0 1857 2040  598
[01]  07(G08)  7 42  7  0  -4486.2  2046005.8 -0.1  2 0  951 2038  964
[02]  08(G09)  7 42 18  0  -4006.5  2046005.1  0.1  2 0 1967 2482  625
[03]  15(G16)  7 44  7  0    271.0  2045999.6 -0.0  2 0 1750 3075 1418
[04]  22(G23)  7 32  7  0  -2499.3  2046003.1  0.3  5 0 2665 3583 1803
[05]  25(G26)  7 28  7  0   1240.4  2045998.3  0.5 10 0 2017 3024 1639
[06]  26(G27)  7 27  7  0  -2962.5  2046003.8  0.6 10 0 2339 3388 1372
[08]  30(G31)  7 20  7  0    924.0  2045998.8  0.8 10 0 1335 2446 1403
[16]  37(B01)  1 10 10  0  -1145.3  4092003.9  0.6  1 0 1097 1496  637
[17]  38(B02)  1 10 20  0  -1108.0  4092002.6  0.4  1 0 1262 1401  202
[18]  39(B03)  1 36 29  0  -1145.9  4092004.9  0.5  1 0  261 1269 2212
[19]  40(B04)  1 10 10  0  -1636.1  4092003.7  0.4  1 0  894 1091  470
[20]  41(B05)  1 14 20  0  -1120.5  4092003.7  0.5  1 0  724 1286  600
[21]  42(B06)  1  7  7  0    132.3  4092000.2  0.1  1 0  867 1302  587
[22]  43(B07)  1  7  7  0   -876.0  4092003.0 -0.0  1 0 2094 3381 1504
[24]  45(B09)  1  7  7  0   -250.0  4092002.3 -0.0  1 0  327  252 1161
[25]  46(B10)  1  7  7  0  -1000.0  4092004.5  0.0  1 0  442 1877 2109
ch26 satid=52 freq=0 acq ok!
ch27 satid=55 freq=-1750 acq ok!
$GNGGA,000000.000,,,,,0,00,,,M,,,,0000*2B
$GNRMC,000000.000,A,,,,,,,060180,,*29
$GPGSA,A,1,,,,,,,,,,,,,,,*1E
$BDGSA,A,1,,,,,,,,,,,,,,,*0F
$GLGSA,A,1,,,,,,,,,,,,,,,*02
$GPGSV,2,1,08,07,00,000,40,08,00,000,42,09,00,000,42,16,00,000,44*77
$GPGSV,2,2,08,23,00,000,32,26,00,000,28,27,00,000,27,31,00,000,18*74
$B3CN0,0,0,0,0,0,0,0,0,0,0,0,0,0,0*4C
---00000005--- Acq_st=3 0  2000-1-1 0:1:39 
[00]  06(G07)  7 41  7  0  -3673.3  2046004.7 -0.1  2 0 1116 2156  828
[01]  07(G08)  7 43  7  0  -4484.6  2046005.8 -0.0  2 0 1731 2628  840
[02]  08(G09)  7 42 16  0  -3999.9  2046005.1 -0.0  2 0 1764 2578 1010
[03]  15(G16)  7 44  7  0    271.9  2045999.6  0.0  2 0 2885 4068 2125
[04]  22(G23)  7 44  7  0  -2494.5  2046003.1  0.1  2 0 2832 3923 1883
[05]  25(G26)  7 43  7  0   1243.3  2045998.3  0.0  2 0 1310 2126  805
[06]  26(G27)  7 44  7  0  -2958.9  2046003.8 -0.0  2 0 1767 3437 1631
[08]  30(G31)  7 43  7  0    928.4  2045998.7 -0.0  2 0 1379 2696 1757
[16]  37(B01) 1f 40 21  0  -1136.0  4092002.7  0.0  2 0  586  927  629
[17]  38(B02)  7 17 10  0  -1426.4  4092003.6 -0.0  2 0  979  565  146
[18]  39(B03)  7 42 29  0  -1141.6  4092003.1 -0.1  2 0 1124 1658 1176
[19]  40(B04)  1 19 10  0  -1619.3  4092002.8  0.3  1 0  901  238  570
[20]  41(B05)  7 36 24  0  -1118.5  4092002.7 -0.8  2 0  939  505  130
[21]  42(B06)  7 18  7  0    135.3  4091999.5  0.2 10 0 1898 1927  898
[22]  43(B07)  7 11  7  0   -872.2  4092002.2  0.4 10 0 2339 3170 1442
[24]  45(B09)  1  7  7  0   -361.4  4092002.1  0.2  1 0 2306 2820  942
[25]  46(B10)  1  7  7  0   -980.2  4092002.4  0.3  1 0 1346 2657 1411
[26]  52(B16)  1  7  7  0     -0.0  4092000.5  0.0  1 0  595 1972 1206
[27]  55(B19)  1  7  7  0  -1750.0  4092002.1  0.0  1 0 1501  803  283
$GNGGA,000000.000,,,,,0,00,,,M,,,,0000*2B
$GNRMC,000000.000,A,,,,,,,060180,,*29
$GPGSA,A,1,,,,,,,,,,,,,,,*1E
$BDGSA,A,1,,,,,,,,,,,,,,,*0F
$GLGSA,A,1,,,,,,,,,,,,,,,*02
$GPGSV,2,1,08,07,00,000,41,08,00,000,43,09,00,000,42,16,00,000,44*77
$GPGSV,2,2,08,23,00,000,44,26,00,000,43,27,00,000,44,31,00,000,43*73
$BDGSV,1,1,04,01,00,000,40,03,00,000,43,05,00,000,36,06,00,000,18*62
$B3CN0,0,0,0,0,0,0,0,0,0,0,0,0,0,0*4C
---00000006--- Acq_st=3 0  2000-1-1 0:1:40 
[00]  06(G07)  7 41  7  0  -3667.8  2046004.7  0.0  2 0 1365 2366 1283
[01]  07(G08)  7 42  7  0  -4478.5  2046005.8  0.0  2 0 1825 2660 1098
[02]  08(G09)  7 41 16  0  -3997.1  2046005.1  0.0  2 0 1589 2033  866
[03]  15(G16)  7 44  7  0    275.6  2045999.6 -0.0  2 0 2163 3414 1772
[04]  22(G23)  7 44  7  0  -2490.1  2046003.2 -0.0  2 0 2446 3940 1390
[05]  25(G26)  7 43  7  0   1246.5  2045998.3  0.0  2 0 1992 2736 1423
[06]  26(G27)  7 44  7  0  -2952.9  2046003.8  0.0  2 0 2465 3453 1095
[08]  30(G31)  7 42  7  0    931.5  2045998.7  0.0  2 0 1897 3134 2092
[16]  37(B01) 1f 40 36  0  -1139.3  4092002.9  0.0  2 0 1289 1503  977
[17]  38(B02)  7 10 10  0  -1437.1  4092003.8 -0.1  2 0  260  673  423
[18]  39(B03)  f 45 27  0  -1139.3  4092003.1  0.4  2 0 1151 2430 1853
[19]  40(B04)  1 10 10  0  -1589.0  4092002.7  0.4  1 0  583  934  668
[20]  41(B05)  f 37 23  0  -1107.6  4092002.8  0.2  2 0  756  608  595
[21]  42(B06)  7 41  7  0    141.7  4091999.5 -0.1  2 0 1128 1563  777
[22]  43(B07)  7 45  7  0   -866.2  4092002.2 -0.0  2 0 1821 3522 1398
[24]  45(B09)  7 35  7  0   -356.5  4092000.8  0.1  2 0 2279 2168  684
[25]  46(B10)  7 33  7  0   -970.8  4092002.5  0.1  5 0 1809 2515 1111
[26]  52(B16)  1  7  7  0    147.7  4091999.3  0.5  1 0 1229 2667 1397
[27]  55(B19)  1  7  9  0  -1971.1  4092003.6  0.3  1 0  909 1689  848
[28]  59(B23)  1  7  7  0    750.0  4092000.6  0.0  1 0   59  121  833
[48]  37(B01)  1 14 14  1   -559.7 20460020.2 -0.1  1 0  834  458  257
ch29 satid=63 freq=-4000 acq ok!
ch30 satid=64 freq=-1500 acq ok!
$GNGGA,032001.919,,,,,0,00,,,M,,,,0000*2A
$GNRMC,032001.919,A,,,,,,,090180,,*27
$GPGSA,A,1,,,,,,,,,,,,,,,*1E
$BDGSA,A,1,,,,,,,,,,,,,,,*0F
$GLGSA,A,1,,,,,,,,,,,,,,,*02
$GPGSV,2,1,08,07,00,000,41,08,00,000,42,09,00,000,41,16,00,000,44*75
$GPGSV,2,2,08,23,00,000,44,26,00,000,43,27,00,000,44,31,00,000,42*72
$BDGSV,2,1,08,01,00,000,40,02,00,000,16,03,00,000,45,05,00,000,37*60
$BDGSV,2,2,08,06,00,000,41,07,00,000,45,09,00,000,35,10,00,000,33*6B
$B3CN0,0,0,0,0,0,0,0,0,0,0,0,0,0,0*4C
---00000007--- Acq_st=3 0  2000-1-1 0:1:41 
[00]  06(G07)  f 41  7  0  -3673.2  2046004.7 -0.0  2 0 1502 2157 1319
[01]  07(G08)  f 42  7  0  -4481.0  2046005.8  0.0  2 0 1622 2835 1539
[02]  08(G09)  f 42 17  0  -3995.5  2046005.1 -0.1  2 0 1515 2277  970
[03]  15(G16)  f 44  7  0    274.4  2045999.6  0.0  2 0 2629 3648 1373
[04]  22(G23)  f 45  7  0  -2488.4  2046003.1  0.0  2 0 2156 2976 1505
[05]  25(G26)  f 42  7  0   1246.1  2045998.3 -0.1  2 0 1467 2329  929
[06]  26(G27)  f 44  7  0  -2958.5  2046003.8  0.0  2 0 2577 3529 1359
[08]  30(G31)  f 43  7  0    928.1  2045998.7  0.0  2 0 1185 2175 1161
[16]  37(B01) 1f 40 10  0  -1140.4  4092002.8 -0.4  2 0 1257 1871  781
[17]  38(B02)  7 23 16  1  -1701.5  4092004.3  0.3  2 0  298  172  604
[18]  39(B03)  f 45 29  0  -1140.9  4092003.0  0.1  2 0 1903 2675 1370
[19]  40(B04)  1 23 10  0  -1644.8  4092002.6  0.3  1 0  487  233  268
[20]  41(B05)  f 37 26  0  -1113.4  4092002.7  0.4  2 0 1024 1349  802
[21]  42(B06)  7 41  7  0    134.4  4091999.5  0.0  2 0  993 1556  901
[22]  43(B07)  7 44  7  0   -868.9  4092002.2  0.0  2 0 2287 2666  746
[24]  45(B09)  7 43  7  0   -357.1  4092000.8 -0.0  2 0 1634 2350 1041
[25]  46(B10)  7 43 11  0   -970.0  4092002.4  0.0  2 0 1889 2273  677
[26]  52(B16)  7 36  7  0    150.2  4091999.5  0.1  2 0 1210 2316 1227
[27]  55(B19)  1 12  7  0  -1962.2  4092004.0  0.9  1 0  596 1023  800
[28]  59(B23)  1  7  7  0    583.3  4091999.0  0.3  1 0 1254 1158  477
[29]  63(B27)  1  7  7  0  -3913.8  4092011.5  0.0  1 0 1826 2761 1302
[30]  64(B28)  1  7  7  0  -1503.5  4092006.0 -0.1  1 0  959 2768 2273
[48]  37(B01)  1 10 18  0    355.4 20460020.0 -0.1  1 0  407  652  585
[50]  39(B03)  1 22 10  0  -1013.7 20460017.0 -0.1  1 0  802  476  589
[52]  41(B05)  1 24 24  0   -618.5 20460018.8  0.0  1 0  767  812  266
ch32 satid=77 freq=-1000 acq ok!
ch33 satid=80 freq=2750 acq ok!
ch34 satid=81 freq=0 acq ok!
ch35 satid=82 freq=-1500 acq ok!
ch36 satid=84 freq=-4500 acq ok!
ch37 satid=85 freq=-1000 acq ok!
$GNGGA,032002.919,,,,,0,00,,,M,,,,0000*29
$GNRMC,032002.919,A,,,,,,,090180,,*24
$GPGSA,A,1,,,,,,,,,,,,,,,*1E
$BDGSA,A,1,,,,,,,,,,,,,,,*0F
$GLGSA,A,1,,,,,,,,,,,,,,,*02
$GPGSV,2,1,08,07,00,000,41,08,00,000,42,09,00,000,42,16,00,000,44*76
$GPGSV,2,2,08,23,00,000,45,26,00,000,43,27,00,000,44,31,00,000,43*72
$BDGSV,3,1,09,01,00,000,41,02,00,000,19,03,00,000,45,05,00,000,37*6E
$BDGSV,3,2,09,06,00,000,41,07,00,000,44,09,00,000,43,10,00,000,43*6C
$BDGSV,3,3,09,16,00,000,35*50
$B3CN0,0,0,0,0,0,0,0,0,0,0,0,0,0,0*4C
---00000008--- Acq_st=3 0  2000-1-1 0:1:42 
[00]  06(G07)  f 41  7  0  -3671.8  2046004.7  0.0  2 0 2161 2337 1156
[01]  07(G08)  f 42  7  0  -4477.8  2046005.8  0.1  2 0 1594 2338  644
[02]  08(G09)  f 42 17  0  -3997.6  2046005.1  0.1  2 0  868 2329 1284
[03]  15(G16)  f 44  7  0    275.3  2045999.6 -0.0  2 0 2374 3340 1379
[04]  22(G23)  f 44  7  0  -2492.5  2046003.2 -0.0  2 0 2578 3936 1622
[05]  25(G26)  f 42  7  0   1245.2  2045998.3  0.0  2 0 1483 3131 1189
[06]  26(G27)  f 44  7  0  -2955.8  2046003.8 -0.0  2 0 2468 3136  823
[08]  30(G31)  f 43  7  0    926.5  2045998.7 -0.0  2 0 1341 2518  802
[16]  37(B01) 1f 40 10  0  -1138.7  4092002.8 -0.1  2 0  744 1239  740
[17]  38(B02)  7 17 24  0  -2055.6  4092005.4  0.2  2 0  309  306  684
[18]  39(B03) 1f 43 30  0  -1140.7  4092003.0  0.1  2 0 1614 2595 1835
[20]  41(B05) 1f 36 36  0  -1116.5  4092002.8 -0.3  2 0  986 1267  658
[21]  42(B06)  7 40  7  0    136.8  4091999.5  0.0  2 0 1677 1816  803
[22]  43(B07)  7 44  7  0   -868.9  4092002.2 -0.0  2 0 2226 3058 1584
[24]  45(B09)  7 43  7  0   -354.9  4092000.8  0.0  2 0 1362 2288  762
[25]  46(B10)  7 43 12  0   -971.5  4092002.4 -0.0  2 0 1733 2157  567
[26]  52(B16)  7 42  7  0    147.0  4091999.5 -0.0  2 0 1475 1868  926
[27]  55(B19)  1  8  7  0  -1973.0  4092003.7  0.9  1 0  408 1015  621
[28]  59(B23)  7 33  7  0    588.1  4091998.3  0.1  5 0 1528 1128  163
[29]  63(B27)  7 22  7  0  -3911.8  4092010.1  0.4 10 0 2301 2888 1539
[30]  64(B28)  7 18  7  0  -1497.8  4092003.8  0.3 10 0 2138 2938 1745
[32]  77(N-4)  1 23 22  0  -1012.5  1022001.8  0.3  1 0  1269 2835 1719
[33]  80(N-1)  1  7 17  0   2750.0  1021999.6  0.0  1 0  1160 2411 1323
[34]  81(N00)  1 24 14  0     -0.0  1022001.1 -0.2  1 0  1634 3158 1762
[35]  82(N01)  1 17  7  0  -1500.0  1022002.2  0.0  1 0   386 1948 2293
[36]  84(N03)  1  7  9  0  -4501.2  1022004.0  0.0  1 0   312  226 1748
[37]  85(N04)  1  7  7  0  -2192.2  1022002.4  0.0  1 0   595 1142 3328
[48]  37(B01)  f 10 10  1    375.1 20459993.3  0.1  2 0  320  147  234
[50]  39(B03)  1 18 23  1   -755.5 20460023.0 -0.1  1 0  337  763  318
[52]  41(B05)  1 20 23  1   -611.1 20460022.4 -0.0  1 0  139  389  554
$GNGGA,032003.919,,,,,0,00,,,M,,,,0000*28
$GNRMC,032003.919,A,,,,,,,090180,,*25
$GPGSA,A,1,,,,,,,,,,,,,,,*1E
$BDGSA,A,1,,,,,,,,,,,,,,,*0F
$GLGSA,A,1,,,,,,,,,,,,,,,*02
$GPGSV,2,1,08,07,00,000,41,08,00,000,42,09,00,000,42,16,00,000,44*76
$GPGSV,2,2,08,23,00,000,44,26,00,000,42,27,00,000,44,31,00,000,43*72
$BDGSV,3,1,11,01,00,000,40,03,00,000,43,05,00,000,36,06,00,000,40*69
$BDGSV,3,2,11,07,00,000,44,09,00,000,43,10,00,000,43,16,00,000,42*67
$BDGSV,3,3,11,23,00,000,33,27,00,000,22,28,00,000,17*50
$B3CN0,0,0,0,0,0,0,0,0,0,0,0,0,0,0*4C
---00000009--- Acq_st=7 0  2000-1-1 0:1:43 
[00]  06(G07)  f 41  7  0  -3668.1  2046004.7  0.0  2 0 2337 2772 1438
[01]  07(G08)  f 43  7  0  -4477.1  2046005.8  0.0  2 0 1615 3161 1640
[02]  08(G09)  f 42 17  0  -3994.7  2046005.2  0.0  2 0 1304 2240 1042
[03]  15(G16)  f 44  7  0    278.3  2045999.6 -0.1  2 0 2034 3405 1990
[04]  22(G23)  f 45  7  0  -2489.1  2046003.1  0.0  2 0 2844 3396 1406
[05]  25(G26)  f 43  7  0   1249.8  2045998.3 -0.0  2 0 1356 2536 1149
[06]  26(G27)  f 44  7  0  -2951.8  2046003.8  0.0  2 0 2405 3195 1156
[08]  30(G31)  f 42  7  0    934.0  2045998.7  0.0  2 0 1647 2947 1655
[16]  37(B01) 1f 39 10  0  -1136.9  4092002.9  0.3  2 0 1042 1259  155
[18]  39(B03) 1f 45 30  0  -1139.7  4092002.9  0.0  2 0 1476 2269  868
[20]  41(B05) 1f 37 24  0  -1108.5  4092002.8  0.9  2 0  892 1106  638
[21]  42(B06) 1f 41  7  0    140.5  4091999.5  0.0  2 0 1290 1412  597
[22]  43(B07) 1f 44  7  0   -868.2  4092002.2  0.0  2 0 1968 2128  603
[24]  45(B09) 1f 43  7  0   -354.1  4092000.8 -0.1  2 0 2084 2349  845
[25]  46(B10) 1f 43 11  0   -971.0  4092002.4  0.0  2 0 1748 2435 1077
[26]  52(B16) 1f 42  7  0    148.6  4091999.5  0.0  2 0 1762 2499 1237
[27]  55(B19) 19 12  7  0  -1963.2  4092003.8  0.9  1 0  537 1249  798
[28]  59(B23) 1f 39  9  0    582.0  4091998.3  0.0  2 0 1064 1313  650
[29]  63(B27)  7 44  7  0  -3909.1  4092010.1  0.0  2 0 2006 2515 1072
[30]  64(B28)  7 44  8  0  -1494.4  4092003.8  0.0  2 0 2101 2721 1445
[32]  77(N-4)  7 23  7  0  -1008.3  1022000.5  0.9 10 0  1893 2151  698
[33]  80(N-1)  1 29 16  0   2633.8  1021998.1  1.0  1 0  1679 2180 1300
[34]  81(N00)  1 28 17  0     75.4  1022000.0  1.0  1 0  2376 2952 1191
[35]  82(N01)  1 34 14  0  -1572.3  1022001.2  1.0  1 0  1518 2603 1134
[36]  84(N03)  1 27 15  0  -4578.4  1022004.0  1.0  1 0  2013 3194 1518
[37]  85(N04)  1 34 13  0  -1114.8  1022001.4  1.0  1 0  1861 3946 1649
[48]  37(B01)  f 10 10  0    124.3 20459998.2 -0.0  2 0  469  513  142
[50]  39(B03)  f 21 17  0   -630.3 20460009.5  0.1  2 0  620  111  285
[52]  41(B05)  1 10 25  0   -404.1 20460023.4  0.0  1 0  341  428  195
---00000010--- Acq_st=7 0  2000-1-1 0:1:44 
[00]  06(G07)  f 41  7  0  -3676.0  2046004.7  0.1  2 0 1516 1832  893
[01]  07(G08)  f 42  7  0  -4480.9  2046005.8 -0.0  2 0 1488 2476  938
[02]  08(G09)  f 42 17  0  -3993.4  2046005.1 -0.0  2 0 1098 2110 1062
[03]  15(G16)  f 44 11  0    275.0  2045999.6  0.0  2 0 1734 3358 1840
[04]  22(G23)  f 44  9  0  -2491.1  2046003.2 -0.0  2 0 2035 3433 1176
[05]  25(G26)  f 43  7  0   1243.7  2045998.3  0.1  2 0 1618 2560  898
[06]  26(G27)  f 44  7  0  -2956.2  2046003.8  0.0  2 0 2350 3678 1909
[08]  30(G31)  f 42  7  0    927.5  2045998.7  0.0  2 0 1211 2348 1315
[16]  37(B01) 1f 40 16  0  -1140.8  4092002.8 -0.2  2 0 1193 1532  802
[18]  39(B03) 1f 43 28  0  -1140.6  4092002.9  0.0  2 0 1665 2401  973
[20]  41(B05) 1f 37 28  0  -1105.7  4092002.9 -0.2  2 0 1172 1309  458
[21]  42(B06) 1f 40 10  0    134.6  4091999.5 -0.1  2 0 1366 2015 1238
[22]  43(B07) 1f 44  7  0   -871.3  4092002.2 -0.1  2 0 1451 2270 1068
[24]  45(B09) 1f 43  7  0   -356.7  4092000.8  0.0  2 0 2165 2957 1281
[25]  46(B10) 1f 42  9  0   -973.6  4092002.4  0.0  2 0 1930 2597 1134
[26]  52(B16) 1f 42  7  0    149.4  4091999.5 -0.0  2 0 1197 1984 1195
[28]  59(B23) 1f 40  9  0    585.7  4091998.3 -0.1  2 0 1994 1851  757
[29]  63(B27)  7 43  7  0  -3912.5  4092010.1  0.0  2 0 1728 2435  780
[30]  64(B28)  7 43  7  0  -1496.0  4092003.8  0.0  2 0 2026 2579 1230
[32]  77(N-4)  7 48 23  0  -1009.5  1022000.6  0.0  2 0  1618 2522 1189
[33]  80(N-1)  7 46 15  0   2634.2  1021998.2 -0.0  2 0  1490 2515 1217
[34]  81(N00)  7 47 15  0     76.4  1021999.9  0.0  2 0  1912 3184 1487
[35]  82(N01)  7 47 15  0  -1573.0  1022001.0 -0.0  2 0  1688 2850 1372
[36]  84(N03)  7 47 16  0  -4578.7  1022002.8 -0.0  2 0  1938 2526  845
[37]  85(N04)  7 39  9  0  -1113.6  1022000.6  0.1  2 0  2486 3749 2013
[48]  37(B01)  f 10 22  0     40.5 20460000.4 -0.0  2 0  473  349  336
[50]  39(B03)  f 13 19  0   -690.7 20460012.5 -0.0  2 0  187  529  670
[52]  41(B05)  1 21 23  0   -213.1 20460019.9 -0.0  1 0  933  341  245
[53]  42(B06)  1  7  7  0    405.0 20459998.8 -0.0  1 0  352  733  634
[54]  43(B07)  1  7  7  0   -755.9 20460010.7 -0.1  1 0  171  192  299
[56]  45(B09)  1  7  7  0   -390.4 20460004.3 -0.0  1 0  446   33   51
[57]  46(B10)  1  7  7  0   -798.2 20460013.1 -0.0  1 0 1029  208  358
[58]  52(B16)  1  7  7  0   -141.2 20460000.2 -0.1  1 0  172  251  570
[60]  59(B23)  1  7  7  0    308.6 20459989.6 -0.1  1 0  371  359  535
$GNGGA,032004.919,,,,,0,00,,,M,,,,0000*2F
$GNRMC,032004.919,A,,,,,,,090180,,*22
$GPGSA,A,1,,,,,,,,,,,,,,,*1E
$BDGSA,A,1,,,,,,,,,,,,,,,*0F
$GLGSA,A,1,,,,,,,,,,,,,,,*02
$GPGSV,2,1,08,07,00,000,41,08,00,000,42,09,00,000,42,16,00,000,44*76
$GPGSV,2,2,08,23,00,000,44,26,00,000,43,27,00,000,44,31,00,000,42*72
$BDGSV,3,1,11,01,00,000,40,03,00,000,43,05,00,000,37,06,00,000,40*68
$BDGSV,3,2,11,07,00,000,44,09,00,000,43,10,00,000,42,16,00,000,42*66
$BDGSV,3,3,11,23,00,000,40,27,00,000,43,28,00,000,43*52
$B3CN0,0,0,0,0,0,0,0,0,0,0,0,0,0,0*4C
---00000011--- Acq_st=3 0  2000-1-1 0:1:45 
[00]  06(G07)  f 42  7  0  -3676.5  2046004.7  0.0  2 0 1986 2524 1251
[01]  07(G08)  f 42  7  0  -4483.7  2046005.7  0.0  2 0 1714 2166  720
[02]  08(G09)  f 42 16  0  -3997.3  2046005.1 -0.0  2 0 2030 2499  960
[03]  15(G16)  f 44  7  0    273.2  2045999.6  0.0  2 0 1815 2798 1141
[04]  22(G23)  f 44  7  0  -2491.4  2046003.2 -0.0  2 0 2037 3733 1912
[05]  25(G26)  f 43  7  0   1246.4  2045998.3 -0.0  2 0 1699 2397  893
[06]  26(G27)  f 44  7  0  -2954.7  2046003.8  0.0  2 0 1883 3649 1878
[08]  30(G31)  f 43  7  0    924.6  2045998.7  0.0  2 0 1859 2796 1197
[09]  03(G04)  1 25  7  0  -4508.3  2046006.9  0.0  1 0  277  764  942
[16]  37(B01) 1f 40 20  0  -1142.5  4092002.8 -0.7  2 0  780 1175  629
[18]  39(B03) 1f 45 29  0  -1143.0  4092002.9 -0.1  2 0 1332 1807  358
[20]  41(B05) 1f 38 20  0  -1113.4  4092002.7 -0.5  2 0  833 1028  615
[21]  42(B06) 1f 40  7  0    135.0  4091999.5 -0.1  2 0 1418 1380  378
[22]  43(B07) 1f 43  7  0   -871.3  4092002.2  0.0  2 0 2022 2718 1410
[24]  45(B09) 1f 43  7  0   -353.7  4092000.8 -0.0  2 0 2025 2133  556
[25]  46(B10) 1f 42  7  0   -970.3  4092002.4 -0.0  2 0 2088 2741 1264
[26]  52(B16) 1f 42  7  0    148.4  4091999.5 -0.0  2 0 1150 1898  660
[28]  59(B23) 1f 40  7  0    586.5  4091998.3 -0.0  2 0 1136 1314  472
[29]  63(B27)  7 43 10  0  -3909.2  4092010.1  0.0  2 0 1918 2855 1413
[30]  64(B28)  7 44  8  0  -1497.0  4092003.8 -0.0  2 0 2025 2660 1092
[32]  77(N-4)  7 47 23  0  -1007.9  1022000.6  0.0  2 0  1708 2622  854
[33]  80(N-1)  7 46 18  0   2633.6  1021998.3 -0.1  2 0  1410 2085 1018
[34]  81(N00)  7 48 17  0     75.1  1021999.9  0.0  2 0  2061 3443 1547
[35]  82(N01)  7 47 16  0  -1573.0  1022001.0  0.0  2 0  1457 2524 1182
[36]  84(N03)  7 46 15  0  -4578.2  1022002.9 -0.0  2 0  1990 2460 1061
[37]  85(N04)  7 48 15  0  -1113.3  1022000.7  0.1  2 0  2085 3558 1904
[48]  37(B01)  f 10 10  0   -161.0 20460002.3 -0.0  2 0  292  783  919
[50]  39(B03)  f 22 23  1   -926.6 20460016.1  0.2  2 0  892  682   99
[53]  42(B06)  1  7  7  0    129.1 20459997.3  0.1  1 0  366  333  892
[54]  43(B07)  1  7  7  0   -680.6 20460010.8  0.0  1 0   48  303  417
[56]  45(B09)  1  7  7  0   -954.2 20460003.2 -0.2  1 0  222  703  536
[57]  46(B10)  1  7  7  0   -345.2 20460015.8  0.1  1 0  551  605  576
[58]  52(B16)  1  7  7  0    302.4 20459998.9 -0.0  1 0  276  423  354
[60]  59(B23)  1 10  7  0    369.2 20459993.1  0.0  1 0  210  195  139
$GNGGA,032005.919,,,,,0,00,,,M,,,,0000*2E
$GNRMC,032005.919,A,,,,,,,090180,,*23
$GPGSA,A,1,,,,,,,,,,,,,,,*1E
$BDGSA,A,1,,,,,,,,,,,,,,,*0F
$GLGSA,A,1,,,,,,,,,,,,,,,*02
$GPGSV,2,1,08,07,00,000,42,08,00,000,42,09,00,000,42,16,00,000,44*75
$GPGSV,2,2,08,23,00,000,44,26,00,000,43,27,00,000,44,31,00,000,43*73
$BDGSV,3,1,11,01,00,000,40,03,00,000,45,05,00,000,38,06,00,000,40*61
$BDGSV,3,2,11,07,00,000,43,09,00,000,43,10,00,000,42,16,00,000,42*61
$BDGSV,3,3,11,23,00,000,40,27,00,000,43,28,00,000,44*55
$B3CN0,0,0,22,0,0,0,0,0,0,0,0,0,0,0*7C
---00000012--- Acq_st=3 0  2000-1-1 0:1:46 
[00]  06(G07)  f 43  7  0  -3672.3  2046004.7 -0.0  2 0 1195 2126  921
[01]  07(G08)  f 43  7  0  -4482.3  2046005.8  0.0  2 0 1956 2253  481
[02]  08(G09)  f 42 15  0  -3995.8  2046005.1  0.1  2 0 1066 2182 1083
[03]  15(G16)  f 44 11  0    273.4  2045999.6  0.0  2 0 1817 3180 1144
[04]  22(G23)  f 45  7  0  -2491.5  2046003.2  0.0  2 0 1744 3422 1568
[05]  25(G26)  f 43  7  0   1245.6  2045998.3  0.0  2 0 1789 2554 1055
[06]  26(G27)  f 44  7  0  -2955.2  2046003.8  0.1  2 0 1708 2928 1465
[08]  30(G31)  f 42  7  0    927.5  2045998.7 -0.0  2 0 1568 2503  946
[09]  03(G04)  7  7  7  0  -4507.7  2046005.9  0.4 10 0 1226 1440  964
[16]  37(B01) 1f 40 19  0  -1141.7  4092002.9  0.1  2 0 1433 1579  688
[18]  39(B03) 1f 43 29  0  -1143.0  4092002.9 -0.1  2 0 1525 2294  927
[20]  41(B05) 1f 38 26  0  -1110.9  4092002.6  0.7  2 0 1288 1336  133
[21]  42(B06) 1f 40  7  0    137.7  4091999.5  0.1  2 0 1211 2073  961
[22]  43(B07) 1f 43  7  0   -871.9  4092002.2 -0.0  2 0 2230 2810 1230
[24]  45(B09) 1f 43  7  0   -357.6  4092000.8  0.0  2 0 2276 2337 1192
[25]  46(B10) 1f 42  7  0   -971.3  4092002.4 -0.0  2 0 1764 2648 1321
[26]  52(B16) 1f 42  7  0    151.3  4091999.5  0.0  2 0 1787 2076  537
[28]  59(B23) 1f 40  7  0    584.9  4091998.3  0.1  2 0 1223 1321  727
[29]  63(B27)  7 43  8  0  -3913.9  4092010.1 -0.0  2 0 2158 2323  579
[30]  64(B28)  7 43  7  0  -1495.9  4092003.8 -0.0  2 0 2548 2578 1223
[32]  77(N-4)  f 36 16  0  -1007.1  1022000.6  0.0  2 0  1622 2516 1081
[33]  80(N-1)  7 46 16  0   2635.9  1021998.3 -0.0  2 0  1485 2730  891
[34]  81(N00)  7 48 17  0     76.9  1021999.9  0.0  2 0  2136 3644 1956
[35]  82(N01)  7 47 16  0  -1571.1  1022001.0 -0.1  2 0  1251 2506 1133
[36]  84(N03)  7 47 15  0  -4576.8  1022002.8  0.1  2 0  1766 2928 1293
[37]  85(N04)  7 49 12  0  -1110.7  1022000.7  0.1  2 0  2321 3830 1718
[50]  39(B03)  f 23 10  1  -1129.4 20460019.9 -0.3  2 0  474  478 1231
[52]  41(B05)  1 22 23  1   -970.4 20460013.8  0.0  1 0  740  127  404
[53]  42(B06)  1  7  7  0   -272.7 20459996.4 -0.1  1 0  328  608  847
[54]  43(B07)  1  7  7  0   -699.8 20460010.0 -0.0  1 0  393  668  583
[56]  45(B09)  1  7  7  0   -731.0 20460003.5 -0.0  1 0  119  264  869
[57]  46(B10)  1  7  7  0    -48.0 20460015.8 -0.2  1 0  117  191  819
[58]  52(B16)  1 10  8  0    275.0 20459999.6  0.1  1 0  267  487  813
[60]  59(B23)  1  7  7  0    777.6 20459993.1 -0.0  1 0  297  226  225
$GNGGA,032006.919,,,,,0,00,,,M,,,,0000*2D
$GNRMC,032006.919,A,,,,,,,090180,,*20
$GPGSA,A,1,,,,,,,,,,,,,,,*1E
$BDGSA,A,1,,,,,,,,,,,,,,,*0F
$GLGSA,A,1,,,,,,,,,,,,,,,*02
$GPGSV,2,1,08,07,00,000,43,08,00,000,43,09,00,000,42,16,00,000,44*75
$GPGSV,2,2,08,23,00,000,45,26,00,000,43,27,00,000,44,31,00,000,42*73
$BDGSV,3,1,11,01,00,000,40,03,00,000,43,05,00,000,38,06,00,000,40*67
$BDGSV,3,2,11,07,00,000,43,09,00,000,43,10,00,000,42,16,00,000,42*61
$BDGSV,3,3,11,23,00,000,40,27,00,000,43,28,00,000,43*52
$B3CN0,0,0,23,0,0,0,0,0,0,0,0,0,0,0*7D
---00000013--- Acq_st=3 0  2000-1-1 0:1:47 
[00]  06(G07)  f 43  9  0  -3670.6  2046004.7  0.0  2 0 1599 2245 1257
[01]  07(G08)  f 43  7  0  -4480.2  2046005.7  0.0  2 0 1712 2834 1336
[02]  08(G09)  f 42 17  0  -3998.0  2046005.1  0.0  2 0 1061 1627  907
[03]  15(G16)  f 44  7  0    277.4  2045999.6 -0.0  2 0 2299 3333 1205
[04]  22(G23)  f 45  7  0  -2487.7  2046003.2 -0.0  2 0 2505 3727 1704
[05]  25(G26)  f 43  7  0   1246.5  2045998.3 -0.1  2 0 1176 2415 1519
[06]  26(G27)  f 44  7  0  -2951.5  2046003.8 -0.0  2 0 2136 3480 1758
[08]  30(G31)  f 43  7  0    929.6  2045998.7  0.0  2 0 1382 2679 1514
[09]  03(G04)  7 34  7  0  -4505.1  2046005.9 -0.1  5 0  265 1097  505
[16]  37(B01) 1f 41 10  0  -1138.1  4092003.0 -0.3  2 0  791 1222  617
[17]  38(B02)  1 10 10  0  -1616.9  4092005.0  0.1  1 0  358  680  897
[18]  39(B03) 1f 43 30  0  -1139.6  4092002.8 -0.3  2 0 1935 2093  320
[19]  40(B04)  1 10 24  0  -1274.8  4092001.5  0.1  1 0  448  605  240
[20]  41(B05) 1f 38 18  0  -1101.9  4092002.9 -0.6  2 0  605 1172  550
[21]  42(B06) 1f 40  7  0    138.3  4091999.5 -0.0  2 0 1225 1609  475
[22]  43(B07) 1f 44  7  0   -869.1  4092002.1 -0.0  2 0 2205 2766 1218
[24]  45(B09) 1f 42  7  0   -354.7  4092000.8  0.0  2 0 1807 2059  580
[25]  46(B10) 1f 42 12  0   -972.0  4092002.4  0.0  2 0 2011 2439  719
[26]  52(B16) 1f 42  7  0    153.0  4091999.5 -0.0  2 0 1683 2500 1692
[28]  59(B23) 1f 40  7  0    589.1  4091998.3  0.0  2 0 1460 1823  881
[29]  63(B27)  7 43  7  0  -3908.5  4092010.1 -0.0  2 0 1788 2626 1273
[30]  64(B28)  7 44  7  0  -1494.0  4092003.8 -0.0  2 0 2320 3157 1604
[32]  77(N-4)  f 45  7  0  -1002.8  1022000.6  0.0  2 0  1618 2575 1266
[33]  80(N-1)  7 46 18  0   2639.8  1021998.3 -0.0  2 0  1441 2675 1621
[34]  81(N00)  7 47 17  0     79.9  1021999.9 -0.1  2 0  1782 3094 1539
[35]  82(N01)  7 47 15  0  -1569.1  1022001.0  0.1  2 0  1485 2576 1215
[36]  84(N03)  7 47 18  0  -4572.9  1022002.9 -0.1  2 0  2147 2827 1163
[37]  85(N04)  7 48  8  0  -1107.5  1022000.7  0.1  2 0  2028 3809 2141
[48]  37(B01)  1 10 16  0  -1213.9 20460022.5  0.1  1 0  754  725  634
[50]  39(B03)  f 19 23  1  -1670.4 20460027.0 -0.2  2 0  388  198  513
[52]  41(B05)  1 22 23  0  -1294.9 20460020.3  0.2  1 0  425  500   32
[53]  42(B06)  1  7  8  0   -104.0 20459996.3 -0.0  1 0  217  359  423
[54]  43(B07)  1  7 10  0   -733.1 20460010.8 -0.1  1 0  417  462  514
[56]  45(B09)  1 10  7  0   -230.9 20460003.6 -0.0  1 0  479  548  634
[57]  46(B10)  1  7  7  0   -444.6 20460017.0 -0.0  1 0  263  553  753
[58]  52(B16)  1  7  7  0   -269.3 20459998.3  0.1  1 0  537  154  498
[60]  59(B23)  1  7  7  0   1064.2 20459992.1 -0.1  1 0  256  100  399
$GNGGA,032007.919,,,,,0,00,,,M,,,,0000*2C
$GNRMC,032007.919,A,,,,,,,090180,,*21
$GPGSA,A,1,,,,,,,,,,,,,,,*1E
$BDGSA,A,1,,,,,,,,,,,,,,,*0F
$GLGSA,A,1,,,,,,,,,,,,,,,*02
$GPGSV,3,1,09,07,00,000,43,08,00,000,43,09,00,000,42,16,00,000,44*75
$GPGSV,3,2,09,23,00,000,45,26,00,000,43,27,00,000,44,31,00,000,43*72
$GPGSV,3,3,09,04,00,000,34*43
$BDGSV,3,1,11,01,00,000,41,03,00,000,43,05,00,000,38,06,00,000,40*66
$BDGSV,3,2,11,07,00,000,44,09,00,000,42,10,00,000,42,16,00,000,42*67
$BDGSV,3,3,11,23,00,000,40,27,00,000,43,28,00,000,44*55
$B3CN0,0,0,21,0,0,0,0,0,0,0,0,0,0,0*7F
---00000014--- Acq_st=3 0  2000-1-1 0:1:48 
[00]  06(G07)  f 42  7  0  -3672.2  2046004.7 -0.0  2 0 1797 2607 1372
[01]  07(G08)  f 42  7  0  -4476.9  2046005.7 -0.0  2 0 1710 2435  983
[02]  08(G09)  f 42 16  0  -3993.8  2046005.1 -0.0  2 0 1208 2248 1186
[03]  15(G16)  f 45  7  0    276.3  2045999.6  0.0  2 0 2127 3246 1338
[04]  22(G23)  f 45  7  0  -2488.5  2046003.2 -0.0  2 0 2056 3251 1546
[05]  25(G26)  f 43  7  0   1244.7  2045998.3  0.1  2 0 1441 2449 1196
[06]  26(G27)  f 45  7  0  -2951.5  2046003.8 -0.0  2 0 1894 3041 1628
[08]  30(G31)  f 43  7  0    931.4  2045998.7 -0.0  2 0 1586 2464 1183
[09]  03(G04)  7 35  7  0  -4508.0  2046005.8 -0.2  2 0  720  960  957
[16]  37(B01) 1f 40 18  0  -1141.2  4092002.9  0.4  2 0 1171 1473  513
[17]  38(B02)  7 36 10  0  -2296.7  4092005.9  0.1  2 0  484  397  283
[18]  39(B03) 1f 43 28  0  -1142.4  4092002.9 -0.1  2 0 2222 2633 1251
[19]  40(B04)  1 10 18  0  -1666.5  4092003.5  0.1  1 0  259  115  313
[20]  41(B05) 1f 37 26  0  -1113.8  4092002.6  0.5  2 0  587  600  469
[21]  42(B06) 1f 41  7  0    137.4  4091999.5 -0.1  2 0 1334 1807 1123
[22]  43(B07) 1f 44  7  0   -867.0  4092002.1  0.0  2 0 2087 2599 1089
[24]  45(B09) 1f 43  7  0   -354.3  4092000.8 -0.0  2 0 1854 2379  609
[25]  46(B10) 1f 43  7  0   -975.7  4092002.4 -0.1  2 0 1427 2384 1329
[26]  52(B16) 1f 42  7  0    151.7  4091999.5 -0.0  2 0 1721 2351 1083
[27]  55(B19)  1  7  7  0  -1500.0  4092004.9 -0.0  1 0  626  551 1439
[28]  59(B23) 1f 40  9  0    586.2  4091998.3 -0.0  2 0 1155 1350  427
[29]  63(B27)  7 44  7  0  -3912.6  4092010.1  0.0  2 0 1851 2020 1249
[30]  64(B28)  7 43 10  0  -1495.0  4092003.8  0.1  2 0 1944 2641 1527
[32]  77(N-4)  f 45  7  0  -1004.9  1022000.6  0.0  2 0  1480 2793 1354
[33]  80(N-1)  f 36  7  0   2636.2  1021998.3 -0.0  2 0  1421 2642 1484
[34]  81(N00)  f 36  7  0     76.9  1021999.9  0.0  2 0  2264 3128 1208
[35]  82(N01)  f 36  7  0  -1571.0  1022001.0 -0.0  2 0  1468 2444 1389
[36]  84(N03)  f 36  7  0  -4576.7  1022002.9  0.0  2 0  1256 2604 1554
[37]  85(N04)  f 36  7  0  -1109.6  1022000.7 -0.0  2 0  2393 4123 1948
[48]  37(B01)  1 20 10  1   -700.5 20460021.0  0.1  1 0  165   54  289
[50]  39(B03)  f 24 18  0  -2139.7 20460037.1 -0.1  2 0  562  583  441
[52]  41(B05)  1 18 23  0   -828.1 20460024.6 -0.1  1 0  485  902 1002
[54]  43(B07)  f  7  7  0   -893.4 20460014.9  0.0 10 0  791  693  500
$GNGGA,032008.919,,,,,0,00,,,M,,,,0000*23
$GNRMC,032008.919,A,,,,,,,090180,,*2E
$GPGSA,A,1,,,,,,,,,,,,,,,*1E
$BDGSA,A,1,,,,,,,,,,,,,,,*0F
$GLGSA,A,1,,,,,,,,,,,,,,,*02
$GPGSV,3,1,09,07,00,000,42,08,00,000,42,09,00,000,42,16,00,000,45*74
$GPGSV,3,2,09,23,00,000,45,26,00,000,43,27,00,000,45,31,00,000,43*73
$GPGSV,3,3,09,04,00,000,35*42
$BDGSV,3,1,11,01,00,000,40,03,00,000,43,05,00,000,38,06,00,000,41*66
$BDGSV,3,2,11,07,00,000,44,09,00,000,43,10,00,000,43,16,00,000,42*67
$BDGSV,3,3,11,23,00,000,40,27,00,000,44,28,00,000,43*55
$B3CN0,0,0,24,0,0,0,0,0,0,0,0,0,0,0*7A
---00000015--- Acq_st=3 0  2000-1-1 0:1:49 
[00]  06(G07)  f 42  7  0  -3673.6  2046004.7  0.1  2 0 1133 2204 1239
[01]  07(G08)  f 42  7  0  -4477.5  2046005.7 -0.0  2 0 1082 2772 1415
[02]  08(G09)  f 42 16  0  -3997.5  2046005.1  0.0  2 0 1437 2469 1391
[03]  15(G16)  f 45  7  0    276.7  2045999.6  0.0  2 0 1957 3194 2088
[04]  22(G23)  f 45  7  0  -2486.1  2046003.2  0.0  2 0 2281 3231 1629
[05]  25(G26)  f 43  7  0   1244.6  2045998.3 -0.0  2 0 1773 2208  974
[06]  26(G27)  f 44  7  0  -2951.7  2046003.8  0.0  2 0 2362 3633 1786
[08]  30(G31)  f 43  7  0    928.0  2045998.7  0.1  2 0 1889 2253 1072
[09]  03(G04)  7 34  7  0  -4515.9  2046005.9  0.1  2 0  351  553  582
[16]  37(B01) 1f 40 10  0  -1140.0  4092002.8 -0.2  2 0 1212 1329  307
[17]  38(B02)  7 10 10  0  -2670.5  4092007.0 -0.3  2 0  419   99  603
[18]  39(B03) 1f 42 30  0  -1144.3  4092002.8 -0.3  2 0 1425 2055  617
[19]  40(B04)  1 10 10  0  -1565.2  4092004.3 -0.0  1 0  456  427  313
[20]  41(B05) 1f 38 19  0  -1110.0  4092002.7  0.3  2 0  948  949  551
[21]  42(B06) 1f 40  7  0    131.7  4091999.5  0.1  2 0 1113 1698  641
[22]  43(B07) 1f 44  7  0   -871.4  4092002.2 -0.0  2 0 2627 2972 1470
[24]  45(B09) 1f 43  9  0   -360.5  4092000.8 -0.0  2 0 1932 2436 1088
[25]  46(B10) 1f 43  7  0   -972.2  4092002.4 -0.1  2 0 1678 2022  805
[26]  52(B16) 1f 42  7  0    150.1  4091999.5  0.0  2 0 1661 1886  651
[27]  55(B19)  1  7  7  0  -1467.0  4092004.7  0.3  1 0 1048 1817 1082
[28]  59(B23) 1f 40  7  0    585.4  4091998.3  0.0  2 0 1614 1320   52
[29]  63(B27) 1f 43  7  0  -3910.8  4092010.1  0.0  2 0 2021 2620 1272
[30]  64(B28) 1f 43  8  0  -1491.2  4092003.8 -0.0  2 0 2166 2787 1131
[32]  77(N-4)  f 45 10  0  -1003.4  1022000.6 -0.1  2 0  1535 2475 1370
[33]  80(N-1)  f 45  7  0   2637.4  1021998.3  0.0  2 0  1593 2749 1427
[34]  81(N00)  f 45  7  0     77.5  1021999.9  0.0  2 0  1985 2906 1069
[35]  82(N01)  f 44  7  0  -1570.9  1022001.0 -0.0  2 0  1577 2846 1177
[36]  84(N03)  f 45  7  0  -4574.9  1022002.9  0.0  2 0  1290 2595 1329
[37]  85(N04)  f 46  7  0  -1108.2  1022000.7  0.0  2 0  2545 3759 1370
[48]  37(B01)  7 10 19  1  -1661.3 20460027.7 -0.1  2 0  224  382  346
[50]  39(B03)  f 10 19  1  -2579.3 20460041.7  0.2  2 0  355  210  281
[52]  41(B05)  1 25 26  0   -525.3 20460018.7 -0.2  1 0  730  415  450
[53]  42(B06)  1  7  7  0    494.6 20459997.4  0.1  1 0  180  428  407
[54]  43(B07)  f  7  7  0   -980.9 20460015.1 -0.0 10 0  552  553  204
[56]  45(B09)  1  7  7  0   -240.0 20460005.8  0.0  1 0  919   30  676
[57]  46(B10)  1  7  7  0  -1046.9 20460013.4 -0.1  1 0 1102  420  166
[58]  52(B16)  1  7  7  0    -22.5 20459998.9 -0.0  1 0  353  595  926
[60]  59(B23)  1  7  7  0    186.6 20459992.1  0.1  1 0  735  407  297
$GNGGA,032009.919,,,,,0,00,,,M,,,,0000*22
$GNRMC,032009.919,A,,,,,,,090180,,*2F
$GPGSA,A,1,,,,,,,,,,,,,,,*1E
$BDGSA,A,1,,,,,,,,,,,,,,,*0F
$GLGSA,A,1,,,,,,,,,,,,,,,*02
$GPGSV,3,1,09,07,00,000,42,08,00,000,42,09,00,000,42,16,00,000,45*74
$GPGSV,3,2,09,23,00,000,45,26,00,000,43,27,00,000,44,31,00,000,43*72
$GPGSV,3,3,09,04,00,000,34*43
$BDGSV,3,1,11,01,00,000,40,03,00,000,42,05,00,000,38,06,00,000,40*66
$BDGSV,3,2,11,07,00,000,44,09,00,000,43,10,00,000,43,16,00,000,42*67
$BDGSV,3,3,11,23,00,000,40,27,00,000,43,28,00,000,43*52
$B3CN0,0,0,0,0,0,0,0,0,0,0,0,0,0,0*4C
---00000016--- Acq_st=2 0  2000-1-1 0:1:50 
[00]  06(G07)  f 42  7  0  -3676.6  2046004.7 -0.0  2 0 1851 2265  953
[01]  07(G08)  f 43  7  0  -4480.9  2046005.8  0.0  2 0 1410 2473 1050
[02]  08(G09)  f 42 17  0  -3997.7  2046005.1 -0.0  2 0 1725 2656 1293
[03]  15(G16)  f 44  7  0    278.8  2045999.6 -0.0  2 0 2253 3239 1412
[04]  22(G23)  f 45  7  0  -2487.3  2046003.2  0.0  2 0 2231 3607 1916
[05]  25(G26)  f 42  7  0   1242.2  2045998.3 -0.0  2 0 1452 2649 1549
[06]  26(G27)  f 44  7  0  -2955.8  2046003.8  0.0  2 0 1821 3964 2158
[08]  30(G31)  f 43  7  0    931.0  2045998.7 -0.1  2 0 1506 2350  740
[09]  03(G04)  7 34  8  0  -4507.3  2046005.8  0.1  2 0  521  119  359
[16]  37(B01) 1f 41 10  0  -1144.1  4092002.8 -0.0  2 0  856 1458  690
[17]  38(B02)  7 17 14  0  -2752.8  4092007.1  0.0  2 0  742  631  719
[18]  39(B03) 1f 43 30  0  -1141.0  4092002.8  0.2  2 0 1418 1987  737
[19]  40(B04)  1 10 10  0  -1641.9  4092005.7 -0.1  1 0  444  976  202
[20]  41(B05) 1f 39 27  0  -1112.6  4092002.7  0.8  2 0  634  470  133
[21]  42(B06) 1f 41  7  0    138.0  4091999.5 -0.0  2 0 1304 1317  497
[22]  43(B07) 1f 44  7  0   -871.7  4092002.2  0.0  2 0 2287 2503  953
[24]  45(B09) 1f 43  7  0   -357.7  4092000.8 -0.0  2 0 1956 2624  775
[25]  46(B10) 1f 43 13  0   -974.7  4092002.4  0.0  2 0 1774 2283 1142
[26]  52(B16) 1f 42  7  0    145.2  4091999.5  0.0  2 0 1536 1751  448
[27]  55(B19)  7 30  7  0  -1469.5  4092003.7  0.2  5 0 1624 1795  504
[28]  59(B23) 1f 40  9  0    582.9  4091998.3  0.1  2 0 1387 1999 1145
[29]  63(B27) 1f 43  7  0  -3913.1  4092010.1 -0.0  2 0 2384 2709 1057
[30]  64(B28) 1f 44  7  0  -1494.3  4092003.8  0.0  2 0 2222 2477  897
[32]  77(N-4)  f 45 12  0  -1004.4  1022000.6  0.1  2 0  1616 2804 1373
[33]  80(N-1)  f 45  7  0   2635.0  1021998.3 -0.0  2 0  1807 2642 1309
[34]  81(N00)  f 45  7  0     75.5  1021999.9  0.0  2 0  1788 3160 1685
[35]  82(N01)  f 45  7  0  -1572.1  1022001.0  0.0  2 0  1552 2453 1266
[36]  84(N03)  f 45  7  0  -4576.3  1022002.9 -0.1  2 0  1510 2713 1344
[37]  85(N04)  f 45  7  0  -1109.1  1022000.7  0.0  2 0  2036 3800 1565
[48]  37(B01)  7 10 10  1  -1940.6 20460029.9 -0.1  2 0  218  336  333
[50]  39(B03)  f 22 23  1  -3016.6 20460047.4  0.0  2 0  432  344  200
[53]  42(B06)  1 10  7  0    323.9 20459998.3 -0.1  1 0  834  742  781
[54]  43(B07)  f  8  7  0  -1062.3 20460017.1 -0.0 10 0  530  846  471
[56]  45(B09)  1  7  7  0   -529.0 20460004.0 -0.0  1 0  453  510  217
[57]  46(B10)  1  7  7  0   -939.4 20460014.1  0.1  1 0   58  360  261
[58]  52(B16)  1  7  7  0   -318.5 20459998.8  0.0  1 0  602  138   40
[60]  59(B23)  1  7  7  0    366.2 20459990.5  0.0  1 0  193  430  820
[61]  63(B27)  1  7  7  0  -3017.0 20460061.7 -0.0  1 0  491  288  289
[62]  64(B28)  1  7  7  0  -1188.3 20460024.9  0.0  1 0  479  405  476
$GNGGA,032010.919,,,,,0,00,,,M,,,,0000*2A
$GNRMC,032010.919,A,,,,,,,090180,,*27
$GPGSA,A,1,,,,,,,,,,,,,,,*1E
$BDGSA,A,1,,,,,,,,,,,,,,,*0F
$GLGSA,A,1,,,,,,,,,,,,,,,*02
$GPGSV,3,1,09,07,00,000,42,08,00,000,43,09,00,000,42,16,00,000,44*74
$GPGSV,3,2,09,23,00,000,45,26,00,000,42,27,00,000,44,31,00,000,43*73
$GPGSV,3,3,09,04,00,000,34*43
$BDGSV,3,1,12,01,00,000,41,02,00,000,17,03,00,000,43,05,00,000,39*62
$BDGSV,3,2,12,06,00,000,41,07,00,000,44,09,00,000,43,10,00,000,43*66
$BDGSV,3,3,12,16,00,000,42,19,00,000,30,23,00,000,40,27,00,000,43*66
$B3CN0,0,0,21,0,0,0,0,0,0,0,0,0,0,0*7F
---00000017--- Acq_st=7 0  2000-1-1 0:1:51 
[00]  06(G07)  f 42  7  0  -3678.2  2046004.7  0.0  2 0 1813 3031 2250
[01]  07(G08)  f 43  7  0  -4479.3  2046005.8 -0.0  2 0 1400 2057  557
[02]  08(G09)  f 42 16  0  -3996.1  2046005.1  0.1  2 0 1163 2001  643
[03]  15(G16)  f 44  7  0    279.2  2045999.6  0.0  2 0 2133 2834 1414
[04]  22(G23)  f 44  7  0  -2486.1  2046003.2 -0.0  2 0 2293 3207 1438
[05]  25(G26)  f 43  7  0   1247.3  2045998.3 -0.0  2 0 1831 2181  874
[06]  26(G27)  f 44  7  0  -2950.3  2046003.8 -0.0  2 0 2146 3015 1088
[08]  30(G31)  f 42 10  0    929.0  2045998.8  0.0  2 0 1786 2770 1491
[09]  03(G04)  7 35  7  0  -4503.3  2046005.8  0.0  2 0  109  461  430
[16]  37(B01) 1f 40 10  0  -1139.0  4092002.8 -0.5  2 0 1028 1393  748
[17]  38(B02)  7 10 22  0  -3032.3  4092007.7  0.0  2 0  501  262  160
[18]  39(B03) 1f 43 29  0  -1140.5  4092002.9 -0.1  2 0 1184 1686  753
[20]  41(B05) 1f 39 25  0  -1110.0  4092002.7  0.1  2 0  909 1015  334
[21]  42(B06) 1f 41  7  0    138.9  4091999.6 -0.1  2 0 1224 1530  889
[22]  43(B07) 1f 44  7  0   -871.9  4092002.2  0.0  2 0 2087 2487 1208
[24]  45(B09) 1f 43  7  0   -355.1  4092000.8  0.0  2 0 1785 2075  494
[25]  46(B10) 1f 43  7  0   -971.3  4092002.4 -0.1  2 0 1783 2271  671
[26]  52(B16) 1f 42  7  0    147.4  4091999.5  0.0  2 0 1561 2018  898
[27]  55(B19)  7 42  7  0  -1466.0  4092003.7 -0.0  2 0 1293 1586  197
[28]  59(B23) 1f 40  7  0    585.8  4091998.3 -0.1  2 0  723 1152  912
[29]  63(B27) 1f 44  7  0  -3910.5  4092010.1  0.0  2 0 2411 2589 1366
[30]  64(B28) 1f 44  7  0  -1491.8  4092003.8  0.0  2 0 1881 3061 1605
[32]  77(N-4)  f 45  7  0  -1001.6  1022000.6 -0.1  2 0  1608 2588 1227
[33]  80(N-1)  f 45  7  0   2637.2  1021998.3 -0.0  2 0  1350 2304  763
[34]  81(N00)  f 45  7  0     77.7  1021999.9 -0.1  2 0  2036 3054 1219
[35]  82(N01)  f 45  7  0  -1570.0  1022001.0 -0.0  2 0  1650 2933 1444
[36]  84(N03)  f 44  7  0  -4573.3  1022002.9  0.0  2 0  1588 2592 1000
[37]  85(N04)  f 46  7  0  -1105.9  1022000.7  0.0  2 0  2505 4104 1716
[48]  37(B01)  7 18 21  0  -2069.4 20460034.1 -0.2  2 0  442  665  298
[50]  39(B03)  f 22 19  1  -3667.7 20460058.1 -0.1  2 0  196  526  245
[52]  41(B05)  1 23 22  0  -1230.6 20460017.3 -0.0  1 0  434  757  393
[53]  42(B06)  1  7  7  0    425.6 20459998.0 -0.1  1 0  485  828  901
[56]  45(B09)  1  8  7  0   -824.4 20460005.4  0.2  1 0  359  396  563
[57]  46(B10)  1  7  7  0  -1443.9 20460014.2  0.0  1 0  490  198  645
[58]  52(B16)  1  7  8  0   -172.4 20459997.0  0.0  1 0   45  451  501
[60]  59(B23)  1  7  7  0    215.7 20459992.1  0.0  1 0  478  671  324
[61]  63(B27)  1  7  7  0  -2972.8 20460062.6 -0.0  1 0  281  514  385
[62]  64(B28)  1  7  7  0    -44.2 20460024.8  0.0  1 0  197  574  731
$GNGGA,032011.919,,,,,0,00,,,M,,,,0000*2B
$GNRMC,032011.919,A,,,,,,,090180,,*26
$GPGSA,A,1,,,,,,,,,,,,,,,*1E
$BDGSA,A,1,,,,,,,,,,,,,,,*0F
$GLGSA,A,1,,,,,,,,,,,,,,,*02
$GPGSV,3,1,09,07,00,000,42,08,00,000,43,09,00,000,42,16,00,000,44*74
$GPGSV,3,2,09,23,00,000,44,26,00,000,43,27,00,000,44,31,00,000,42*72
$GPGSV,3,3,09,04,00,000,35*42
$BDGSV,3,1,12,01,00,000,40,03,00,000,43,05,00,000,40,06,00,000,41*6A
$BDGSV,3,2,12,07,00,000,44,09,00,000,43,10,00,000,43,16,00,000,42*64
$BDGSV,3,3,12,19,00,000,42,23,00,000,40,27,00,000,44,28,00,000,44*6F
$B3CN0,19,0,22,0,0,0,0,0,0,0,0,0,0,0*44
---00000018--- Acq_st=7 0  2000-1-1 0:1:52 
[00]  06(G07)  f 43  7  0  -3672.8  2046004.7 -0.1  2 0 1886 2312 1265
[01]  07(G08)  f 42  7  0  -4475.9  2046005.7 -0.0  2 0 1525 3352 1702
[02]  08(G09)  f 42 14  0  -3994.5  2046005.1 -0.1  2 0 1611 2460 1483
[03]  15(G16)  f 44  7  0    281.8  2045999.6  0.0  2 0 2463 3680 1359
[04]  22(G23)  f 45  7  0  -2484.6  2046003.2 -0.0  2 0 2396 3760 1783
[05]  25(G26)  f 43  9  0   1247.9  2045998.3  0.1  2 0 1420 2554 1071
[06]  26(G27)  f 44  7  0  -2948.7  2046003.8 -0.0  2 0 2391 3527 1723
[08]  30(G31)  f 43  7  0    932.9  2045998.7  0.0  2 0 1578 2511 1154
[09]  03(G04)  7 35  7  0  -4507.3  2046005.8  0.0  2 0  566 1041  378
[16]  37(B01) 1f 40 10  0  -1139.6  4092002.7  0.1  2 0 1051 1318  104
[18]  39(B03) 1f 45 28  0  -1136.4  4092002.9  0.0  2 0 1593 1803  458
[20]  41(B05) 1f 36 20  0  -1111.9  4092002.8 -0.6  2 0  929 1152  644
[21]  42(B06) 1f 41  7  0    138.8  4091999.5 -0.1  2 0 1305 1634  624
[22]  43(B07) 1f 44  7  0   -868.6  4092002.2 -0.1  2 0 2062 2507 1095
[24]  45(B09) 1f 43  7  0   -353.7  4092000.8  0.0  2 0 1978 2407 1069
[25]  46(B10) 1f 43 11  0   -968.1  4092002.4 -0.0  2 0 1856 2396  884
[26]  52(B16) 1f 42  7  0    152.8  4091999.5 -0.1  2 0 1982 2358 1007
[27]  55(B19)  7 41  7  0  -1464.0  4092003.7 -0.0  2 0 1328 1675  893
[28]  59(B23) 1f 40 10  0    581.8  4091998.3  0.0  2 0  816 1169  632
[29]  63(B27) 1f 44 11  0  -3909.8  4092010.1  0.0  2 0 1717 2102  624
[30]  64(B28) 1f 44  7  0  -1488.6  4092003.8  0.0  2 0 2111 2624 1024
[32]  77(N-4)  f 46  8  0  -1000.9  1022000.6 -0.0  2 0  1357 2757 1372
[33]  80(N-1)  f 45  9  0   2638.4  1021998.3  0.0  2 0  1429 2460 1197
[34]  81(N00)  f 46  7  0     77.5  1021999.9  0.0  2 0  1200 2896 1673
[35]  82(N01)  f 45  7  0  -1570.3  1022001.0  0.0  2 0  1645 2830 1378
[36]  84(N03)  f 45 10  0  -4572.8  1022002.9 -0.0  2 0  1423 2789 1222
[37]  85(N04)  f 46  7  0  -1104.7  1022000.7 -0.0  2 0  2236 4371 1923
[48]  37(B01)  7 10 21  0  -2059.3 20460033.6  0.1  2 0  187  543  198
[52]  41(B05)  1 22 23  0  -1277.0 20460024.4  0.1  1 0  143  306  741
[53]  42(B06)  1  7  7  0    663.3 20459998.1  0.0  1 0  510  533  480
[54]  43(B07)  1  7  7  0   -916.7 20460013.3 -0.0  1 0  426  397  627
[56]  45(B09)  1  8  7  0   -831.4 20460005.2  0.1  1 0  536  300  203
[57]  46(B10)  1  7  7  0  -1712.4 20460016.0 -0.1  1 0  458  301  505
[58]  52(B16)  1 10  8  0   -689.5 20459998.0  0.0  1 0  145  512  552
[60]  59(B23)  1  7  7  0    336.6 20459991.6  0.2  1 0  372  368   71
[61]  63(B27)  1  7  7  0  -3042.2 20460063.6  0.1  1 0  410  561  587
[62]  64(B28)  1  7  7  0   -249.0 20460024.5  0.1  1 0  657  312  186
$GNGGA,032012.919,,,,,0,00,,,M,,,,0000*28
$GNRMC,032012.919,A,,,,,,,090180,,*25
$GPGSA,A,1,,,,,,,,,,,,,,,*1E
$BDGSA,A,1,,,,,,,,,,,,,,,*0F
$GLGSA,A,1,,,,,,,,,,,,,,,*02
$GPGSV,3,1,09,07,00,000,43,08,00,000,42,09,00,000,42,16,00,000,44*74
$GPGSV,3,2,09,23,00,000,45,26,00,000,43,27,00,000,44,31,00,000,43*72
$GPGSV,3,3,09,04,00,000,35*42
$BDGSV,3,1,12,01,00,000,40,03,00,000,45,05,00,000,36,06,00,000,41*6D
$BDGSV,3,2,12,07,00,000,44,09,00,000,43,10,00,000,43,16,00,000,42*64
$BDGSV,3,3,12,19,00,000,41,23,00,000,40,27,00,000,44,28,00,000,44*6C
$B3CN0,16,0,0,0,0,0,0,0,0,0,0,0,0,0*7B
---00000019--- Acq_st=7 0  2000-1-1 0:1:53 
[00]  06(G07)  f 43  8  0  -3676.1  2046004.7 -0.1  2 0 1556 2430 1029
[01]  07(G08)  f 43  7  0  -4477.8  2046005.8 -0.0  2 0 1654 2929 1537
[02]  08(G09)  f 42 15  0  -3999.6  2046005.1  0.0  2 0 1169 1669  474
[03]  15(G16)  f 44  7  0    275.9  2045999.6  0.0  2 0 2261 3120 1644
[04]  22(G23)  f 44  7  0  -2486.0  2046003.2  0.0  2 0 2301 3497 1439
[05]  25(G26)  f 43  7  0   1244.6  2045998.3  0.0  2 0 1781 2683 1366
[06]  26(G27)  f 44  7  0  -2953.0  2046003.8 -0.0  2 0 2452 3616 2025
[08]  30(G31)  f 43  7  0    928.7  2045998.7 -0.0  2 0 1522 2035  593
[09]  03(G04)  f 35  7  0  -4513.0  2046005.8  0.1  2 0  319  325  444
[16]  37(B01) 1f 41 10  0  -1142.1  4092002.9  0.5  2 0 1199 1377  626
[18]  39(B03) 1f 43 28  0  -1140.3  4092002.7  0.1  2 0 1702 1969  466
[20]  41(B05) 1f 38 25  0  -1114.7  4092002.9  0.7  2 0 1035 1074  592
[21]  42(B06) 1f 41  7  0    133.1  4091999.5  0.1  2 0 1615 1723  700
[22]  43(B07) 1f 44  7  0   -870.1  4092002.2  0.0  2 0 2244 2737 1075
[24]  45(B09) 1f 43  7  0   -356.2  4092000.8 -0.0  2 0 1905 2193  922
[25]  46(B10) 1f 43 11  0   -975.7  4092002.4  0.0  2 0 1999 2816 1147
[26]  52(B16) 1f 42  7  0    148.6  4091999.5  0.0  2 0 2086 2325  919
[27]  55(B19)  7 41  7  0  -1467.1  4092003.7 -0.0  2 0 1925 2114  857
[28]  59(B23) 1f 40  7  0    585.9  4091998.3  0.1  2 0 2217 1985  270
[29]  63(B27) 1f 44  7  0  -3910.6  4092010.1 -0.0  2 0 1926 2253  872
[30]  64(B28) 1f 44  7  0  -1493.9  4092003.8  0.0  2 0 1929 2627  975
[32]  77(N-4)  f 46  7  0  -1001.3  1022000.6  0.1  2 0  1360 2392 1499
[33]  80(N-1)  f 45 10  0   2635.9  1021998.3  0.0  2 0  1216 2142 1093
[34]  81(N00)  f 46  7  0     76.2  1021999.9  0.1  2 0  1618 3028 1289
[35]  82(N01)  f 45  7  0  -1572.2  1022001.0 -0.1  2 0  1315 2801 1575
[36]  84(N03)  f 45  7  0  -4575.5  1022002.9  0.0  2 0  1465 2690 1122
[37]  85(N04)  f 47  7  0  -1106.3  1022000.7  0.1  2 0  2402 4222 2206
[48]  37(B01)  7 19 10  0  -2079.3 20460033.7 -0.1  2 0  261  424  826
[50]  39(B03)  1 23 10  1   -880.8 20460022.1 -0.1  1 0  530  740  205
[52]  41(B05)  1 25 26  0  -1036.7 20460020.7  0.1  1 0   58  605  394
[54]  43(B07)  1  7 10  0   -935.7 20460015.0 -0.1  1 0  243  400  672
[61]  63(B27)  1  7  7  0  -2777.5 20460063.6 -0.0  1 0  265  364  478
[62]  64(B28)  1  7  8  0   -173.1 20460024.0  0.2  1 0  113  303   98
$GNGGA,032013.919,,,,,0,00,,,M,,,,0000*29
$GNRMC,032013.919,A,,,,,,,090180,,*24
$GPGSA,A,1,,,,,,,,,,,,,,,*1E
$BDGSA,A,1,,,,,,,,,,,,,,,*0F
$GLGSA,A,1,,,,,,,,,,,,,,,*02
$GPGSV,3,1,09,07,00,000,43,08,00,000,43,09,00,000,42,16,00,000,44*75
$GPGSV,3,2,09,23,00,000,44,26,00,000,43,27,00,000,44,31,00,000,43*73
$GPGSV,3,3,09,04,00,000,35*42
$BDGSV,3,1,12,01,00,000,41,03,00,000,43,05,00,000,38,06,00,000,41*64
$BDGSV,3,2,12,07,00,000,44,09,00,000,43,10,00,000,43,16,00,000,42*64
$BDGSV,3,3,12,19,00,000,41,23,00,000,40,27,00,000,44,28,00,000,44*6C
$B3CN0,19,0,0,0,0,0,0,0,0,0,0,0,0,0*74
---00000020--- Acq_st=3 0  2000-1-1 0:1:54 
[00]  06(G07)  f 42  7  0  -3674.8  2046004.7  0.0  2 0 1679 2978 1591
[01]  07(G08)  f 42  7  0  -4480.9  2046005.8 -0.0  2 0 1280 2814 1117
[02]  08(G09)  f 42 17  0  -3997.0  2046005.1  0.0  2 0 1286 2118  897
[03]  15(G16)  f 45  7  0    275.5  2045999.6 -0.0  2 0 1895 3718 1876
[04]  22(G23)  f 45  7  0  -2486.8  2046003.2  0.0  2 0 2500 3764 1797
[05]  25(G26)  f 43  7  0   1244.8  2045998.3 -0.0  2 0 1985 2875 1687
[06]  26(G27)  f 44  7  0  -2947.9  2046003.8  0.0  2 0 2469 3095 1059
[08]  30(G31)  f 43  7  0    930.7  2045998.7  0.1  2 0 1194 2603 1103
[09]  03(G04)  f 35  7  0  -4507.8  2046005.7  0.2  2 0  712  955  374
[16]  37(B01) 1f 40 24  0  -1143.1  4092003.0 -0.7  2 0  908 1638 1116
[18]  39(B03) 1f 45 30  0  -1142.4  4092002.9  0.2  2 0 1672 2104  973
[20]  41(B05) 1f 37 10  0  -1116.1  4092002.8 -0.9  2 0  859  913  474
[21]  42(B06) 1f 40  7  0    135.1  4091999.5 -0.0  2 0 1465 1876  879
[22]  43(B07) 1f 44  7  0   -870.5  4092002.2 -0.0  2 0 2041 2500 1078
[24]  45(B09) 1f 43  7  0   -356.0  4092000.8 -0.0  2 0 1327 2397  899
[25]  46(B10) 1f 43  7  0   -971.4  4092002.4 -0.0  2 0 2164 2449 1305
[26]  52(B16) 1f 42  7  0    150.4  4091999.5 -0.0  2 0 1607 1775  845
[27]  55(B19)  7 41  7  0  -1463.4  4092003.7  0.1  2 0 1344 1965  763
[28]  59(B23) 1f 40  7  0    583.7  4091998.4  0.0  2 0 1393 1707 1092
[29]  63(B27) 1f 43  7  0  -3908.6  4092010.1 -0.0  2 0 1835 2602  899
[30]  64(B28) 1f 44  7  0  -1494.0  4092003.8  0.0  2 0 2079 2753 1154
[32]  77(N-4)  f 46  8  0  -1000.4  1022000.6 -0.0  2 0  1459 2415 1179
[33]  80(N-1)  f 46  7  0   2637.1  1021998.3 -0.0  2 0  1539 2517 1250
[34]  81(N00)  f 46 10  0     75.8  1021999.9 -0.0  2 0  1491 2669 1185
[35]  82(N01)  f 46  7  0  -1571.5  1022001.0  0.0  2 0  1533 2681 1180
[36]  84(N03)  f 45  8  0  -4574.4  1022002.9 -0.1  2 0  1274 2403 1129
[37]  85(N04)  f 47  7  0  -1105.2  1022000.7  0.0  2 0  2479 4144 2020
[50]  39(B03)  1 10 10  0   -804.6 20460022.9 -0.0  1 0  332  528  753
[52]  41(B05)  1 27 23  0  -1096.8 20460020.6 -0.1  1 0  539  347  308
[53]  42(B06)  1  7  7  0    226.2 20459999.2  0.0  1 0  649  234  741
[54]  43(B07)  1  9  7  0   -746.7 20460014.4 -0.0  1 0  346  510  370
[56]  45(B09)  1  7  8  0   -114.0 20460003.3  0.0  1 0  546  700  551
[57]  46(B10)  1  7  7  0  -1099.4 20460014.6 -0.0  1 0  813  871  771
[58]  52(B16)  1  7  7  0     23.1 20459996.7  0.1  1 0  283  318  241
[60]  59(B23)  1  9  7  0    196.4 20459990.6  0.1  1 0  444  518  491
$GNGGA,032014.919,,,,,0,00,,,M,,,,0000*2E
$GNRMC,032014.919,A,,,,,,,090180,,*23
$GPGSA,A,1,,,,,,,,,,,,,,,*1E
$BDGSA,A,1,,,,,,,,,,,,,,,*0F
$GLGSA,A,1,,,,,,,,,,,,,,,*02
$GPGSV,3,1,09,07,00,000,42,08,00,000,42,09,00,000,42,16,00,000,45*74
$GPGSV,3,2,09,23,00,000,45,26,00,000,43,27,00,000,44,31,00,000,43*72
$GPGSV,3,3,09,04,00,000,35*42
$BDGSV,3,1,12,01,00,000,40,03,00,000,45,05,00,000,37,06,00,000,40*6D
$BDGSV,3,2,12,07,00,000,44,09,00,000,43,10,00,000,43,16,00,000,42*64
$BDGSV,3,3,12,19,00,000,41,23,00,000,40,27,00,000,43,28,00,000,44*6B
$B3CN0,0,0,0,0,0,0,0,0,0,0,0,0,0,0*4C
---00000021--- Acq_st=3 0  2000-1-1 0:1:55 
[00]  06(G07)  f 41  7  0  -3673.8  2046004.7  0.0  2 0 1637 2709 1206
[01]  07(G08)  f 42  9  0  -4479.3  2046005.8 -0.1  2 0 1395 2670 1674
[02]  08(G09)  f 41 16  0  -3995.2  2046005.1  0.0  2 0 2369 3132 1347
[03]  15(G16)  f 44  7  0    276.4  2045999.6  0.0  2 0 2002 3463 2016
[04]  22(G23)  f 45  7  0  -2485.4  2046003.2 -0.0  2 0 1725 3087 1617
[05]  25(G26)  f 43  7  0   1244.7  2045998.3  0.0  2 0 1260 2474 1057
[06]  26(G27)  f 44  7  0  -2952.0  2046003.8 -0.0  2 0 1494 2840 1274
[08]  30(G31)  f 43  7  0    929.7  2045998.7  0.0  2 0 1423 1994  370
[09]  03(G04)  f 35  8  0  -4510.7  2046005.8 -0.3  2 0  679  605  612
[16]  37(B01) 1f 40 10  0  -1141.1  4092002.8 -0.3  2 0 1369 1783  548
[18]  39(B03) 1f 42 27  0  -1142.2  4092002.9 -0.2  2 0 1564 1827  940
[20]  41(B05) 1f 38 28  0  -1114.1  4092002.7  0.3  2 0 1471 1506  273
[21]  42(B06) 1f 40  7  0    132.9  4091999.5 -0.0  2 0 1368 1085  660
[22]  43(B07) 1f 44  7  0   -870.1  4092002.2 -0.0  2 0 2387 3355 1815
[24]  45(B09) 1f 43  7  0   -358.6  4092000.8  0.0  2 0 1374 2355 1050
[25]  46(B10) 1f 43  7  0   -974.0  4092002.4 -0.0  2 0 2060 2279  847
[26]  52(B16) 1f 43  9  0    148.7  4091999.5  0.0  2 0 1959 2542 1075
[27]  55(B19) 1f 41  7  0  -1462.8  4092003.7 -0.1  2 0 2110 2065  514
[28]  59(B23) 1f 41  7  0    584.2  4091998.3 -0.0  2 0 1105 1275  635
[29]  63(B27) 1f 43  7  0  -3911.8  4092010.1  0.0  2 0 1660 2677 1183
[30]  64(B28) 1f 44  7  0  -1491.4  4092003.8 -0.0  2 0 1676 2741 1585
[32]  77(N-4)  f 46  7  0  -1001.0  1022000.6 -0.0  2 0  1511 2417  889
[33]  80(N-1)  f 45  9  0   2635.5  1021998.3 -0.0  2 0  1421 2552 1015
[34]  81(N00)  f 46  7  0     75.0  1021999.9  0.0  2 0  1818 3064 1805
[35]  82(N01)  f 46  7  0  -1574.4  1022001.0  0.0  2 0  1484 2498  983
[36]  84(N03)  f 46  7  0  -4575.8  1022002.9  0.0  2 0  1390 2570 1161
[37]  85(N04)  f 47  7  0  -1106.1  1022000.7 -0.0  2 0  1993 3776 1894
[48]  37(B01)  1 18 21  1   -566.4 20460018.2 -0.0  1 0  158  524  364
[50]  39(B03)  1 10 22  0   -219.9 20460022.0  0.2  1 0  236  201  502
[53]  42(B06)  1  7  7  0    189.1 20459995.4 -0.1  1 0  513  470  614
[54]  43(B07)  1  7  9  0  -1198.1 20460014.0  0.1  1 0  425  360  378
[56]  45(B09)  1  7  7  0   -370.7 20460006.1 -0.2  1 0  146  166  143
[57]  46(B10)  1  7  7  0  -1481.2 20460013.0 -0.1  1 0  207  132  373
[58]  52(B16)  1  7  7  0    574.3 20459998.4 -0.2  1 0  111  225  712
[60]  59(B23)  1  7  7  0    524.7 20459990.7 -0.1  1 0  470  297  175
[61]  63(B27)  1  7 10  0  -3634.0 20460063.9  0.1  1 0   91  248  563
[62]  64(B28)  1  7  7  0  -1603.1 20460022.9  0.2  1 0  609  109  214
$GNGGA,032015.919,,,,,0,00,,,M,,,,0000*2F
$GNRMC,032015.919,A,,,,,,,090180,,*22
$GPGSA,A,1,,,,,,,,,,,,,,,*1E
$BDGSA,A,1,,,,,,,,,,,,,,,*0F
$GLGSA,A,1,,,,,,,,,,,,,,,*02
$GPGSV,3,1,09,07,00,000,41,08,00,000,42,09,00,000,41,16,00,000,44*75
$GPGSV,3,2,09,23,00,000,45,26,00,000,43,27,00,000,44,31,00,000,43*72
$GPGSV,3,3,09,04,00,000,35*42
$BDGSV,3,1,12,01,00,000,40,03,00,000,42,05,00,000,38,06,00,000,40*65
$BDGSV,3,2,12,07,00,000,44,09,00,000,43,10,00,000,43,16,00,000,43*65
$BDGSV,3,3,12,19,00,000,41,23,00,000,41,27,00,000,43,28,00,000,44*6A
$B3CN0,0,0,0,0,0,0,0,0,0,0,0,0,0,0*4C
---00000022--- Acq_st=3 0  2000-1-1 0:1:56 
[00]  06(G07)  f 42  7  0  -3673.9  2046004.7 -0.1  2 0 1676 2594 1745
[01]  07(G08)  f 42  7  0  -4479.2  2046005.8  0.1  2 0 1126 1829  617
[02]  08(G09)  f 42 15  0  -3996.1  2046005.1  0.0  2 0 1327 2154 1160
[03]  15(G16)  f 44  7  0    279.7  2045999.6 -0.0  2 0 2517 3785 1235
[04]  22(G23)  f 44  7  0  -2484.4  2046003.2 -0.0  2 0 1779 2828 1161
[05]  25(G26)  f 43  7  0   1250.4  2045998.3  0.0  2 0 1521 2464  819
[06]  26(G27)  f 44  7  0  -2950.4  2046003.8  0.1  2 0 2298 3681 1530
[08]  30(G31)  f 43  7  0    929.9  2045998.8 -0.0  2 0  907 1855 1035
[09]  03(G04)  f 35  7  0  -4506.5  2046005.9  0.1  2 0  522  525  398
[16]  37(B01) 1f 39 10  0  -1142.2  4092002.9  0.2  2 0  804 1268  588
[17]  38(B02)  1 16 24  1  -1125.1  4092002.7  0.0  1 0  135  638 1589
[18]  39(B03) 1f 43 29  0  -1140.8  4092002.8 -0.1  2 0 1460 2097  987
[19]  40(B04)  1 41 10  0  -1135.2  4092003.4  1.0  1 0  864 1357  692
[20]  41(B05) 1f 38 24  0  -1112.0  4092002.8 -0.6  2 0 1131 1346  613
[21]  42(B06) 1f 41  7  0    134.2  4091999.5  0.0  2 0 1124 1563  760
[22]  43(B07) 1f 44  7  0   -873.6  4092002.2  0.0  2 0 1680 2792 1664
[24]  45(B09) 1f 43  7  0   -357.0  4092000.8 -0.0  2 0 1984 2535 1370
[25]  46(B10) 1f 43  9  0   -973.2  4092002.4  0.0  2 0 2045 2971 1525
[26]  52(B16) 1f 42  7  0    152.4  4091999.5 -0.0  2 0 1834 2277  896
[27]  55(B19) 1f 41 13  0  -1465.6  4092003.7  0.1  2 0 1693 2168 1063
[28]  59(B23) 1f 41  7  0    582.9  4091998.3  0.0  2 0 1149 1450  502
[29]  63(B27) 1f 43  7  0  -3909.1  4092010.1 -0.0  2 0 2043 2749 1088
[30]  64(B28) 1f 44  7  0  -1492.8  4092003.8  0.1  2 0 2367 2930 1294
[32]  77(N-4)  f 46  7  0   -999.3  1022000.6 -0.0  2 0  1365 2404 1418
[33]  80(N-1)  f 45  7  0   2637.0  1021998.3 -0.1  2 0  1641 2666  914
[34]  81(N00)  f 46  7  0     76.1  1021999.9 -0.0  2 0  1579 2870 1109
[35]  82(N01)  f 45  7  0  -1571.6  1022001.0 -0.0  2 0  1525 2412 1224
[36]  84(N03)  f 46  7  0  -4574.2  1022002.9  0.0  2 0  1559 2873 1687
[37]  85(N04)  f 47  7  0  -1103.3  1022000.7  0.0  2 0  2037 3853 2198
[48]  37(B01)  1 10 20  0   -331.6 20460017.7 -0.0  1 0  308  534  599
[50]  39(B03)  1 21 16  1   -435.9 20460029.9 -0.1  1 0  601  324  316
[52]  41(B05)  1 24 24  1  -1191.9 20460014.5 -0.0  1 0  136  276  152
[53]  42(B06)  1  7  7  0    533.6 20459998.2 -0.0  1 0  392  229  289
[56]  45(B09)  1  7  7  0   -411.8 20460003.1 -0.1  1 0  834  657  493
[57]  46(B10)  1  7  7  0   -787.9 20460015.2 -0.1  1 0  291  771 1100
[58]  52(B16)  1  9  7  0   1639.9 20459998.9  0.1  1 0  922  736  234
[59]  55(B19)  1  7  7  0  -1029.2 20460022.3  0.0  1 0  601   22  392
[60]  59(B23)  1  7  7  0    290.1 20459992.2 -0.0  1 0  366  413  381
[61]  63(B27)  1  7  7  0  -3929.6 20460063.5 -0.1  1 0  779  332  268
[62]  64(B28)  1  7  7  0  -1309.8 20460024.9  0.1  1 0  175  526  348
$GNGGA,032016.919,,,,,0,00,,,M,,,,0000*2C
$GNRMC,032016.919,A,,,,,,,090180,,*21
$GPGSA,A,1,,,,,,,,,,,,,,,*1E
$BDGSA,A,1,,,,,,,,,,,,,,,*0F
$GLGSA,A,1,,,,,,,,,,,,,,,*02
$GPGSV,3,1,09,07,00,000,42,08,00,000,42,09,00,000,42,16,00,000,44*75
$GPGSV,3,2,09,23,00,000,44,26,00,000,43,27,00,000,44,31,00,000,43*73
$GPGSV,3,3,09,04,00,000,35*42
$BDGSV,3,1,12,01,00,000,39,03,00,000,43,05,00,000,38,06,00,000,41*6B
$BDGSV,3,2,12,07,00,000,44,09,00,000,43,10,00,000,43,16,00,000,42*64
$BDGSV,3,3,12,19,00,000,41,23,00,000,41,27,00,000,43,28,00,000,44*6A
$B3CN0,0,0,0,0,0,0,0,0,0,0,0,0,0,0*4C
---00000023--- Acq_st=3 0  2000-1-1 0:1:57 
[00]  06(G07)  f 43  8  0  -3679.9  2046004.7  0.0  2 0 1732 2586 1489
[01]  07(G08)  f 43  8  0  -4480.2  2046005.7  0.0  2 0 1483 2522 1014
[02]  08(G09)  f 41 16  0  -3993.0  2046005.1  0.0  2 0 1793 2908 1340
[03]  15(G16)  f 44  7  0    279.2  2045999.6 -0.0  2 0 2522 4067 1886
[04]  22(G23)  f 44  7  0  -2486.5  2046003.2  0.0  2 0 2062 3160 1660
[05]  25(G26)  f 43  7  0   1236.8  2045998.3 -0.0  2 0 2407 2614 1131
[06]  26(G27)  f 43  7  0  -2948.9  2046003.8 -0.0  2 0 1865 3142 1679
[08]  30(G31)  f 42  7  0    926.7  2045998.7 -0.1  2 0 1182 1824  577
[09]  03(G04)  f 34  7  0  -4515.8  2046005.8 -0.3  2 0 1115 1447  928
[16]  37(B01) 1f 39 24  0  -1147.4  4092002.9  0.2  2 0 1308 1761  791
[17]  38(B02)  7 40 28  0  -1110.8  4092003.0  0.5  2 0  767 1579  930
[18]  39(B03) 1f 42 29  0  -1144.5  4092002.9  0.1  2 0 1290 1800 1006
[19]  40(B04)  f 39 20  0  -1135.9  4092002.8  0.3  2 0 1218 1285  466
[20]  41(B05) 1f 38 25  0  -1116.1  4092002.8  0.1  2 0  898 1224  450
[21]  42(B06) 1f 40  7  0    137.8  4091999.5 -0.0  2 0  878 1475  648
