SD initialized success
Create debug.log Failed! 3
bbram_blkflag = 1
rtcflag = 0
BBRAM Block OK: 01 EPHflag: 4640a1c8 0c44837f, rtc 00
Hot-start nowtime:day = 24,minute = 22,seconds = 55.00
BD Pred_Dopp 1 -1270.27
BD Pred_Dopp 2 -1119.01
BD Pred_Dopp 3 -1247.28
GPS Pred_Dopp 4 -5172.06
BD Pred_Dopp 4 -1221.40
BD Pred_Dopp 5 -1221.43
BD Pred_Dopp 6  3326.40
GPS Pred_Dopp 7 -1670.58
BD Pred_Dopp 7 -5918.05
GPS Pred_Dopp 8 -4976.54
GPS Pred_Dopp 9 -2710.26
BD Pred_Dopp 9 12093.07
BD Pred_Dopp 10 -24258.34
GPS Pred_Dopp 14  2836.16
GPS Pred_Dopp 16 -10212.89
BD Pred_Dopp 16  4796.97
BD Pred_Dopp 19 -2155.38
GPS Pred_Dopp 23 15750.02
BD Pred_Dopp 23 10427.34
GPS Pred_Dopp 26  3383.33
GPS Pred_Dopp 27 -13420.31
BD Pred_Dopp 27 -8013.06
BD Pred_Dopp 28 -12390.31
GPS Pred_Dopp 31 10198.33
GPS 0 Init Dop: 10000,80
GPS 1 Init Dop: 10000,80
GPS 2 Init Dop: 10000,80
GPS 3 Init Dop: -5047, 2
GPS 4 Init Dop: 10000,80
GPS 5 Init Dop: 10000,80
GPS 6 Init Dop: -1545, 2
GPS 7 Init Dop: -4851, 2
GPS 8 Init Dop: -2585, 2
GPS 9 Init Dop: 10000,80
GPS10 Init Dop: 10000,80
GPS11 Init Dop: 10000,80
GPS12 Init Dop: 10000,80
GPS13 Init Dop:  2961, 2
GPS14 Init Dop: 10000,80
GPS15 Init Dop:-10087, 2
GPS16 Init Dop: 10000,80
GPS17 Init Dop: 10000,80
GPS18 Init Dop: 10000,80
GPS19 Init Dop: 10000,80
GPS20 Init Dop: 10000,80
GPS21 Init Dop: 10000,80
GPS22 Init Dop: 15875, 2
GPS23 Init Dop: 10000,80
GPS24 Init Dop: 10000,80
GPS25 Init Dop:  3508, 2
GPS26 Init Dop:-13295, 2
GPS27 Init Dop: 10000,80
GPS28 Init Dop: 10000,80
GPS29 Init Dop: 10000,80
GPS30 Init Dop: 10323, 2
GPS31 Init Dop: 10000,80
BDS 0 Init Dop: -1145, 2
BDS 1 Init Dop:  -994, 2
BDS 2 Init Dop: -1122, 2
BDS 3 Init Dop: -1096, 2
BDS 4 Init Dop: -1096, 2
BDS 5 Init Dop:  3451, 2
BDS 6 Init Dop: -5793, 2
BDS 7 Init Dop: 10000,80
BDS 8 Init Dop: 12218, 2
BDS 9 Init Dop:-24133, 2
BDS10 Init Dop: 10000,80
BDS11 Init Dop: 10000,80
BDS12 Init Dop: 10000,80
BDS13 Init Dop: 10000,80
BDS14 Init Dop: 10000,80
BDS15 Init Dop:  4921, 2
BDS16 Init Dop: 10000,80
BDS17 Init Dop: 10000,80
BDS18 Init Dop: -2030, 2
BDS19 Init Dop: 10000,80
BDS20 Init Dop: 10000,80
BDS21 Init Dop: 10000,80
BDS22 Init Dop: 10552, 2
BDS23 Init Dop: 10000,80
BDS24 Init Dop: 10000,80
BDS25 Init Dop: 10000,80
BDS26 Init Dop: -7888, 2
BDS27 Init Dop:-12265, 2
BDS28 Init Dop: 10000,80
BDS29 Init Dop: 10000,80
BDS30 Init Dop: 10000,80
BDS31 Init Dop: 10000,80
Good luck!
ch0 satid=7 freq=-4851 acq ok!
ch1 satid=13 freq=2711 acq ok!
$GNGGA,000000.000,,,,,0,00,,,M,,,,0000*2B
$GNRMC,000000.000,A,,,,,,,060180,,*29
$GPGSA,A,1,,,,,,,,,,,,,,,*1E
$BDGSA,A,1,,,,,,,,,,,,,,,*0F
$GLGSA,A,1,,,,,,,,,,,,,,,*02
$B3CN0,0,0,0,0,0,0,0,0,0,0,0,0,0,0*4C
---00000001--- Acq_st=3 0  2019-4-24 3:22:56 
[00]  07(G08)  1  7  7  0  -4908.4  2046008.5  0.0  1 0  294  662 2006
[01]  13(G14)  1  7  7  0   2711.0  2045997.4  0.0  1 0  879 1469 1086
ch18 satid=39 freq=-1122 acq ok!
$GNGGA,000000.000,,,,,0,00,,,M,,,,0000*2B
$GNRMC,000000.000,A,,,,,,,060180,,*29
$GPGSA,A,1,,,,,,,,,,,,,,,*1E
$BDGSA,A,1,,,,,,,,,,,,,,,*0F
$GLGSA,A,1,,,,,,,,,,,,,,,*02
$B3CN0,0,0,0,0,0,0,0,0,0,0,0,0,0,0*4C
---00000002--- Acq_st=3 0  2019-4-24 3:22:57 
[00]  07(G08)  1  7 11  0  -4904.0  2046005.9  0.2  1 0 1471 1621  738
[01]  13(G14)  1 27  7  0   2567.2  2045996.5  0.5  1 0  688 1199  636
[16]  37(B01)  1 10 10  0  -1395.0  4092004.8  0.1  1 0  133  822 1323
[17]  38(B02)  1 10 10  0  -1244.0  4092003.8  0.0  1 0  838 1113  809
[18]  39(B03)  1 10 23  0  -1122.0  4092003.9 -0.2  1 0  484 1079 1891
[19]  40(B04)  1 10 10  0  -1096.0  4092004.3 -0.0  1 0  510 1016 1726
[20]  41(B05)  1 10 10  0  -1096.0  4092003.3  0.0  1 0  544  533  987
$GNGGA,000000.000,,,,,0,00,,,M,,,,0000*2B
$GNRMC,000000.000,A,,,,,,,060180,,*29
$GPGSA,A,1,,,,,,,,,,,,,,,*1E
$BDGSA,A,1,,,,,,,,,,,,,,,*0F
$GLGSA,A,1,,,,,,,,,,,,,,,*02
$B3CN0,0,0,0,0,0,0,0,0,0,0,0,0,0,0*4C
---00000003--- Acq_st=3 0  2019-4-24 3:22:58 
[00]  07(G08)  1  7  7  0  -4911.7  2046005.6  0.4  1 0 1674 2073  938
[01]  13(G14)  7 30  7  0   2566.8  2045996.6  0.6  5 0  494 1110  899
[16]  37(B01)  1 20 10  0  -1640.9  4092003.7  0.3  1 0  986 1077  247
[17]  38(B02)  1 10 27  1  -1088.6  4092004.6  0.5  1 0  939  739  356
[18]  39(B03)  1 10 30  1  -1123.2  4092004.2  0.4  1 0  431 1334 2529
[19]  40(B04)  1 10 23  1  -1114.5  4092004.1  0.4  1 0 1034 1975 1141
[20]  41(B05)  1 10 23  0  -1094.9  4092003.2  0.3  1 0  783 1001  589
[21]  44(B08)  1  7  7  0  -3257.0  4092008.3  0.1  1 0  330  397  294
$GNGGA,000000.000,,,,,0,00,,,M,,,,0000*2B
$GNRMC,000000.000,A,,,,,,,060180,,*29
$GPGSA,A,1,,,,,,,,,,,,,,,*1E
$BDGSA,A,1,,,,,,,,,,,,,,,*0F
$GLGSA,A,1,,,,,,,,,,,,,,,*02
$GPGSV,1,1,01,14,00,000,29*46
$B3CN0,0,0,0,0,0,0,0,0,0,0,0,0,0,0*4C
---00000004--- Acq_st=3 0  2019-4-24 3:22:59 
[00]  07(G08)  1  7  9  0  -4908.0  2046005.5  0.2  1 0  871 1475  650
[01]  13(G14)  7 38  7  0   2571.6  2045996.6  0.2  2 0  464 1165  740
[16]  37(B01)  1 10 10  1  -1624.9  4092003.8  0.0  1 0 1166  402  204
[17]  38(B02)  f 39 23  0  -1081.7  4092002.6 -0.9  2 0 1373 1339  617
[18]  39(B03)  f 43 30  0  -1115.6  4092003.0  0.1  2 0 1114 2346 1703
[19]  40(B04)  f 40 19  0  -1107.1  4092002.8  0.5  2 0  971  813  179
[20]  41(B05)  f 38 26  0  -1094.6  4092002.7  0.1  2 0 1378 1461  688
[21]  44(B08)  1  7  7  0  -2846.8  4092009.0  0.2  1 0  499 1368  788
[22]  55(B19)  1  7  7  0  -2114.4  4092005.3 -0.1  1 0  855  408  542
$GNGGA,000000.000,,,,,0,00,,,M,,,,0000*2B
$GNRMC,000000.000,A,,,,,,,060180,,*29
$GPGSA,A,1,,,,,,,,,,,,,,,*1E
$BDGSA,A,1,,,,,,,,,,,,,,,*0F
$GLGSA,A,1,,,,,,,,,,,,,,,*02
$GPGSV,1,1,01,14,00,000,38*46
$BDGSV,1,1,04,02,00,000,39,03,00,000,43,04,00,000,40,05,00,000,38*6E
$B3CN0,0,0,0,0,0,0,0,0,0,0,0,0,0,0*4C
---00000005--- Acq_st=3 0  2019-4-24 3:23:0 
[00]  07(G08)  1  7  7  0  -4903.3  2046005.7  0.2  1 0  777 1503  582
[01]  13(G14)  7 38  7  0   2571.7  2045996.5 -0.1  2 0 1230 1562  829
[16]  37(B01)  1 14 10  1  -2239.7  4092003.5  0.0  1 0  353   79  124
[17]  38(B02) 1f 39 26  0  -1078.7  4092002.8 -0.3  2 0 1093 1269  560
[18]  39(B03) 1f 43 30  0  -1118.1  4092003.0 -0.2  2 0 1063 2359 1695
[19]  40(B04) 1f 38 21  0  -1107.2  4092002.7  0.1  2 0 1077 1317  237
[20]  41(B05) 1f 37 22  0  -1088.6  4092002.7 -0.8  2 0 1062 1363  243
[21]  44(B08)  7 23  7  0  -2847.2  4092007.3  0.4 10 0 1081  997  358
[22]  55(B19)  1  9 11  0  -1820.1  4092005.1 -0.1  1 0  484  316  419
[49]  38(B02)  1 10 10  1   -677.2 20460017.8  0.0  1 0  442  745  180
[50]  39(B03)  1 18 18  1   -922.4 20460016.3  0.0  1 0  297  195  285
[51]  40(B04)  1 20 25  0  -1211.5 20460017.1 -0.2  1 0  606  146  156
[52]  41(B05)  1 23 25  1  -1310.5 20460024.4  0.0  1 0  406  109  686
ch33 satid=77 freq=-750 acq ok!
ch34 satid=80 freq=2750 acq ok!
ch35 satid=81 freq=0 acq ok!
ch36 satid=82 freq=-1500 acq ok!
ch38 satid=84 freq=-4500 acq ok!
ch40 satid=85 freq=-1000 acq ok!
$GNGGA,032301.574,,,,,0,00,,,M,,,,0000*2E
$GNRMC,032301.574,A,,,,,,,090180,,*23
$GPGSA,A,1,,,,,,,,,,,,,,,*1E
$BDGSA,A,1,,,,,,,,,,,,,,,*0F
$GLGSA,A,1,,,,,,,,,,,,,,,*02
$GPGSV,1,1,01,14,00,000,38*46
$BDGSV,2,1,05,02,00,000,39,03,00,000,43,04,00,000,39,05,00,000,38*62
$BDGSV,2,2,05,08,00,000,23*54
$B3CN0,0,0,0,0,0,0,0,0,0,0,0,0,0,0*4C
---00000006--- Acq_st=3 0  2019-4-24 3:23:1 
[01]  13(G14)  f 38  7  0   2569.4  2045996.6  0.2  2 0  954 1132  827
[16]  37(B01)  7 10 10  1  -2440.7  4092006.5 -0.0  2 0  201   84  277
[17]  38(B02) 1f 40 26  0  -1080.6  4092002.7  0.3  2 0 1191  917  412
[18]  39(B03) 1f 45 30  0  -1116.8  4092003.0 -0.2  2 0 1743 2551 1043
[19]  40(B04) 1f 40 26  0  -1110.9  4092002.9 -0.3  2 0 1520 1829  850
[20]  41(B05) 1f 38 24  0  -1090.9  4092002.8 -0.4  2 0 1236 1566  611
[21]  44(B08)  7 37  9  0  -2850.9  4092007.3  0.4  2 0  726 1102  644
[22]  55(B19)  1  7  7  0  -1952.6  4092005.3 -0.1  1 0  203  507  323
[32]  76(N-5)  1 26 19  0  -4081.5  1022003.4  0.1  1 0   338  833  637
[33]  77(N-4)  1 25 18  0   -835.0  1022001.1  0.3  1 0  1230 2576 1290
[34]  80(N-1)  1 25 14  0   2750.0  1022001.5  0.0  1 0   433 1622 1964
[35]  81(N00)  1  7 14  0     -0.0  1022002.5 -0.1  1 0   590 2311 2734
[36]  82(N01)  1 22  7  0  -1500.0  1022002.9  0.0  1 0    30 1232 2495
[37]  83(N02)  1  7  7  0  -3250.0  1022003.0 -0.0  1 0   652  551  302
[38]  84(N03)  1 21  7  0  -4505.2  1022004.6 -0.0  1 0   317 1597 2731
[40]  85(N04)  1  7  7  0  -5690.2  1022002.6  0.0  1 0   171 1940 3888
[49]  38(B02)  1 10 10  0   -804.8 20460023.6  0.1  1 0  362  120   30
[50]  39(B03)  1 22 19  0  -1071.5 20460018.4  0.2  1 0  339  447  506
[51]  40(B04)  1 20 20  1  -1729.0 20460020.9  0.0  1 0  345  293   66
[52]  41(B05)  1 23 10  1   -948.2 20460023.4 -0.0  1 0  217  669  660
---00000007--- Acq_st=7 0  2019-4-24 3:23:2 
[01]  13(G14)  f 38  7  0   2571.3  2045996.6 -0.1  2 0 1053 1591  806
[16]  37(B01)  7 18 10  0  -2547.2  4092006.7 -0.1  2 0  409  145  202
[17]  38(B02) 1f 40 19  0  -1086.6  4092002.8 -0.2  2 0  924 1221  704
[18]  39(B03) 1f 43 32  0  -1117.5  4092002.9 -0.2  2 0 1262 2181 1069
[19]  40(B04) 1f 39 10  0  -1106.6  4092002.8 -0.2  2 0 1046 1256  250
[20]  41(B05) 1f 39 26  0  -1088.7  4092002.8  0.1  2 0  897 1258  660
[21]  44(B08)  7 37  7  0  -2844.5  4092007.3  0.5  2 0 1081 1352  181
[22]  55(B19)  1  7  7  0  -1891.5  4092005.5  0.0  1 0   86  225  228
[32]  76(N-5)  7 23  7  0  -4080.8  1022002.5  0.7 10 0   564  683  210
[33]  77(N-4)  7 19  7  0   -831.1  1022000.5  1.0 10 0  1506 2431 1077
[34]  80(N-1)  1 26 16  0   2705.2  1021998.0  1.0  1 0  1536 1487  504
[35]  81(N00)  1 33 15  0    108.6  1021999.8  1.0  1 0  2244 2700 1189
[36]  82(N01)  1 24 16  0  -1533.7  1022001.0  1.0  1 0  1289 2167 1004
[37]  83(N02)  1 29 14  0  -3185.6  1022002.6  0.4  1 0   847  721  453
[38]  84(N03)  1 33 23  0  -4479.4  1022003.1  1.0  1 0  1961 2919 1293
[40]  85(N04)  1 24 20  0   -936.4  1022000.9  1.0  1 0  2032 3792 1871
[49]  38(B02)  1 10 36  1   -562.3 20460025.9  0.1  1 0  556  762  411
[50]  39(B03)  1 10 10  0  -1343.2 20460019.6 -0.2  1 0  526  227  416
[51]  40(B04)  1 21 21  1  -2298.8 20460021.0 -0.0  1 0  527  273  363
[52]  41(B05)  1 25 23  1   -685.3 20460020.8  0.2  1 0  544  266  257
Refix G07: 0,      0.000000, 0
Refix G08: 0,      0.000000, 0
Refix G09: 0,      0.000000, 0
Refix G14: 0,      0.000000, 0
Refix G16: 0,      0.000000, 0
Refix G23: 0,      0.000000, 0
Refix G26: 0,      0.000000, 0
Refix G27: 0,      0.000000, 0
Refix G31: 0,      0.000000, 0
$GNGGA,032303.000,,,,,0,00,,,M,,,,0000*2A
$GNRMC,032303.000,A,,,,,,,090180,,*27
$GPGSA,A,1,,,,,,,,,,,,,,,*1E
$BDGSA,A,1,,,,,,,,,,,,,,,*0F
$GLGSA,A,1,,,,,,,,,,,,,,,*02
$GPGSV,1,1,01,14,00,000,38*46
$BDGSV,2,1,06,01,00,000,18,02,00,000,40,03,00,000,43,04,00,000,39*69
$BDGSV,2,2,06,05,00,000,39,08,00,000,37*6D
$B3CN0,0,0,0,0,0,0,0,0,0,0,0,0,0,0*4C
ch2 satid=6 freq=-3750 acq ok!
ch3 satid=7 freq=-4250 acq ok!
ch4 satid=8 freq=-4000 acq ok!
---00000008--- Acq_st=3 0  2019-4-24 3:23:3 
[00]  03(G04)  1  7  7  0  -4124.0  2046006.1 -0.0  1 0   93   14  397
[01]  13(G14)  f 37  7  0   2564.3  2045996.6 -0.2  2 0  536 1005 1061
[02]  06(G07)  1  7  7  0  -3750.0  2046006.1 -0.0  1 0  210  355 1223
[03]  07(G08)  1  7  7  0  -4250.0  2046007.7  0.0  1 0  580  746 2666
[04]  08(G09)  1  7  7  0  -4000.0  2046007.5 -0.1  1 0  243 2266 2837
[16]  37(B01)  7 13 19  0  -2745.0  4092007.2 -0.1  2 0  548  290  250
[17]  38(B02) 1f 39 28  0  -1086.6  4092002.6 -0.0  2 0 1034 1270  209
[18]  39(B03) 1f 43 30  0  -1121.0  4092002.9  0.0  2 0 1317 1889  993
[19]  40(B04) 1f 40 10  0  -1108.4  4092002.8  0.1  2 0 1679 1681 1026
[20]  41(B05) 1f 36 20  0  -1086.8  4092002.7 -0.8  2 0 1086 1432  718
[21]  44(B08) 1f 37  7  0  -2851.6  4092007.3 -0.1  2 0  520  646  557
[32]  76(N-5)  7 35 17  0  -4084.9  1022002.6  0.0  2 0   407  391  286
[33]  77(N-4)  7 47 16  0   -833.7  1022000.5  0.1  2 0  1546 2476 1199
[34]  80(N-1)  7 45 17  0   2701.3  1021998.1  0.0  2 0  1559 1866  729
[35]  81(N00)  7 47 18  0    106.7  1021999.8 -0.0  2 0  2219 3204  898
[36]  82(N01)  7 47 17  0  -1535.9  1022000.9  0.0  2 0  1766 2638 1174
[37]  83(N02)  1 28 16  0  -3197.1  1022002.5  0.0  1 0   464  152  437
[38]  84(N03)  1 33 23  0  -4484.7  1022002.7  1.0  1 0  1611 2987 1890
[40]  85(N04)  1 22 20  0   -941.1  1022000.6  1.0  1 0  2403 3685 1831
[49]  38(B02)  1 20 14  1   -682.7 20460019.8 -0.1  1 0  240   58  240
[50]  39(B03)  1 17 10  0  -1392.8 20460021.0  0.0  1 0  139  580  708
[51]  40(B04)  1 23 10  1  -3002.9 20460025.0 -0.1  1 0  210  256  778
[52]  41(B05)  1 19 22  0   -783.2 20460025.0  0.1  1 0  268  569  322
ch5 satid=15 freq=250 acq ok!
Refix G07: 0,      0.000000, 0
Refix G08: 0,      0.000000, 0
Refix G09: 0,      0.000000, 0
Refix G14: 0,      0.000000, 0
Refix G16: 0,      0.000000, 0
Refix G23: 0,      0.000000, 0
Refix G26: 0,      0.000000, 0
Refix G27: 0,      0.000000, 0
Refix G31: 0,      0.000000, 0
$GNGGA,032304.000,,,,,0,00,,,M,,,,0000*2D
$GNRMC,032304.000,A,,,,,,,090180,,*20
$GPGSA,A,1,,,,,,,,,,,,,,,*1E
$BDGSA,A,1,,,,,,,,,,,,,,,*0F
$GLGSA,A,1,,,,,,,,,,,,,,,*02
$GPGSV,3,1,09,14,06,149,37,07,08,300,00,08,35,188,00,09,27,315,00*71
$GPGSV,3,2,09,16,62,007,00,23,58,291,00,26,38,040,00,27,61,150,00*7E
$GPGSV,3,3,09,31,21,095,00*4D
$BDGSV,3,1,12,02,45,218,39,03,54,172,43,04,23,109,40,05,26,244,36*65
$BDGSV,3,2,12,08,00,000,37,01,40,125,00,06,41,170,00,07,65,007,00*63
$BDGSV,3,3,12,09,66,202,00,10,62,303,00,16,48,178,00,19,21,294,00*66
$B3CN0,0,0,0,0,0,0,0,0,0,0,0,0,0,0*4C
ch8 satid=22 freq=-2500 acq ok!
ch9 satid=25 freq=1250 acq ok!
ch10 satid=26 freq=-2750 acq ok!
---00000009--- Acq_st=3 0  2019-4-24 3:23:4 
[00]  03(G04)  1  7 11  0  -4120.8  2046007.8 -0.1  1 0  285  810 1655
[01]  13(G14)  f 39  7  0   2579.6  2045996.5  0.1  2 0 1370 1581  252
[02]  06(G07)  1 30  7  0  -3668.3  2046005.9  0.7  1 0 1312 2292 1341
[03]  07(G08)  1 29  7  0  -4405.0  2046005.8  0.7  1 0 2172 2826 1154
[04]  08(G09)  1 29  8  0  -3911.5  2046005.0  0.8  1 0 2037 2266  860
[05]  15(G16)  1 20  7  0    356.0  2045999.6  0.3  1 0 2333 3480 1889
[06]  21(G22)  1  7  7  0   1000.0  2046000.7  0.1  1 0  191 1475 1053
[08]  22(G23)  1  7  7  0  -2500.0  2046006.0 -0.0  1 0 1032 1090 3616
[09]  25(G26)  1  7  7  0   1250.0  2045999.4  0.0  1 0 1399 3368 1668
[10]  26(G27)  1  7  7  0  -2750.0  2046004.9 -0.1  1 0  211  218 1680
[16]  37(B01)  7 10 32  1  -3007.3  4092007.9  0.0  2 0  307  442  834
[17]  38(B02) 1f 39 23  0  -1079.8  4092002.6 -0.0  2 0 1069  668  455
[18]  39(B03) 1f 43 30  0  -1114.3  4092002.9  0.3  2 0  959 2100 1521
[19]  40(B04) 1f 41 25  0  -1104.3  4092002.7 -0.5  2 0 1188 1502  814
[20]  41(B05) 1f 40 26  0  -1083.0  4092002.8  0.1  2 0  710 1028  580
[21]  44(B08) 1f 37  7  0  -2847.1  4092007.3  0.2  2 0 1329 1398  652
[32]  76(N-5)  7 36 17  0  -4076.8  1022002.6 -0.1  2 0   198  148  274
[33]  77(N-4)  7 47 16  0   -826.2  1022000.5  0.1  2 0  1524 2701 1596
[34]  80(N-1)  7 45 18  0   2710.5  1021998.2  0.1  2 0  1209 1937  834
[35]  81(N00)  7 48 17  0    113.6  1021999.8  0.1  2 0  2068 2946 1539
[36]  82(N01)  7 46 16  0  -1528.3  1022000.9  0.0  2 0  1373 2582 1203
[37]  83(N02)  7 32 18  0  -3173.7  1022002.1 -0.0  5 0   404  435  449
[38]  84(N03)  7 48 23  0  -4473.9  1022002.8  0.1  2 0  1582 2913 1482
[40]  85(N04)  7 39 19  0   -930.0  1022000.6  0.1  2 0  2025 4063 2211
[53]  44(B08)  1  7  7  0  -2283.2 20460044.8  0.1  1 0  920  900  331
ch11 satid=30 freq=750 acq ok!
ch22 satid=42 freq=0 acq ok!
ch24 satid=43 freq=-750 acq ok!
ch25 satid=45 freq=-250 acq ok!
Refix G07: 0,      0.000000, 0
Refix G08: 0,      0.000000, 0
Refix G09: 0,      0.000000, 0
Refix G14: 0,      0.000000, 0
Refix G16: 0,      0.000000, 0
Refix G23: 0,      0.000000, 0
Refix G26: 0,      0.000000, 0
Refix G27: 0,      0.000000, 0
Refix G31: 0,      0.000000, 0
$GNGGA,032305.000,,,,,0,00,,,M,,,,0000*2C
$GNRMC,032305.000,A,,,,,,,090180,,*21
$GPGSA,A,1,,,,,,,,,,,,,,,*1E
$BDGSA,A,1,,,,,,,,,,,,,,,*0F
$GLGSA,A,1,,,,,,,,,,,,,,,*02
$GPGSV,3,1,09,14,06,149,39,07,08,300,00,08,35,188,00,09,27,315,00*7F
$GPGSV,3,2,09,16,62,007,00,23,58,291,00,26,38,040,00,27,61,150,00*7E
$GPGSV,3,3,09,31,21,095,00*4D
$BDGSV,3,1,12,02,45,218,39,03,54,172,43,04,23,109,41,05,26,244,39*6B
$BDGSV,3,2,12,08,00,000,37,01,40,125,00,06,41,170,00,07,65,007,00*63
$BDGSV,3,3,12,09,66,202,00,10,62,303,00,16,48,178,00,19,21,294,00*66
$B3CN0,0,0,0,0,0,0,0,0,0,0,0,0,0,0*4C
ch26 satid=46 freq=-1000 acq ok!
---00000010--- Acq_st=3 0  2019-4-24 3:23:5 
[00]  03(G04)  1  7 10  0  -3914.3  2046006.6  0.1  1 0  684  864  361
[01]  13(G14)  f 38  7  0   2571.9  2045996.6 -0.1  2 0  942 1474  817
[02]  06(G07)  7 35  7  0  -3673.1  2046004.7  0.1  5 0 1063 1592  852
[03]  07(G08)  7 34  7  0  -4399.4  2046005.6  0.2  5 0 1774 2569 1249
[04]  08(G09)  7 33  7  0  -3907.3  2046005.0  0.4  5 0 2481 3142 1683
[05]  15(G16)  7 24  7  0    361.3  2045999.4  0.7 10 0 2367 3683 1856
[06]  21(G22)  1 28  7  0   1087.7  2045998.5  0.5  1 0  977  893  747
[08]  22(G23)  1 30  7  0  -2360.1  2046003.0  0.7  1 0 2658 3263 1607
[09]  25(G26)  1 27  8  0   1283.5  2045998.1  0.6  1 0 2253 2927 1357
[10]  26(G27)  1 25  7  0  -2821.0  2046004.8  0.5  1 0 2762 4336 2719
[11]  30(G31)  1 20  7  0    976.8  2045999.1  0.3  1 0 1630 2021  514
[16]  37(B01)  7 20 34  1  -3000.3  4092007.9  0.1  2 0  132  469  101
[17]  38(B02) 1f 39 25  0  -1080.7  4092002.8  0.4  2 0 1046  796   73
[18]  39(B03) 1f 43 30  0  -1113.7  4092002.8  0.2  2 0 1226 1945 1022
[19]  40(B04) 1f 41 36  0  -1105.1  4092002.8  0.5  2 0  948 1499  872
[20]  41(B05) 1f 38 16  0  -1082.4  4092002.8  0.6  2 0  934 1177  256
[21]  44(B08) 1f 37  7  0  -2841.1  4092007.3  0.3  2 0  671  872  529
[22]  42(B06)  1 16  7  0    179.5  4092000.0 -0.0  1 0  900 1896 1108
[24]  43(B07)  1 11  7  0   -852.9  4092004.5  0.0  1 0  230  391 1817
[25]  45(B09)  1  7  7  0   -250.0  4092002.0  0.0  1 0  656 2406 1799
[26]  46(B10)  1  7  7  0  -1000.0  4092002.1 -0.0  1 0  186  388   94
[32]  76(N-5)  7 36 17  0  -4077.1  1022002.5 -0.1  2 0   453  776  492
[33]  77(N-4)  7 47 17  0   -824.1  1022000.5 -0.0  2 0  1225 2129 1012
[34]  80(N-1)  7 45 16  0   2710.5  1021998.2 -0.0  2 0  1680 2352 1129
[35]  81(N00)  7 48 17  0    112.9  1021999.9  0.1  2 0  1656 2837 1449
[36]  82(N01)  7 46 15  0  -1527.5  1022000.9 -0.1  2 0  1633 2421 1130
[37]  83(N02)  7 32 17  0  -3174.0  1022001.8  0.1  5 0   293  503  143
[38]  84(N03)  7 47 23  0  -4473.9  1022002.9  0.1  2 0  1465 2792 1525
[40]  85(N04)  7 49 18  0   -929.1  1022000.6 -0.0  2 0  2163 3962 1958
[49]  38(B02)  1 36 10  0  -1277.9 20460016.0  0.0  1 0  311  341  324
[50]  39(B03)  1 10 10  0  -1208.4 20460015.5 -0.0  1 0  660  436  305
[51]  40(B04)  1 14 19  1   -777.7 20460021.5 -0.1  1 0  319  473  726
[52]  41(B05)  1 25 23  0   -367.2 20460018.0  0.0  1 0  209  524  768
[53]  44(B08)  1  7  7  0  -1998.4 20460044.2  0.1  1 0   16  413  161
ch27 satid=52 freq=0 acq ok!
Refix G07: 0,      0.000000, 0
Refix G08: 0,      0.000000, 0
Refix G09: 0,      0.000000, 0
Refix G14: 0,      0.000000, 0
Refix G16: 0,      0.000000, 0
Refix G23: 0,      0.000000, 0
Refix G26: 0,      0.000000, 0
Refix G27: 0,      0.000000, 0
Refix G31: 0,      0.000000, 0
$GNGGA,032306.000,,,,,0,00,,,M,,,,0000*2F
$GNRMC,032306.000,A,,,,,,,090180,,*22
$GPGSA,A,1,,,,,,,,,,,,,,,*1E
$BDGSA,A,1,,,,,,,,,,,,,,,*0F
$GLGSA,A,1,,,,,,,,,,,,,,,*02
$GPGSV,3,1,09,14,06,149,38,07,08,300,35,08,35,188,34,09,27,315,33*7F
$GPGSV,3,2,09,16,62,007,24,23,58,291,00,26,38,040,00,27,61,150,00*78
$GPGSV,3,3,09,31,21,095,00*4D
$BDGSV,3,1,12,01,40,125,20,02,45,218,39,03,54,172,43,04,23,109,41*63
$BDGSV,3,2,12,05,26,244,38,08,00,000,37,06,41,170,00,07,65,007,00*68
$BDGSV,3,3,12,09,66,202,00,10,62,303,00,16,48,178,00,19,21,294,00*66
$B3CN0,0,0,0,0,0,0,0,0,0,0,0,0,0,0*4C
---00000011--- Acq_st=3 0  2019-4-24 3:23:6 
[00]  03(G04)  1  7  7  0  -3941.3  2046005.6 -0.1  1 0  614  448  556
[01]  13(G14)  f 38  7  0   2575.6  2045996.6  0.0  2 0 1073 1270  425
[02]  06(G07)  7 41  7  0  -3663.8  2046004.7  0.1  2 0 1369 1877  542
[03]  07(G08)  7 42  7  0  -4396.1  2046005.6  0.0  2 0 1617 2281 1373
[04]  08(G09)  7 44  7  0  -3905.8  2046005.0 -0.1  2 0 1693 3186 1765
[05]  15(G16)  7 44  7  0    363.1  2045999.5 -0.0  2 0 2519 3046 1004
[06]  21(G22)  7 32  7  0   1085.0  2045998.5 -0.2  5 0 1074 1468  627
[08]  22(G23)  7 33  7  0  -2359.2  2046002.9  0.3  5 0 2782 3026 1081
[09]  25(G26)  7 29  7  0   1285.9  2045998.3  0.5  5 0 1640 2778 1436
[10]  26(G27)  7 29  7  0  -2816.1  2046003.5  0.5 10 0 2132 2639 1429
[11]  30(G31)  7 23  7  0    982.5  2045998.6  0.8 10 0 2450 2645  524
[16]  37(B01)  7 20 33  1  -3011.4  4092007.9  0.0  2 0  260  610  586
[17]  38(B02) 1f 39 24  0  -1083.4  4092002.8 -0.2  2 0 1071 1442  272
[18]  39(B03) 1f 45 29  0  -1115.1  4092002.8 -0.0  2 0 1767 2233 1147
[19]  40(B04) 1f 40 10  0  -1101.8  4092002.8 -0.4  2 0 1162 1525  643
[20]  41(B05) 1f 39 23  0  -1078.7  4092002.8 -0.4  2 0  453 1074 1150
[21]  44(B08) 1f 37  7  0  -2846.8  4092007.3  0.1  2 0 1053 1434 1051
[22]  42(B06)  7  7  7  0    182.8  4091999.4  0.3 10 0 1226 1681  987
[24]  43(B07)  1  7  7  0   -852.1  4092002.3 -0.1  1 0 2051 2385  463
[25]  45(B09)  1  7  7  0   -303.9  4092000.7 -0.1  1 0 1458 2524 1572
[26]  46(B10)  1  7  7  0   -962.3  4092002.0 -0.1  1 0  330  365  477
[27]  52(B16)  1  7  7  0     -0.0  4092000.4  0.2  1 0 1557 2883 1671
[32]  76(N-5)  f 30  7  0  -4074.2  1022002.6  0.1  5 0   335  458  229
[33]  77(N-4)  f 32  7  0   -824.8  1022000.5  0.0  5 0  1193 2158 1114
[34]  80(N-1)  f 32  7  0   2709.2  1021998.2  0.0  5 0  1208 2002 1197
[35]  81(N00)  f 32 10  0    112.6  1021999.9  0.0  5 0  2052 3064 1374
[36]  82(N01)  f 32  7  0  -1529.4  1022000.9  0.1  5 0  1795 2626 1130
[37]  83(N02)  7 32 17  0  -3173.2  1022002.0  0.1  5 0   345  565  431
[38]  84(N03)  7 48 21  0  -4471.8  1022002.8 -0.1  2 0  2033 3256 1882
[40]  85(N04)  7 48 16  0   -927.8  1022000.6 -0.1  2 0  2311 3909 1545
[49]  38(B02)  1 22 18  1  -1471.1 20460020.2 -0.0  1 0  197  457  601
[50]  39(B03)  1 23 21  0  -1260.0 20460020.3 -0.2  1 0  469  728  672
[51]  40(B04)  1 19 22  0  -1011.7 20460011.3 -0.0  1 0  781  672   74
[52]  41(B05)  1 20 25  1   -430.5 20460019.2  0.0  1 0  276  165  603
[53]  44(B08)  1  7  8  0  -1599.5 20460046.0 -0.0  1 0  273  285  371
Refix G07: 0,      0.000000, 0
Refix G08: 0,      0.000000, 0
Refix G09: 0,      0.000000, 0
Refix G14: 0,      0.000000, 0
Refix G16: 0,      0.000000, 0
Refix G23: 0,      0.000000, 0
Refix G26: 0,      0.000000, 0
Refix G27: 0,      0.000000, 0
Refix G31: 0,      0.000000, 0
$GNGGA,032307.000,,,,,0,00,,,M,,,,0000*2E
$GNRMC,032307.000,A,,,,,,,090180,,*23
$GPGSA,A,1,,,,,,,,,,,,,,,*1E
$BDGSA,A,1,,,,,,,,,,,,,,,*0F
$GLGSA,A,1,,,,,,,,,,,,,,,*02
$GPGSV,3,1,10,14,06,149,38,07,08,300,41,08,35,188,42,09,27,315,44*75
$GPGSV,3,2,10,16,62,007,44,22,00,000,32,23,58,291,33,26,38,040,29*7A
$GPGSV,3,3,10,27,61,150,29,31,21,095,22*78
$BDGSV,3,1,12,01,40,125,20,02,45,218,39,03,54,172,45,04,23,109,40*64
$BDGSV,3,2,12,05,26,244,39,08,00,000,37,06,41,170,00,07,65,007,00*69
$BDGSV,3,3,12,09,66,202,00,10,62,303,00,16,48,178,00,19,21,294,00*66
$B3CN0,0,0,0,0,0,0,0,0,0,0,0,0,0,0*4C
---00000012--- Acq_st=3 0  2019-4-24 3:23:7 
[01]  13(G14)  f 38  7  0   2568.8  2045996.7  0.1  2 0  864 1661  767
[02]  06(G07)  f 41  7  0  -3673.3  2046004.7 -0.0  2 0 1693 1733  916
[03]  07(G08)  f 43  7  0  -4403.5  2046005.7  0.1  2 0 1387 2638 1713
[04]  08(G09)  f 44 10  0  -3908.2  2046005.0  0.0  2 0 1941 3314 1429
[05]  15(G16)  f 44  7  0    357.4  2045999.5  0.0  2 0 2368 3218 1544
[06]  21(G22)  f 36  7  0   1073.1  2045998.4 -0.1  2 0  386 1318  498
[08]  22(G23)  f 45  7  0  -2362.4  2046003.0  0.0  2 0 2629 3461 1499
[09]  25(G26)  f 43  7  0   1282.1  2045998.3  0.0  2 0 1777 2621 1465
[10]  26(G27)  f 44  7  0  -2820.1  2046003.5  0.0  2 0 2433 3350 1436
[11]  30(G31)  7 42 13  0    976.5  2045998.6  0.0  2 0 1855 2115  962
[16]  37(B01)  7 36 32  1  -3000.1  4092007.9  0.2  2 0  144  392  325
[17]  38(B02) 1f 40 21  0  -1090.0  4092002.7  0.1  2 0 1600 1477  393
[18]  39(B03) 1f 43 31  0  -1120.8  4092002.9  0.4  2 0 1107 1974  924
[19]  40(B04) 1f 41 22  0  -1109.0  4092002.9  0.1  2 0 1051  879  217
[20]  41(B05) 1f 38 24  0  -1092.0  4092002.8 -0.7  2 0 1053 1172  823
[21]  44(B08) 1f 37  7  0  -2851.2  4092007.4  0.4  2 0  723 1126  550
[22]  42(B06)  7 41  7  0    177.2  4091999.5 -0.2  2 0 1329 1687  766
[24]  43(B07)  7 39  7  0   -857.4  4092002.1  0.0  2 0 1557 2425 1232
[25]  45(B09)  7 36  7  0   -303.9  4092000.7 -0.0  2 0 1377 2239  982
[26]  46(B10)  1  7  7  0   -707.3  4092002.2 -0.1  1 0  136  118  141
[27]  52(B16)  1  7  7  0    190.8  4091999.1  0.4  1 0 1486 1830  978
[28]  59(B23)  1  7  7  0    599.6  4091998.9 -0.0  1 0 1191 1510  553
[32]  76(N-5)  f 36  7  0  -4078.4  1022002.5  0.0  2 0   456  753  387
[33]  77(N-4)  f 46  7  0   -829.0  1022000.5 -0.1  2 0  1476 2671 1255
[34]  80(N-1)  f 44  7  0   2704.5  1021998.2  0.0  2 0  1184 2148  993
[35]  81(N00)  f 46  7  0    108.3  1021999.9 -0.1  2 0  1817 3084 1523
[36]  82(N01)  f 45  7  0  -1535.1  1022001.0  0.0  2 0  1204 2118 1317
[37]  83(N02)  7 33 16  0  -3180.5  1022001.9 -0.0  5 0   663  352  166
[38]  84(N03)  7 47 23  0  -4478.2  1022002.8  0.1  2 0  1805 2934 1392
[40]  85(N04)  7 49 18  0   -932.9  1022000.6  0.1  2 0  2223 4032 2106
[49]  38(B02)  1 10 17  0  -1495.6 20460018.5  0.0  1 0  652  652  198
[50]  39(B03)  1 22 20  1  -1680.5 20460023.1 -0.1  1 0  386  139  209
[51]  40(B04)  1 24 24  0  -1074.9 20460019.9  0.1  1 0   44  257  284
[52]  41(B05)  1 14 24  0   -648.9 20460021.2  0.1  1 0  479  782  825
[53]  44(B08)  1  7  7  0  -1996.0 20460045.8  0.1  1 0  606   85  698
ch29 satid=63 freq=-4000 acq ok!
ch30 satid=64 freq=-1500 acq ok!
Refix G07: 2, 271405.915765, -3671
Refix G08: 2, 271405.925665, -4400
Refix G09: 2, 271405.923661, -3907
Refix G14: 2, 271405.917068, 2575
Refix G16: 2, 271405.931492, 362
Refix G23: 2, 271405.929942, -2358
Refix G26: 2, 271405.926323, 1286
Refix G27: 2, 271405.931127, -2815
Refix G31: 2, 271405.920626, 981
$GNGGA,032308.000,2944.9060,N,10633.0863,E,1,12,0.8,349.4,M,,,,0000*14
$GNRMC,032308.000,A,2944.9060,N,10633.0863,E,0.19,0.00,090180,,*11
$GPGSA,A,3,07,08,09,14,16,23,26,27,,,,,1.4,0.8,1.1*3B
$BDGSA,A,3,02,03,04,05,,,,,,,,,1.4,0.8,1.1*2E
$GLGSA,A,3,,,,,,,,,,,,,1.4,0.8,1.1*23
$GPGSV,3,1,10,14,06,149,38,07,08,300,41,08,35,188,43,09,27,315,44*74
$GPGSV,3,2,10,16,62,007,44,22,00,000,36,23,58,291,45,26,38,040,43*73
$GPGSV,3,3,10,27,61,150,44,31,21,095,42*75
$BDGSV,3,1,12,02,45,218,40,03,54,172,43,04,23,109,41,05,26,244,38*64
$BDGSV,3,2,12,08,00,000,37,06,41,170,41,07,65,007,39,09,66,202,36*63
$BDGSV,3,3,12,01,40,125,00,10,62,303,00,16,48,178,00,19,21,294,00*6C
$B3CN0,0,0,0,0,0,0,0,0,0,0,0,0,0,0*4C
---00000013--- Acq_st=3 0  2000-1-9 3:23:8 
[01]  13(G14)  f 37  7  0   2561.4  2045996.6 -0.3  2 0 1168 1516  770
[02]  06(G07)  f 41  7  0  -3673.4  2046004.7  0.1  2 0  856 1254  553
[03]  07(G08)  f 43  7  0  -4408.5  2046005.6 -0.0  2 0 1805 2510 1174
[04]  08(G09)  f 44  7  0  -3912.5  2046005.0 -0.0  2 0 2671 3275 1578
[05]  15(G16)  f 44  7  0    354.8  2045999.5  0.0  2 0 1997 3226 1248
[06]  21(G22)  f 36  8  0   1076.8  2045998.5 -0.0  2 0 1062 1496  521
[08]  22(G23)  f 45 12  0  -2365.1  2046003.0 -0.0  2 0 2436 3472 2000
[09]  25(G26)  f 43  7  0   1280.5  2045998.3 -0.0  2 0 1599 2850 1291
[10]  26(G27)  f 44  7  0  -2821.6  2046003.6 -0.0  2 0 2333 2956  968
[11]  30(G31)  7 42 13  0    975.3  2045998.6 -0.1  2 0 1627 2164 1070
[16]  37(B01)  7 10 36  1  -2999.5  4092007.8  0.1  2 0  551  437  502
[17]  38(B02) 1f 39 24  0  -1093.9  4092002.9  0.5  2 0 1247 1663 1060
[18]  39(B03) 1f 42 30  0  -1124.0  4092002.8  0.3  2 0 1390 1570  721
[19]  40(B04) 1f 40 17  0  -1111.3  4092002.8  0.0  2 0 1056 1038  430
[20]  41(B05) 1f 37 20  0  -1092.5  4092002.8  0.7  2 0  551 1161  725
[21]  44(B08) 1f 37  7  0  -2849.1  4092007.3 -0.2  2 0  283 1015  428
[22]  42(B06)  7 40  7  0    176.7  4091999.4 -0.1  2 0 1202 1575 1033
[24]  43(B07)  7 43  7  0   -858.4  4092002.1  0.0  2 0 1697 2412 1134
[25]  45(B09)  7 43  7  0   -309.1  4092000.7  0.0  2 0 1529 2468 1159
[26]  46(B10)  1  7  7  0   -320.7  4092002.0  0.1  1 0  373  349  301
[27]  52(B16)  7 37  7  0    194.3  4091999.4  0.1  2 0 1662 2477 1176
[28]  59(B23)  1  7  9  0    612.3  4091998.1  0.0  1 0 1000 1528  458
[29]  63(B27)  1  7  7  0  -3855.3  4092010.2  0.1  1 0 2104 2955 1220
[30]  64(B28)  1  7  7  0  -1384.0  4092003.9  0.3  1 0 1759 3460 1848
[32]  76(N-5)  f 36  8  0  -4084.8  1022002.6 -0.0  2 0   371  389  325
[33]  77(N-4)  f 45  7  0   -830.7  1022000.5  0.1  2 0  1554 2414 1201
[34]  80(N-1)  f 44  8  0   2702.0  1021998.2 -0.0  2 0  1179 1782  425
[35]  81(N00)  f 45  7  0    105.1  1021999.9 -0.0  2 0  1931 3624 1644
[36]  82(N01)  f 45  7  0  -1537.8  1022001.0 -0.0  2 0  1271 2354 1234
[37]  83(N02)  f 28  7  0  -3183.4  1022002.0 -0.0 10 0   124  491  312
[38]  84(N03)  f 32 17  0  -4482.5  1022002.8 -0.1  5 0  1720 3214 1729
[40]  85(N04)  f 32  9  0   -936.5  1022000.6 -0.1  5 0  2439 4253 1814
[49]  38(B02)  1 10 36  1  -1045.7 20460023.9  0.0  1 0  480  256  270
[50]  39(B03)  1 16 23  0  -1491.8 20460021.7 -0.0  1 0  709  326  875
[51]  40(B04)  1 10 22  0  -1004.4 20460023.7  0.0  1 0  462  312  330
[52]  41(B05)  1 25 18  0   -944.7 20460023.3 -0.0  1 0  261  623  249
Refix G07: 2, 271406.915768, -3672
Refix G08: 2, 271406.925668, -4403
Refix G09: 2, 271406.923664, -3908
Refix G14: 2, 271406.917066, 2572
Refix G16: 2, 271406.931491, 360
Refix G23: 2, 271406.929944, -2359
Refix G26: 2, 271406.926322, 1284
Refix G27: 2, 271406.931128, -2817
Refix G31: 2, 271406.920625, 978
$GNGGA,032309.000,2944.9039,N,10633.0877,E,1,12,0.8,343.2,M,,,,0000*10
$GNRMC,032309.000,A,2944.9039,N,10633.0877,E,0.21,0.00,090180,,*12
$GPGSA,A,3,07,08,09,14,16,23,26,27,,,,,1.1,0.8,0.7*39
$BDGSA,A,3,02,03,04,05,,,,,,,,,1.1,0.8,0.7*2C
$GLGSA,A,3,,,,,,,,,,,,,1.1,0.8,0.7*21
$GPGSV,3,1,10,14,06,149,37,07,08,300,41,08,35,188,43,09,27,315,44*7B
$GPGSV,3,2,10,16,62,007,44,22,00,000,36,23,58,291,45,26,38,040,43*73
$GPGSV,3,3,10,27,61,150,44,31,21,095,42*75
$BDGSV,3,1,12,02,45,218,39,03,54,172,42,04,23,109,40,05,26,244,37*65
$BDGSV,3,2,12,08,00,000,37,06,41,170,40,07,65,007,43,09,66,202,43*6D
$BDGSV,3,3,12,16,48,178,37,01,40,125,00,10,62,303,00,19,21,294,00*68
$B3CN0,0,0,0,0,0,0,0,0,0,0,0,0,0,0*4C
---00000014--- Acq_st=7 0  2000-1-9 3:23:9 
[01]  13(G14)  f 37  7  0   2569.9  2045996.6  0.1  2 0  780 1218  622
[02]  06(G07)  f 41  7  0  -3671.3  2046004.7 -0.0  2 0 1682 2387 1178
[03]  07(G08)  f 42  7  0  -4403.5  2046005.6  0.0  2 0 1849 2385 1191
[04]  08(G09)  f 44  7  0  -3909.3  2046005.0 -0.0  2 0 2422 3204 1125
[05]  15(G16)  f 44  7  0    355.6  2045999.5  0.0  2 0 2148 3210 1071
[06]  21(G22)  f 37  7  0   1077.5  2045998.5  0.4  2 0  625  753  276
[08]  22(G23)  f 44  7  0  -2359.8  2046003.0 -0.0  2 0 2620 3723 1597
[09]  25(G26)  f 43  7  0   1279.5  2045998.3  0.0  2 0 1826 2861 1443
[10]  26(G27)  f 44  7  0  -2819.3  2046003.6  0.0  2 0 2429 4086 1632
[11]  30(G31)  7 42 11  0    978.4  2045998.6 -0.0  2 0 1668 2088  874
[16]  37(B01)  7 18 35  1  -3008.2  4092007.8 -0.0  2 0  201  371  384
[17]  38(B02) 1f 40 20  0  -1086.5  4092002.7 -0.5  2 0 1187 1260  314
[18]  39(B03) 1f 42 31  0  -1119.0  4092002.8  0.2  2 0 1410 1901  719
[19]  40(B04) 1f 39 25  0  -1105.3  4092002.7 -0.0  2 0 1276 1428  208
[20]  41(B05) 1f 39 25  0  -1089.4  4092002.7 -0.2  2 0  990 1180  783
[21]  44(B08) 1f 38  7  0  -2852.0  4092007.4  0.1  2 0  458  899  439
[22]  42(B06) 1f 40  7  0    179.7  4091999.4  0.1  2 0 1312 1494  546
[24]  43(B07) 1f 43  7  0   -856.5  4092002.1  0.0  2 0 1840 2408  959
[25]  45(B09) 1f 43  7  0   -305.1  4092000.7 -0.1  2 0 1782 2290 1347
[26]  46(B10)  1  7  7  0   -400.2  4092002.1 -0.0  1 0  317  454  286
[27]  52(B16) 1f 43  7  0    194.2  4091999.4  0.0  2 0 1536 2216  707
[28]  59(B23)  7 36  7  0    621.2  4091998.2  0.0  2 0  990 1485  584
[29]  63(B27)  7 25  7  0  -3850.9  4092010.0  0.3 10 0 1898 3095 1345
[30]  64(B28)  7 24  7  0  -1376.8  4092003.6  0.4 10 0 2065 3381 1702
[32]  76(N-5)  f 36  7  0  -4079.3  1022002.5 -0.0  2 0   536  706  268
[33]  77(N-4)  f 45  7  0   -826.7  1022000.5 -0.0  2 0  1530 2711 1549
[34]  80(N-1)  f 44  7  0   2707.0  1021998.2  0.0  2 0  1572 2174  808
[35]  81(N00)  f 45  7  0    108.0  1021999.9  0.0  2 0  1577 3316 1460
[36]  82(N01)  f 45  7  0  -1533.6  1022000.9 -0.0  2 0  1628 2420 1133
[37]  83(N02)  f 32  7  0  -3176.9  1022002.0  0.0  5 0   285  871  938
[38]  84(N03)  f 46 18  0  -4476.8  1022002.8  0.1  2 0  1507 2576 1111
[40]  85(N04)  f 47 13  0   -930.9  1022000.6  0.0  2 0  2018 3698 1747
[49]  38(B02)  f 20 10  1  -1305.9 20460019.6 -0.1  2 0  421  364  337
[53]  44(B08)  1  7  7  0  -2596.5 20460045.3  0.0  1 0  485  669  471
Refix G07: 2, 271407.915770, -3676
Refix G08: 2, 271407.925670, -4407
Refix G09: 2, 271407.923666, -3912
Refix G14: 2, 271407.917064, 2570
Refix G16: 2, 271407.931491, 356
Refix G23: 2, 271407.929945, -2364
Refix G26: 2, 271407.926321, 1281
Refix G27: 2, 271407.931130, -2821
Refix G31: 2, 271407.920624, 976
$GNGGA,032310.000,2944.9040,N,10633.0881,E,1,16,0.7,341.2,M,,,,0000*16
$GNRMC,032310.000,A,2944.9040,N,10633.0881,E,0.47,0.00,090180,,*1D
$GPGSA,A,3,07,08,09,14,16,23,26,27,,,,,0.9,0.7,0.5*3D
$BDGSA,A,3,02,03,04,05,06,07,09,16,,,,,0.9,0.7,0.5*27
$GLGSA,A,3,,,,,,,,,,,,,0.9,0.7,0.5*25
$GPGSV,3,1,10,14,06,149,37,07,08,300,41,08,35,188,42,09,27,315,44*7A
$GPGSV,3,2,10,16,62,007,44,22,00,000,37,23,58,291,44,26,38,040,43*73
$GPGSV,3,3,10,27,61,150,44,31,21,095,42*75
$BDGSV,3,1,12,01,40,125,18,02,45,218,40,03,54,172,42,04,23,109,39*68
$BDGSV,3,2,12,05,26,244,39,08,00,000,38,06,41,170,40,07,65,007,43*65
$BDGSV,3,3,12,09,66,202,43,16,48,178,43,23,20,079,36,27,35,158,25*67
$B3CN0,0,19,0,0,0,0,0,0,0,0,0,0,0,0*74
---00000015--- Acq_st=7 0  2000-1-9 3:23:10 
[01]  13(G14)  f 37  7  0   2574.4  2045996.6 -0.0  2 0  773 1297  647
[02]  06(G07)  f 41  7  0  -3675.3  2046004.7 -0.0  2 0 1140 1549  611
[03]  07(G08)  f 42  7  0  -4405.1  2046005.7  0.0  2 0  974 1459  739
[04]  08(G09)  f 44  9  0  -3911.2  2046005.0  0.0  2 0 2413 3399 1448
[05]  15(G16)  f 44  7  0    357.7  2045999.5 -0.1  2 0 2351 3925 1823
[06]  21(G22)  f 37  7  0   1070.0  2045998.5  0.1  2 0  959 1087  450
[08]  22(G23)  f 45  7  0  -2360.0  2046003.0 -0.0  2 0 2028 3824 2554
[09]  25(G26)  f 43  7  0   1285.3  2045998.3  0.0  2 0 1786 2848 1006
[10]  26(G27)  f 44  7  0  -2819.7  2046003.6 -0.0  2 0 2264 3254 1549
[11]  30(G31)  7 42  7  0    978.1  2045998.6  0.1  2 0 1837 2273  825
[16]  37(B01)  7 10 32  1  -2994.8  4092008.0 -0.0  2 0  118  550  381
[17]  38(B02) 1f 39 24  0  -1085.5  4092002.7  0.1  2 0 1237 1599  713
[18]  39(B03) 1f 42 30  0  -1120.8  4092002.9 -0.2  2 0 1455 2153 1224
[19]  40(B04) 1f 41 10  0  -1115.9  4092002.8  0.7  2 0 1377 1650  682
[20]  41(B05) 1f 38 10  0  -1090.3  4092002.7 -0.9  2 0 1251 1305  683
[21]  44(B08) 1f 37  7  0  -2856.7  4092007.4  0.2  2 0 1084  928  562
[22]  42(B06) 1f 40  7  0    177.5  4091999.4 -0.1  2 0 1919 2183 1097
[24]  43(B07) 1f 43  7  0   -855.5  4092002.1 -0.0  2 0 2110 2584 1057
[25]  45(B09) 1f 43  7  0   -308.3  4092000.7  0.1  2 0 2071 2158  845
[27]  52(B16) 1f 42  7  0    193.0  4091999.4 -0.1  2 0 1628 2472 1125
[28]  59(B23)  7 39  8  0    616.1  4091998.3 -0.1  2 0 1127 1744  720
[29]  63(B27)  7 44  8  0  -3850.6  4092010.0  0.0  2 0 1856 2736 1479
[30]  64(B28)  7 45  7  0  -1378.2  4092003.6  0.0  2 0 2202 2872 1078
[32]  76(N-5)  f 36  7  0  -4077.8  1022002.6 -0.1  2 0   318  410  334
[33]  77(N-4)  f 45  7  0   -826.4  1022000.5  0.1  2 0  1602 2655 1190
[34]  80(N-1)  f 44  7  0   2706.1  1021998.2 -0.0  2 0  1026 2336 1085
[35]  81(N00)  f 45  7  0    107.9  1021999.9 -0.0  2 0  1503 2881 1533
[36]  82(N01)  f 45  7  0  -1534.3  1022000.9  0.0  2 0  1409 2589 1282
[37]  83(N02)  f 31  7  0  -3179.2  1022002.0 -0.1  5 0   463  446  236
[38]  84(N03)  f 45 17  0  -4476.8  1022002.8 -0.0  2 0  1942 2973 1313
[40]  85(N04)  f 46 13  0   -930.2  1022000.6 -0.0  2 0  2341 3781 1653
[49]  38(B02)  f 17 16  0  -1472.2 20460022.6 -0.2  2 0  469  463  286
[50]  39(B03)  1 10 18  1  -1387.9 20460018.4  0.0  1 0  291  192  100
[51]  40(B04)  1 19 24  0   -804.1 20460022.2  0.1  1 0  254  593  803
[52]  41(B05)  1 25 24  1  -1038.1 20460015.9  0.0  1 0  588  362  534
[53]  44(B08)  1  7  7  0  -2214.0 20460046.0 -0.1  1 0  165  649  275
[54]  42(B06)  1 12  8  0    269.5 20459998.3  0.1  1 0  669  624  491
[56]  43(B07)  1  7  7  0   -934.6 20460011.6 -0.0  1 0  183   79  307
[57]  45(B09)  1  7  7  0    162.9 20460005.5 -0.1  1 0  495  780  263
[59]  52(B16)  1  7  7  0     54.4 20459996.4  0.0  1 0  407  102   51
Refix G07: 2, 271408.915772, -3675
Refix G08: 2, 271408.925673, -4405
Refix G09: 2, 271408.923669, -3910
Refix G14: 2, 271408.917063, 2570
Refix G16: 2, 271408.931491, 357
Refix G23: 2, 271408.929947, -2361
Refix G26: 2, 271408.926320, 1281
Refix G27: 2, 271408.931132, -2819
Refix G31: 2, 271408.920624, 976
$GNGGA,032311.000,2944.9043,N,10633.0888,E,1,16,0.7,339.2,M,,,,0000*12
$GNRMC,032311.000,A,2944.9043,N,10633.0888,E,0.11,0.00,090180,,*15
$GPGSA,A,3,07,08,09,14,16,23,26,27,,,,,0.9,0.7,0.5*3D
$BDGSA,A,3,02,03,04,05,06,07,09,16,,,,,0.9,0.7,0.5*27
$GLGSA,A,3,,,,,,,,,,,,,0.9,0.7,0.5*25
$GPGSV,3,1,10,14,06,149,37,07,08,300,41,08,35,188,42,09,27,315,44*7A
$GPGSV,3,2,10,16,62,007,44,22,00,000,37,23,58,291,45,26,38,040,43*72
$GPGSV,3,3,10,27,61,150,44,31,21,095,42*75
$BDGSV,3,1,12,02,45,218,39,03,54,172,42,04,23,109,41,05,26,244,38*6B
$BDGSV,3,2,12,08,00,000,37,06,41,170,40,07,65,007,43,09,66,202,43*6D
$BDGSV,3,3,12,16,48,178,42,23,20,079,39,27,35,158,44,28,43,086,45*62
$B3CN0,0,17,0,0,0,0,0,0,0,0,0,0,0,0*7A
---00000016--- Acq_st=7 0  2000-1-9 3:23:11 
[01]  13(G14)  f 37  7  0   2568.4  2045996.6  0.1  2 0  521 1653 1019
[02]  06(G07)  f 41  7  0  -3671.0  2046004.7  0.1  2 0 2068 2568 1227
[03]  07(G08)  f 42  7  0  -4401.9  2046005.7 -0.0  2 0 1582 2447 1199
[04]  08(G09)  f 43  7  0  -3908.3  2046005.0 -0.0  2 0 2429 3877 1904
[05]  15(G16)  f 44  7  0    358.4  2045999.5  0.0  2 0 2509 3549 1686
[06]  21(G22)  f 36  7  0   1069.6  2045998.5 -0.1  2 0  186  408  603
[08]  22(G23)  f 44  7  0  -2359.6  2046003.0  0.0  2 0 2650 3692 1686
[09]  25(G26)  f 43  7  0   1282.2  2045998.3 -0.0  2 0 2174 2816 1375
[10]  26(G27)  f 44  7  0  -2817.5  2046003.6  0.0  2 0 2212 3070 1310
[11]  30(G31)  7 42 11  0    977.4  2045998.7 -0.0  2 0 1882 2815 1443
[16]  37(B01)  7 10 34  1  -3003.2  4092007.8 -0.1  2 0  157  441  735
[17]  38(B02) 1f 41 25  0  -1086.3  4092002.7  0.5  2 0  996 1225  942
[18]  39(B03) 1f 43 29  0  -1120.0  4092002.9 -0.1  2 0 1848 2350 1240
[19]  40(B04) 1f 41 20  0  -1113.3  4092002.7  0.5  2 0 1374 1409  519
[20]  41(B05) 1f 38 25  0  -1088.3  4092002.7  0.9  2 0  918 1163  463
[21]  44(B08) 1f 38  7  0  -2856.1  4092007.4  0.2  2 0  903 1156  440
[22]  42(B06) 1f 40  7  0    178.0  4091999.4  0.1  2 0  899 1458  500
[24]  43(B07) 1f 43  7  0   -857.9  4092002.1 -0.0  2 0 2185 2599  931
[25]  45(B09) 1f 42  7  0   -307.0  4092000.7 -0.0  2 0 2030 2581 1157
[27]  52(B16) 1f 42  7  0    194.2  4091999.4  0.0  2 0 1447 1831  945
[28]  59(B23)  7 39  8  0    618.8  4091998.3  0.1  2 0 1134 1371  733
[29]  63(B27)  7 43  7  0  -3849.7  4092010.0  0.0  2 0 1377 2611 1590
[30]  64(B28)  7 44  7  0  -1375.5  4092003.5 -0.0  2 0 1988 3038 1282
[32]  76(N-5)  f 36  9  0  -4079.8  1022002.6 -0.1  2 0   515  510  145
[33]  77(N-4)  f 46  7  0   -825.4  1022000.5 -0.0  2 0  1404 2675 1120
[34]  80(N-1)  f 44  7  0   2705.0  1021998.2 -0.1  2 0  1281 2386 1102
[35]  81(N00)  f 46  7  0    107.4  1021999.9  0.0  2 0  1712 3188 1115
[36]  82(N01)  f 45  7  0  -1534.9  1022000.9  0.0  2 0  1719 3017 1455
[37]  83(N02)  f 31  7  0  -3179.2  1022001.9 -0.1  5 0   289  378  312
[38]  84(N03)  f 45 17  0  -4476.4  1022002.8 -0.0  2 0  1467 2579 1233
[40]  85(N04)  f 46  9  0   -928.9  1022000.6  0.0  2 0  2303 4320 2167
[49]  38(B02)  f 10 36  1  -1915.9 20460030.6  0.0  2 0  361  299  423
[50]  39(B03)  1 10 13  0   -778.4 20460019.7  0.1  1 0  664  330  825
[51]  40(B04)  1 23 22  1  -1038.9 20460016.8 -0.1  1 0  232  319  584
[52]  41(B05)  1 19 26  1   -985.0 20460024.0 -0.2  1 0  344  326  477
[53]  44(B08)  1  7  7  0  -2193.1 20460046.2  0.1  1 0  167  325   75
[54]  42(B06)  1 12  7  0    -40.6 20459996.2 -0.1  1 0  529  526  621
[56]  43(B07)  1  7  7  0   -356.5 20460007.9 -0.1  1 0  377  130  201
[57]  45(B09)  1  7  7  0    491.3 20460005.7  0.0  1 0  674  504  529
[59]  52(B16)  1  7  7  0      4.6 20459997.5 -0.0  1 0  196  765  525
ch0 satid=3 freq=-4500 acq ok!
Refix G07: 2, 271409.915775, -3674
Refix G08: 2, 271409.925676, -4404
Refix G09: 2, 271409.923671, -3908
Refix G14: 2, 271409.917061, 2571
Refix G16: 2, 271409.931491, 359
Refix G23: 2, 271409.929948, -2359
Refix G26: 2, 271409.926320, 1283
Refix G27: 2, 271409.931134, -2817
Refix G31: 2, 271409.920623, 978
$GNGGA,032312.000,2944.9043,N,10633.0889,E,1,16,0.7,338.4,M,,,,0000*17
$GNRMC,032312.000,A,2944.9043,N,10633.0889,E,0.34,0.00,090180,,*10
$GPGSA,A,3,07,08,09,14,16,23,26,27,,,,,0.9,0.7,0.5*3D
$BDGSA,A,3,02,03,04,05,06,07,09,16,,,,,0.9,0.7,0.5*27
$GLGSA,A,3,,,,,,,,,,,,,0.9,0.7,0.5*25
$GPGSV,3,1,10,14,06,149,37,07,08,300,41,08,35,188,42,09,27,315,43*7D
$GPGSV,3,2,10,16,62,007,44,22,00,000,36,23,58,291,44,26,38,040,43*72
$GPGSV,3,3,10,27,61,150,44,31,21,095,42*75
$BDGSV,3,1,12,02,45,218,41,03,54,172,43,04,23,109,41,05,26,244,38*65
$BDGSV,3,2,12,08,00,000,38,06,41,170,40,07,65,007,43,09,66,202,42*63
$BDGSV,3,3,12,16,48,178,42,23,20,079,39,27,35,158,43,28,43,086,44*64
$B3CN0,0,0,0,0,0,0,0,0,0,0,0,0,0,0*4C
---00000017--- Acq_st=3 0  2000-1-9 3:23:12 
[00]  03(G04)  1 11  7  0  -4471.0  2046007.6 -0.1  1 0  149  874 1370
[01]  13(G14)  f 37  8  0   2577.6  2045996.6  0.3  2 0  457  620  420
[02]  06(G07)  f 42  7  0  -3669.7  2046004.7 -0.0  2 0 1248 2170 1312
[03]  07(G08)  f 42  7  0  -4400.8  2046005.7 -0.0  2 0 1549 2082 1099
[04]  08(G09)  f 43  7  0  -3903.8  2046005.0  0.0  2 0 2094 2867 1106
[05]  15(G16)  f 44  7  0    363.5  2045999.5  0.0  2 0 2010 3953 2113
[06]  21(G22)  f 36  7  0   1072.0  2045998.6 -0.1  2 0  747 1159  569
[08]  22(G23)  f 45  7  0  -2356.6  2046003.0  0.0  2 0 2686 3386 1348
[09]  25(G26)  f 42  7  0   1287.3  2045998.3 -0.0  2 0 1865 3018 1728
[10]  26(G27)  f 44  7  0  -2814.6  2046003.6  0.0  2 0 1839 2845 1432
[11]  30(G31)  7 41 12  0    984.0  2045998.7 -0.0  2 0 1625 2570  895
[16]  37(B01)  7 18 34  1  -3004.0  4092008.0 -0.0  2 0  545  684   62
[17]  38(B02) 1f 40 26  0  -1085.1  4092002.7 -0.3  2 0  802 1508  646
[18]  39(B03) 1f 45 29  0  -1115.6  4092002.8 -0.4  2 0 1775 2446  775
[19]  40(B04) 1f 40 24  0  -1108.9  4092002.8  0.2  2 0 1022 1170  267
[20]  41(B05) 1f 38 22  0  -1088.1  4092002.7  0.6  2 0  752 1002  402
[21]  44(B08) 1f 37  7  0  -2850.7  4092007.3 -0.3  2 0  852 1042  628
[22]  42(B06) 1f 40  7  0    185.3  4091999.4  0.0  2 0 1097 1246  341
[24]  43(B07) 1f 43  7  0   -851.2  4092002.1 -0.0  2 0 1875 2561 1061
[25]  45(B09) 1f 42  7  0   -303.0  4092000.7  0.0  2 0 1716 2543 1218
[27]  52(B16) 1f 42  7  0    199.1  4091999.4 -0.1  2 0 1506 2009  681
[28]  59(B23)  7 39  7  0    620.5  4091998.3 -0.1  2 0 1381 1555  827
[29]  63(B27)  7 43  7  0  -3842.4  4092010.0 -0.0  2 0 1802 2390 1003
[30]  64(B28)  7 44  7  0  -1372.9  4092003.5 -0.0  2 0 2223 3328 1379
[32]  76(N-5)  f 36  7  0  -4077.7  1022002.5  0.1  2 0   355  687  379
[33]  77(N-4)  f 46  7  0   -820.6  1022000.5  0.0  2 0  1432 2802 1325
[34]  80(N-1)  f 45  7  0   2709.6  1021998.2  0.0  2 0  1333 2166  715
[35]  81(N00)  f 46  7  0    111.6  1021999.9 -0.0  2 0  1587 2856 1692
[36]  82(N01)  f 46  7  0  -1530.2  1022000.9 -0.0  2 0  1580 2816 1184
[37]  83(N02)  f 30  7  0  -3174.3  1022002.0  0.1  5 0   409  605  293
[38]  84(N03)  f 45 18  0  -4472.3  1022002.8  0.0  2 0  2037 2842 1229
[40]  85(N04)  f 46  8  0   -925.1  1022000.6 -0.0  2 0  2051 3658 1673
[49]  38(B02)  f 20 10  1  -1948.1 20460032.4 -0.1  2 0  469  100  394
[50]  39(B03)  1 22 10  1  -1394.6 20460020.2 -0.2  1 0  529  401  609
[51]  40(B04)  1 24 23  1   -994.1 20460026.0  0.0  1 0  343  543  138
[52]  41(B05)  1 22 23  0   -895.3 20460024.0  0.0  1 0  484  864  655
[53]  44(B08)  1  7  7  0  -2271.8 20460044.3 -0.1  1 0  301   84   62
[54]  42(B06)  1  7  7  0     51.3 20459996.8  0.1  1 0  904  710  570
[56]  43(B07)  1  8  7  0    367.2 20460010.5 -0.1  1 0  366  398  673
[57]  45(B09)  1  7  7  0    -27.7 20460004.9  0.2  1 0   61  368  357
[59]  52(B16)  1  7  7  0   -158.0 20459996.6  0.1  1 0  365  290  297
Refix G07: 2, 271410.915777, -3671
Refix G08: 2, 271410.925679, -4400
Refix G09: 2, 271410.923674, -3904
Refix G14: 2, 271410.917059, 2573
Refix G16: 2, 271410.931490, 363
Refix G23: 2, 271410.929950, -2355
Refix G26: 2, 271410.926319, 1286
Refix G27: 2, 271410.931135, -2813
Refix G31: 2, 271410.920622, 980
$GNGGA,032313.000,2944.9043,N,10633.0891,E,1,16,0.7,337.5,M,,,,0000*11
$GNRMC,032313.000,A,2944.9043,N,10633.0891,E,0.34,0.00,090180,,*18
$GPGSA,A,3,07,08,09,14,16,23,26,27,,,,,0.9,0.7,0.5*3D
$BDGSA,A,3,02,03,04,05,06,07,09,16,,,,,0.9,0.7,0.5*27
$GLGSA,A,3,,,,,,,,,,,,,0.9,0.7,0.5*25
$GPGSV,3,1,10,14,06,149,37,07,08,300,42,08,35,188,42,09,27,315,43*7E
$GPGSV,3,2,10,16,62,007,44,22,00,000,36,23,58,291,45,26,38,040,42*72
$GPGSV,3,3,10,27,61,150,44,31,21,095,41*76
$BDGSV,3,1,12,01,40,125,16,02,45,218,40,03,54,172,45,04,23,109,40*6F
$BDGSV,3,2,12,05,26,244,38,08,00,000,37,06,41,170,40,07,65,007,43*6B
$BDGSV,3,3,12,09,66,202,42,16,48,178,42,23,20,079,39,27,35,158,43*68
$B3CN0,0,19,0,0,0,0,0,0,0,0,0,0,0,0*74
ch26 satid=46 freq=-1000 acq ok!
---00000018--- Acq_st=3 0  2000-1-9 3:23:13 
[00]  03(G04)  7  7  7  0  -4448.4  2046005.7  0.6 10 0 1166 2078 1387
[01]  13(G14)  f 37  7  0   2570.9  2045996.6  0.0  2 0  648 1017  164
[02]  06(G07)  f 41  7  0  -3674.2  2046004.7 -0.0  2 0 1250 1894 1082
[03]  07(G08)  f 42  7  0  -4403.1  2046005.6  0.0  2 0  951 1933  750
[04]  08(G09)  f 44  7  0  -3906.7  2046005.0 -0.0  2 0 2488 3706 1974
[05]  15(G16)  f 44  7  0    362.5  2045999.4 -0.0  2 0 2383 3254 1484
[06]  21(G22)  f 36  7  0   1088.1  2045998.5 -0.7  2 0  338  812 1119
[08]  22(G23)  f 44  7  0  -2359.4  2046003.0 -0.0  2 0 2870 4173 1380
[09]  25(G26)  f 42  7  0   1282.5  2045998.3 -0.0  2 0 1399 2664 1514
[10]  26(G27)  f 44  7  0  -2816.0  2046003.6 -0.0  2 0 1977 3403 1781
[11]  30(G31)  f 42 14  0    976.4  2045998.7 -0.0  2 0 1703 2765 1529
[16]  37(B01)  7 10 34  1  -3002.8  4092007.9  0.2  2 0  596  454  316
[17]  38(B02) 1f 39 23  0  -1088.2  4092002.7 -0.4  2 0 1070 1682 1026
[18]  39(B03) 1f 43 28  0  -1121.6  4092002.8 -0.2  2 0 1220 2054 1037
[19]  40(B04) 1f 41 18  0  -1108.2  4092002.8  0.0  2 0  435  814  185
[20]  41(B05) 1f 37 10  0  -1087.2  4092002.8 -0.2  2 0  672 1032  662
[21]  44(B08) 1f 37  7  0  -2850.4  4092007.4 -0.5  2 0  739  867  515
[22]  42(B06) 1f 40  7  0    183.9  4091999.4 -0.1  2 0 1343 1320  328
[24]  43(B07) 1f 43  7  0   -855.1  4092002.1 -0.0  2 0 2345 2531  951
[25]  45(B09) 1f 42  7  0   -304.6  4092000.6 -0.1  2 0 1924 2193  843
[26]  46(B10)  1  7  7  0  -1000.0  4092003.8 -0.0  1 0  576  729 2023
[27]  52(B16) 1f 42  7  0    197.5  4091999.4  0.0  2 0 1605 2092  806
[28]  59(B23)  7 39  7  0    625.0  4091998.3  0.0  2 0  595  908  707
[29]  63(B27)  7 43  7  0  -3848.3  4092010.0  0.0  2 0 1991 2687 1001
[30]  64(B28)  7 44  7  0  -1375.6  4092003.5 -0.0  2 0 2562 3853 2106
[32]  76(N-5)  f 35  7  0  -4078.4  1022002.6  0.1  2 0   160  939  595
[33]  77(N-4)  f 46  7  0   -823.0  1022000.5 -0.0  2 0  1415 2466  986
[34]  80(N-1)  f 45  7  0   2706.6  1021998.2  0.0  2 0  1284 2151  811
[35]  81(N00)  f 46  7  0    109.2  1021999.9 -0.0  2 0  1625 3044 1434
[36]  82(N01)  f 45  7  0  -1533.2  1022001.0 -0.0  2 0  1517 2792 1571
[37]  83(N02)  f 30  9  0  -3178.0  1022002.1 -0.1  5 0   774  343   54
[38]  84(N03)  f 46 19  0  -4476.0  1022002.8 -0.0  2 0  1700 2633  968
[40]  85(N04)  f 47  9  0   -926.5  1022000.6  0.0  2 0  2479 4099 1838
[50]  39(B03)  1 23 21  0  -1353.2 20460022.9 -0.0  1 0  364  340   69
[51]  40(B04)  1 24 10  1   -935.9 20460019.8  0.0  1 0  324  137  553
[52]  41(B05)  1 17 22  0   -415.6 20460021.4 -0.1  1 0  363  159  371
[54]  42(B06)  1  7  7  0   -708.6 20459996.7  0.1  1 0  247  703  693
[56]  43(B07)  1  7  7  0    565.3 20460010.6  0.1  1 0  810  218  583
[57]  45(B09)  1  7  7  0   -395.7 20460004.3 -0.1  1 0  484  159  470
[59]  52(B16)  1  7  7  0     35.3 20459997.4  0.2  1 0  715  555  519
Refix G07: 2, 271411.915779, -3676
Refix G08: 2, 271411.925681, -4406
Refix G09: 2, 271411.923676, -3910
Refix G14: 2, 271411.917058, 2568
Refix G16: 2, 271411.931490, 357
Refix G23: 2, 271411.929951, -2361
Refix G26: 2, 271411.926318, 1280
Refix G27: 2, 271411.931137, -2819
Refix G31: 2, 271411.920622, 974
$GNGGA,032314.000,2944.9043,N,10633.0897,E,1,17,0.7,336.0,M,,,,0000*15
$GNRMC,032314.000,A,2944.9043,N,10633.0897,E,0.30,0.00,090180,,*1D
$GPGSA,A,3,07,08,09,14,16,23,26,27,31,,,,0.9,0.7,0.5*3F
$BDGSA,A,3,02,03,04,05,06,07,09,16,,,,,0.9,0.7,0.5*27
$GLGSA,A,3,,,,,,,,,,,,,0.9,0.7,0.5*25
$GPGSV,3,1,10,14,06,149,37,07,08,300,41,08,35,188,42,09,27,315,44*7A
$GPGSV,3,2,10,16,62,007,44,22,00,000,36,23,58,291,44,26,38,040,42*73
$GPGSV,3,3,10,27,61,150,44,31,21,095,42*75
$BDGSV,3,1,12,02,45,218,39,03,54,172,43,04,23,109,41,05,26,244,37*65
$BDGSV,3,2,12,08,00,000,37,06,41,170,40,07,65,007,43,09,66,202,42*6C
$BDGSV,3,3,12,16,48,178,42,23,20,079,39,27,35,158,43,28,43,086,44*64
$B3CN0,0,0,0,0,0,0,0,0,0,0,0,0,0,0*4C
---00000019--- Acq_st=3 0  2000-1-9 3:23:14 
[00]  03(G04)  7 39  7  0  -4448.7  2046005.7 -0.1  2 0  758 1519  877
[01]  13(G14)  f 38  7  0   2560.8  2045996.6 -0.4  2 0  730 1187  469
[02]  06(G07)  f 41  7  0  -3674.2  2046004.7  0.1  2 0 1593 1989  853
[03]  07(G08)  f 43  7  0  -4403.5  2046005.7 -0.0  2 0 1504 2096  994
[04]  08(G09)  f 45  7  0  -3907.9  2046005.0 -0.0  2 0 1736 3046 1469
[05]  15(G16)  f 45  7  0    360.4  2045999.5  0.0  2 0 2321 3472 1845
[06]  21(G22)  f 36  7  0   1079.2  2045998.6 -0.1  2 0  662  869  318
[08]  22(G23)  f 44  7  0  -2361.7  2046003.0 -0.0  2 0 2043 3693 1640
[09]  25(G26)  f 43  7  0   1284.2  2045998.3  0.0  2 0 1570 2065  851
[10]  26(G27)  f 44  7  0  -2817.4  2046003.6  0.0  2 0 2106 3755 1641
[11]  30(G31)  f 41 14  0    979.3  2045998.7 -0.0  2 0 1844 2180  722
[16]  37(B01)  7 17 32  1  -3003.9  4092007.7  0.1  2 0  301  206  715
[17]  38(B02) 1f 41 24  0  -1086.2  4092002.7 -0.6  2 0  949 1603  965
[18]  39(B03) 1f 43 30  0  -1117.9  4092002.8  0.2  2 0 1827 2296  980
[19]  40(B04) 1f 40 19  0  -1107.0  4092002.8 -0.4  2 0 1285 1495  599
[20]  41(B05) 1f 39 22  0  -1092.8  4092002.7  0.9  2 0  323  620  157
[21]  44(B08) 1f 37  7  0  -2850.7  4092007.3 -0.3  2 0  517  490   98
[22]  42(B06) 1f 40  7  0    183.1  4091999.4  0.1  2 0 1190 1394  374
[24]  43(B07) 1f 44  7  0   -856.8  4092002.1  0.0  2 0 2272 2585 1091
[25]  45(B09) 1f 43  7  0   -305.8  4092000.7 -0.1  2 0 1663 2348 1220
[26]  46(B10)  1  7 11  0   -957.6  4092003.1  0.2  1 0 1440 2051 1205
[27]  52(B16) 1f 42  7  0    199.1  4091999.4  0.1  2 0 1745 2229 1118
[28]  59(B23)  7 39  7  0    617.7  4091998.3  0.1  2 0 1663 1743  961
[29]  63(B27)  7 43  7  0  -3850.0  4092010.0 -0.0  2 0 1956 2576 1180
[30]  64(B28)  7 44  9  0  -1373.8  4092003.5  0.0  2 0 2180 3156 1271
[32]  76(N-5)  f 35  7  0  -4077.1  1022002.6 -0.1  2 0   274  644  506
[33]  77(N-4)  f 46  7  0   -822.9  1022000.5 -0.0  2 0  1685 2631 1184
[34]  80(N-1)  f 45  7  0   2705.8  1021998.2  0.0  2 0   981 2077  814
[35]  81(N00)  f 46  7  0    107.8  1021999.9  0.0  2 0  1458 2904 1665
[36]  82(N01)  f 45  7  0  -1532.8  1022001.0  0.0  2 0  1533 2631 1286
[37]  83(N02)  f 30  7  0  -3178.7  1022001.9  0.0  5 0   220  441  204
[38]  84(N03)  f 46 18  0  -4475.5  1022002.8 -0.0  2 0  1722 2856 1335
[40]  85(N04)  f 47  7  0   -926.8  1022000.6 -0.0  2 0  2630 4409 2081
[49]  38(B02)  1 22 10  0   -570.5 20460020.0  0.1  1 0  235  443  572
[53]  44(B08)  1  7  7  0  -2269.8 20460045.7  0.0  1 0  447  319  740
Refix G07: 2, 271412.915782, -3673
Refix G08: 2, 271412.925684, -4401
Refix G09: 2, 271412.923679, -3906
Refix G14: 2, 271412.917056, 2572
Refix G16: 2, 271412.931490, 362
Refix G23: 2, 271412.929953, -2356
Refix G26: 2, 271412.926317, 1284
Refix G27: 2, 271412.931139, -2814
Refix G31: 2, 271412.920621, 979
$GNGGA,032315.000,2944.9044,N,10633.0900,E,1,17,0.7,335.1,M,,,,0000*1E
$GNRMC,032315.000,A,2944.9044,N,10633.0900,E,0.13,0.00,090180,,*15
$GPGSA,A,3,07,08,09,14,16,23,26,27,31,,,,0.9,0.7,0.5*3F
$BDGSA,A,3,02,03,04,05,06,07,09,16,,,,,0.9,0.7,0.5*27
$GLGSA,A,3,,,,,,,,,,,,,0.9,0.7,0.5*25
$GPGSV,3,1,11,04,00,000,39,14,06,149,38,07,08,300,41,08,35,188,43*70
$GPGSV,3,2,11,09,27,315,45,16,62,007,45,22,00,000,36,23,58,291,44*74
$GPGSV,3,3,11,26,38,040,43,27,61,150,44,31,21,095,41*4B
$BDGSV,3,1,12,01,40,125,17,02,45,218,41,03,54,172,43,04,23,109,40*69
$BDGSV,3,2,12,05,26,244,39,08,00,000,37,06,41,170,40,07,65,007,44*6D
$BDGSV,3,3,12,09,66,202,43,16,48,178,42,23,20,079,39,27,35,158,43*69
$B3CN0,0,0,0,0,0,0,0,0,0,0,0,0,0,0*4C
---00000020--- Acq_st=3 0  2000-1-9 3:23:15 
[00]  03(G04)  7 39  7  0  -4450.6  2046005.7 -0.1  2 0 1208 1256  611
[01]  13(G14)  f 37  7  0   2573.6  2045996.6  0.3  2 0 1120 1435  305
[02]  06(G07)  f 41  8  0  -3671.9  2046004.7  0.0  2 0 1245 1713  520
[03]  07(G08)  f 43  7  0  -4400.9  2046005.6 -0.0  2 0 1180 2243  834
[04]  08(G09)  f 44  8  0  -3903.2  2046005.0  0.0  2 0 2262 3262 1335
[05]  15(G16)  f 44  7  0    362.2  2045999.5 -0.0  2 0 2454 3507 1489
[06]  21(G22)  f 36  7  0   1078.9  2045998.4  0.2  2 0  800  916  296
[08]  22(G23)  f 44  7  0  -2356.7  2046003.0  0.0  2 0 2165 3767 2094
[09]  25(G26)  f 43 13  0   1283.3  2045998.3 -0.0  2 0 1209 2431  847
[10]  26(G27)  f 45  7  0  -2813.2  2046003.6 -0.0  2 0 1507 3183 1349
[11]  30(G31)  f 42 11  0    981.8  2045998.7  0.0  2 0 1532 2519 1217
[16]  37(B01)  7 23 31  1  -3005.8  4092007.8 -0.1  2 0  642  759  153
[17]  38(B02) 1f 40 21  0  -1086.7  4092002.7 -0.2  2 0 1026  823  493
[18]  39(B03) 1f 43 28  0  -1116.4  4092002.7  0.3  2 0 1749 1782  547
[19]  40(B04) 1f 41 21  0  -1110.2  4092002.8  0.3  2 0  946 1047  465
[20]  41(B05) 1f 38 10  0  -1083.1  4092002.7  0.8  2 0  957  777  309
[21]  44(B08) 1f 37  7  0  -2851.7  4092007.3 -0.0  2 0  514  918  245
[22]  42(B06) 1f 40  7  0    184.9  4091999.4 -0.0  2 0 1611 2315  995
[24]  43(B07) 1f 44  7  0   -858.4  4092002.1 -0.0  2 0 1792 2823 1277
[25]  45(B09) 1f 43  7  0   -303.1  4092000.7  0.1  2 0 1961 2615 1128
[26]  46(B10)  7 28  7  0   -953.1  4092002.4  0.3 10 0 1666 2547 1175
[27]  52(B16) 1f 42  7  0    197.9  4091999.4 -0.0  2 0 1741 2246  869
[28]  59(B23) 1f 39  7  0    617.5  4091998.2 -0.1  2 0  928 1350  517
[29]  63(B27) 1f 43  7  0  -3845.4  4092010.0  0.0  2 0 2536 2972 1266
[30]  64(B28) 1f 44  7  0  -1371.8  4092003.5  0.0  2 0 1741 2793 1503
[32]  76(N-5)  f 35  7  0  -4075.8  1022002.6 -0.0  2 0   480  675  500
[33]  77(N-4)  f 45  7  0   -819.7  1022000.5 -0.0  2 0  1656 3010 1317
[34]  80(N-1)  f 44  8  0   2708.4  1021998.2  0.0  2 0   933 2127 1482
[35]  81(N00)  f 46  7  0    109.4  1021999.9 -0.0  2 0  1609 2443  962
[36]  82(N01)  f 46  7  0  -1531.9  1022000.9  0.0  2 0  1618 2768 1245
[37]  83(N02)  f 30  7  0  -3175.3  1022002.0  0.1  5 0   547  877  776
[38]  84(N03)  f 46 18  0  -4473.1  1022002.8  0.0  2 0  1572 2965 1433
[40]  85(N04)  f 46  7  0   -924.3  1022000.6  0.0  2 0  2716 4033 1673
[49]  38(B02)  1 10 18  1   -457.2 20460023.6 -0.0  1 0  482  239  103
[50]  39(B03)  1 24 10  1   -849.3 20460017.4 -0.0  1 0  606  808  644
[51]  40(B04)  1 20 21  0   -901.0 20460020.6 -0.1  1 0  602  332  484
[52]  41(B05)  1 22 22  0   -887.2 20460015.0  0.2  1 0  219  107  203
[53]  44(B08)  1  7  7  0  -1781.5 20460043.4 -0.0  1 0  241  235  389
[54]  42(B06)  1  7  7  0      1.1 20459997.7 -0.1  1 0  432  101  595
[56]  43(B07)  1  7  7  0   -763.6 20460012.0  0.1  1 0  542  735  466
[57]  45(B09)  1  7  9  0   -209.1 20460002.4  0.2  1 0  357   62  246
[59]  52(B16)  1  7  7  0    439.4 20459997.0  0.1  1 0  634  276  181
Refix G07: 2, 271413.915784, -3669
Refix G08: 2, 271413.925687, -4396
Refix G09: 2, 271413.923681, -3901
Refix G14: 2, 271413.917054, 2577
Refix G16: 2, 271413.931490, 367
Refix G23: 2, 271413.929954, -2351
Refix G26: 2, 271413.926316, 1289
Refix G27: 2, 271413.931141, -2808
Refix G31: 2, 271413.920620, 983
$GNGGA,032316.000,2944.9046,N,10633.0905,E,1,20,0.6,333.9,M,,,,0000*11
$GNRMC,032316.000,A,2944.9046,N,10633.0905,E,0.11,0.00,090180,,*13
$GPGSA,A,3,07,08,09,14,16,23,26,27,31,,,,0.8,0.6,0.4*3E
$BDGSA,A,3,02,03,04,05,06,07,09,16,23,27,28,,0.8,0.6,0.4*28
$GLGSA,A,3,,,,,,,,,,,,,0.8,0.6,0.4*24
$GPGSV,3,1,11,04,00,000,39,14,06,149,37,07,08,300,41,08,35,188,43*7F
$GPGSV,3,2,11,09,27,315,44,16,62,007,44,22,00,000,36,23,58,291,44*74
$GPGSV,3,3,11,26,38,040,43,27,61,150,45,31,21,095,42*49
$BDGSV,3,1,12,01,40,125,23,02,45,218,40,03,54,172,43,04,23,109,41*6E
$BDGSV,3,2,12,05,26,244,38,08,00,000,37,06,41,170,40,07,65,007,44*6C
$BDGSV,3,3,12,09,66,202,43,10,62,303,28,16,48,178,42,23,20,079,39*6E
$B3CN0,0,0,0,0,0,0,0,0,0,0,0,0,0,0*4C
---00000021--- Acq_st=3 0  2000-1-9 3:23:16 
[00]  03(G04)  7 39  7  0  -4444.8  2046005.7  0.1  2 0 1640 1891  500
[01]  13(G14)  f 38  7  0   2576.2  2045996.6 -0.2  2 0  741 1138  676
[02]  06(G07)  f 42  7  0  -3669.7  2046004.7 -0.0  2 0 1127 1447  991
[03]  07(G08)  f 42  7  0  -4397.9  2046005.7  0.0  2 0 1523 2680 1205
[04]  08(G09)  f 44  7  0  -3904.9  2046005.0  0.1  2 0 2756 3964 1180
[05]  15(G16)  f 44  7  0    362.4  2045999.5  0.0  2 0 2253 3545 1448
[06]  21(G22)  f 36  7  0   1080.6  2045998.6 -0.1  2 0  787  965  487
[08]  22(G23)  f 45  7  0  -2354.3  2046003.0  0.0  2 0 2205 4037 2120
[09]  25(G26)  f 43  9  0   1287.3  2045998.3  0.0  2 0 2036 2748 1418
[10]  26(G27)  f 45  8  0  -2810.6  2046003.6  0.0  2 0 2226 4127 1842
[11]  30(G31)  f 42 13  0    979.2  2045998.7  0.0  2 0 1302 1915 1490
[16]  37(B01)  7 10 31  1  -3011.0  4092007.8 -0.1  2 0  119  427  542
[17]  38(B02) 1f 38 28  0  -1084.4  4092002.8  0.5  2 0  946 1460  776
[18]  39(B03) 1f 43 29  0  -1117.9  4092002.8  0.1  2 0 1937 2394 1277
[19]  40(B04) 1f 41 24  0  -1108.2  4092002.8 -0.3  2 0 1302 1396  834
[20]  41(B05) 1f 37 26  0  -1085.8  4092002.8  0.3  2 0 1298 1381  868
[21]  44(B08) 1f 37  7  0  -2850.6  4092007.3  0.2  2 0  470  550  619
[22]  42(B06) 1f 40  7  0    181.7  4091999.4 -0.1  2 0 1405 1605  470
[24]  43(B07) 1f 44  7  0   -850.7  4092002.1  0.1  2 0 2163 2942 1351
[25]  45(B09) 1f 43  7  0   -298.2  4092000.7  0.0  2 0 2125 2356 1011
[26]  46(B10)  7 43  7  0   -949.5  4092002.4 -0.1  2 0 1401 2238  666
[27]  52(B16) 1f 43  7  0    200.9  4091999.3 -0.0  2 0 1377 1943  836
[28]  59(B23) 1f 40  7  0    618.8  4091998.2 -0.1  2 0 1071 1455  883
[29]  63(B27) 1f 43  7  0  -3844.0  4092010.0  0.1  2 0 2320 2858 1285
[30]  64(B28) 1f 44 12  0  -1369.0  4092003.5 -0.1  2 0 2190 2980 1365
[32]  76(N-5)  f 34  7  0  -4071.3  1022002.5  0.0  2 0   413  333  128
[33]  77(N-4)  f 46  7  0   -816.8  1022000.5 -0.0  2 0  1572 2738 1408
[34]  80(N-1)  f 45  7  0   2711.1  1021998.2 -0.1  2 0  1340 2335  978
[35]  81(N00)  f 45  7  0    112.9  1021999.9  0.0  2 0  1594 2934 1663
[36]  82(N01)  f 45  7  0  -1529.3  1022000.9 -0.1  2 0  1830 2760 1468
[37]  83(N02)  f 30  7  0  -3172.0  1022001.9 -0.0  5 0   282  212  277
[38]  84(N03)  f 46 17  0  -4469.7  1022002.8 -0.0  2 0  1684 2935 1286
[40]  85(N04)  f 47  7  0   -921.1  1022000.6  0.0  2 0  2307 3937 2314
[49]  38(B02)  1 10 10  1   -941.3 20460017.1  0.1  1 0  285  579  540
[50]  39(B03)  1 20 24  0  -1286.2 20460022.4  0.1  1 0  120  148  568
[51]  40(B04)  1 23 19  0  -1716.7 20460019.6  0.1  1 0  459  120  598
[52]  41(B05)  1 18 20  0   -466.8 20460025.5 -0.1  1 0  113  652  714
