SD initialized success
Create debug.log Failed! 3
bbram_blkflag = 1
rtcflag = 128
BBRAM Block OK: 01 EPHflag: c660a004 00000000, rtc 80
Start Channel by LuYu
$GNGGA,000000.000,,,,,0,00,,,M,,,,0000*2B
$GNRMC,000000.000,A,,,,,,,060180,,*29
$GPGSA,A,1,,,,,,,,,,,,,,,*1E
$BDGSA,A,1,,,,,,,,,,,,,,,*0F
$GLGSA,A,1,,,,,,,,,,,,,,,*02
$B3CN0,0,0,0,0,0,0,0,0,0,0,0,0,0,0*4C
---00000001--- Acq_st=3 0  2000-1-1 0:1:35 
[00]  00(G01)  1 25  7  0  -1297.7  2046002.1  0.2  1 0 2580 4215 2096
[01]  05(G06)  1  7  7  0   3560.1  2045996.2  0.1  1 0  178  375  419
[02]  06(G07)  1  7  7  0   1000.0  2045999.7  0.0  1 0 2444 3860 2486
[03]  07(G08)  1 18  7  0   1500.0  2046000.4 -0.0  1 0  814 1914 1373
[04]  10(G11)  1  7  7  0     -0.0  2046002.4  0.0  1 0  243 1943 3263
[05]  12(G13)  1  7  7  0  -1250.0  2046002.0 -0.0  1 0  276  702 1284
$GNGGA,000000.000,,,,,0,00,,,M,,,,0000*2B
$GNRMC,000000.000,A,,,,,,,060180,,*29
$GPGSA,A,1,,,,,,,,,,,,,,,*1E
$BDGSA,A,1,,,,,,,,,,,,,,,*0F
$GLGSA,A,1,,,,,,,,,,,,,,,*02
$B3CN0,0,0,0,0,0,0,0,0,0,0,0,0,0,0*4C
---00000002--- Acq_st=3 0  2000-1-1 0:1:36 
[00]  00(G01)  7 25  7  0  -1296.3  2046001.6  0.3 10 0 2897 4540 1850
[01]  05(G06)  1  7  7  0   3651.9  2045995.8  0.2  1 0  402  183  880
[02]  06(G07)  1 36  7  0    915.5  2045998.6  0.9  1 0 2657 3626 1777
[03]  07(G08)  1 31  7  0   1469.6  2045997.7  0.8  1 0 1244 1666  530
[04]  10(G11)  1 27 11  0     43.9  2046000.1  0.6  1 0 1694 2121 1056
[05]  12(G13)  1 29  7  0  -1235.9  2046002.7  0.4  1 0  532  792  882
[06]  16(G17)  1 19  7  0  -2816.6  2046003.9  0.1  1 0  979 1562 1027
[08]  17(G18)  1 20  7  0    544.9  2045999.5  0.1  1 0 1943 2531  911
[09]  21(G22)  1  7  7  0  -3000.0  2046005.1  0.0  1 0  248  236 1525
$GNGGA,000000.000,,,,,0,00,,,M,,,,0000*2B
$GNRMC,000000.000,A,,,,,,,060180,,*29
$GPGSA,A,1,,,,,,,,,,,,,,,*1E
$BDGSA,A,1,,,,,,,,,,,,,,,*0F
$GLGSA,A,1,,,,,,,,,,,,,,,*02
$GPGSV,1,1,01,01,00,000,25*4E
$B3CN0,0,0,0,0,0,0,0,0,0,0,0,0,0,0*4C
---00000003--- Acq_st=3 0  2000-1-1 0:1:37 
[00]  00(G01)  7 47  7  0  -1293.3  2046001.6  0.0  2 0 2948 4477 2286
[01]  05(G06)  1 15  7  0   3867.7  2045996.3  0.0  1 0  511  216  609
[02]  06(G07)  7 36  7  0    922.2  2045998.7  0.1  2 0 2413 3547 1479
[03]  07(G08)  7 33  7  0   1471.6  2045998.0  0.3  5 0  589 1136  710
[04]  10(G11)  7 30  7  0     49.0  2045999.8  0.4  5 0 1939 2194  810
[05]  12(G13)  7 26  7  0  -1242.0  2046001.5  0.9 10 0 1288 1365  327
[06]  16(G17)  7 17  7  0  -2818.5  2046003.6  0.9 10 0  875 2082 1112
[08]  17(G18)  7  7  7  0    549.3  2045999.2  1.0 10 0 1607 2559 1315
[09]  21(G22)  1 29  7  0  -2908.6  2046004.0  0.7  1 0 1868 2178  777
[10]  27(G28)  1 22 11  0  -2947.8  2046004.6  0.1  1 0  972 2574 1863
[11]  29(G30)  1 21  7  0  -1304.9  2046005.1  0.3  1 0 1157 3711 5074
[16]  37(B01)  1 30 10  0  -1250.0  4092006.1  0.1  1 0  208 1054 2268
[17]  38(B02)  1 23 10  0  -1250.0  4092004.2  0.0  1 0  542  239  863
[18]  39(B03)  1 33 10  0  -1250.0  4092005.0 -0.0  1 0  612 1303 2152
$GNGGA,075849.938,,,,,0,00,,,M,,,,0000*2E
$GNRMC,075849.938,A,,,,,,,120180,,*29
$GPGSA,A,1,,,,,,,,,,,,,,,*1E
$BDGSA,A,1,,,,,,,,,,,,,,,*0F
$GLGSA,A,1,,,,,,,,,,,,,,,*02
$GPGSV,2,1,06,01,00,000,47,07,00,000,36,08,00,000,33,11,00,000,30*77
$GPGSV,2,2,06,13,00,000,26,17,00,000,16*78
$B3CN0,0,0,0,0,0,0,0,0,0,0,0,0,0,0*4C
---00000004--- Acq_st=3 0  2000-1-1 0:1:38 
[00]  00(G01)  f 45  7  0  -1287.7  2046001.6  0.0  2 0 2527 4560 2480
[01]  05(G06)  1  7 13  0   4318.8  2045995.9  0.1  1 0   55  358  431
[02]  06(G07)  f 43  7  0    926.2  2045998.7  0.0  2 0 2379 3310 1061
[03]  07(G08)  f 40  7  0   1479.2  2045998.0 -0.1  2 0 1404 1804  575
[04]  10(G11)  7 43  9  0     57.1  2045999.8 -0.0  2 0 2148 3168 1593
[05]  12(G13)  7 37  7  0  -1234.0  2046001.5  0.8  2 0 1269 1326 1040
[06]  16(G17)  7 39  7  0  -2812.1  2046003.6 -0.1  2 0 1437 1984  715
[08]  17(G18)  7 44  7  0    559.0  2045999.2 -0.0  2 0 1525 2371 1382
[09]  21(G22)  7 32  7  0  -2902.6  2046003.6  0.4  5 0 1666 1735  479
[10]  27(G28)  7 24  7  0  -2940.8  2046003.7  0.8 10 0 2003 2214  937
[11]  29(G30)  7 20  7  0  -1294.1  2046001.5  0.8 10 0 3461 4272 1779
[16]  37(B01)  9 40 18  0  -1107.0  4092002.9  1.0  1 0 1932 1685  685
[17]  38(B02)  1 38 22  0  -1137.3  4092003.3  0.9  1 0  917 1404  754
[18]  39(B03)  1 43 30  0  -1118.3  4092002.8  1.0  1 0 1641 2064 1135
[19]  40(B04)  1 37 23  0  -1116.9  4092005.6  0.9  1 0  680 1159  680
[20]  41(B05)  1 13 30  1   -994.1  4092003.1 -0.1  1 0  383  497  635
[21]  43(B07)  1  7  7  0  -1266.7  4092004.9 -0.0  1 0 1403 2640 1733
[22]  44(B08)  1  7  7  0  -1467.0  4092005.0  0.0  1 0  842  598  757
[24]  46(B10)  1  7  7  0  -1500.0  4092005.7 -0.0  1 0  108 1535 2346
[25]  47(B11)  1  7  7  0     -0.0  4092000.5  0.0  1 0 2426 3830 2164
$GNGGA,075850.938,,,,,0,00,,,M,,,,0000*26
$GNRMC,075850.938,A,,,,,,,120180,,*21
$GPGSA,A,1,,,,,,,,,,,,,,,*1E
$BDGSA,A,1,,,,,,,,,,,,,,,*0F
$GLGSA,A,1,,,,,,,,,,,,,,,*02
$GPGSV,3,1,10,01,00,000,45,07,00,000,43,08,00,000,40,11,00,000,43*71
$GPGSV,3,2,10,13,00,000,37,17,00,000,39,18,00,000,44,22,00,000,32*7B
$GPGSV,3,3,10,28,00,000,23,30,00,000,20*72
$B3CN0,0,0,0,0,0,0,0,0,0,0,0,0,0,0*4C
---00000005--- Acq_st=3 0  2000-1-1 0:1:39 
[00]  00(G01)  f 45  7  0  -1288.0  2046001.6 -0.0  2 0 2928 4530 2163
[01]  05(G06)  1  7  7  0   4831.4  2045996.0  0.1  1 0  599  595  534
[02]  06(G07)  f 44  7  0    925.1  2045998.7 -0.0  2 0 2566 4050 1791
[03]  07(G08)  f 39  7  0   1472.3  2045998.0  0.0  2 0 1372 2085 1050
[04]  10(G11)  7 43  7  0     51.5  2045999.9  0.0  2 0 1827 3106 1620
[05]  12(G13)  7 38  7  0  -1233.5  2046001.5 -0.1  2 0  641  906  665
[06]  16(G17)  7 38  8  0  -2815.8  2046003.6 -0.1  2 0 1262 1687  917
[08]  17(G18)  7 43  7  0    551.9  2045999.2  0.0  2 0 1923 2778 1715
[09]  21(G22)  7 40  7  0  -2904.5  2046003.6  0.0  2 0 1290 2062 1226
[10]  27(G28)  7 43 13  0  -2941.8  2046003.7 -0.0  2 0 2085 2782 1505
[11]  29(G30)  7 47  7  0  -1293.4  2046001.5  0.0  2 0 4938 5275 2183
[16]  37(B01)  f 39 10  0  -1100.0  4092002.8 -0.0  2 0 1684 1677  427
[17]  38(B02)  7 37 24  0  -1141.0  4092002.9 -0.2  2 0 1833 2005  935
[18]  39(B03)  f 45 30  0  -1113.8  4092002.7  0.4  2 0 2342 2161  581
[19]  40(B04) 19 37 22  0  -1119.0  4092001.8  0.9  1 0 1156  848   58
[20]  41(B05)  1 14 10  0  -1446.1  4092003.1  0.1  1 0  868  399  402
[21]  43(B07)  1  7  7  0  -1271.3  4092002.9  0.6  1 0 1774 2686 1277
[22]  44(B08)  1 11  7  0  -1116.3  4092006.0  0.4  1 0  909 1654 1285
[24]  46(B10)  1  7  7  0  -1556.7  4092004.2  0.3  1 0 1287 2520 1388
[25]  47(B11)  1  7  7  0    163.8  4091999.3  0.3  1 0 2066 2982  854
[26]  49(B13)  1  7  7  0  -2081.2  4092008.0  0.0  1 0  877 2533 1988
[27]  54(B18)  1  7  7  0  -1250.0  4092004.3 -0.0  1 0  529  123  711
$GNGGA,075851.938,,,,,0,00,,,M,,,,0000*27
$GNRMC,075851.938,A,,,,,,,120180,,*20
$GPGSA,A,1,,,,,,,,,,,,,,,*1E
$BDGSA,A,1,,,,,,,,,,,,,,,*0F
$GLGSA,A,1,,,,,,,,,,,,,,,*02
$GPGSV,3,1,10,01,00,000,45,07,00,000,44,08,00,000,39,11,00,000,43*78
$GPGSV,3,2,10,13,00,000,38,17,00,000,38,18,00,000,43,22,00,000,40*77
$GPGSV,3,3,10,28,00,000,43,30,00,000,47*75
$BDGSV,1,1,03,01,00,000,40,02,00,000,37,03,00,000,45*5A
$B3CN0,0,0,0,0,0,0,0,0,0,0,0,0,0,0*4C
---00000006--- Acq_st=3 0  2000-1-1 0:1:40 
[00]  00(G01)  f 45  7  0  -1290.7  2046001.6 -0.0  2 0 2656 4495 2206
[02]  06(G07)  f 44  7  0    924.4  2045998.7  0.0  2 0 2764 3719 1702
[03]  07(G08)  f 40  7  0   1473.0  2045998.0 -0.0  2 0 1101 1864 1134
[04]  10(G11)  7 42  7  0     53.1  2045999.9 -0.0  2 0 1840 3010 1536
[05]  12(G13)  7 38  7  0  -1241.6  2046001.6  0.0  2 0 1143 1363  297
[06]  16(G17)  7 39  8  0  -2815.9  2046003.6  0.1  2 0 1164 1013  620
[08]  17(G18)  7 43  7  0    553.2  2045999.2  0.0  2 0 1852 2460 1098
[09]  21(G22)  7 40  7  0  -2902.9  2046003.7  0.0  2 0 1621 2537 1271
[10]  27(G28)  7 43  7  0  -2945.5  2046003.8 -0.0  2 0 2228 3128 1673
[11]  29(G30)  7 46  7  0  -1297.0  2046001.6  0.0  2 0 3978 5041 2099
[16]  37(B01)  f 40 22  0  -1103.0  4092002.6 -0.5  2 0 1489 1146  188
[17]  38(B02)  f 39 27  0  -1146.1  4092002.9 -0.8  2 0  616  720  270
[18]  39(B03)  f 43 30  0  -1116.5  4092002.8 -0.1  2 0 1083 1501 1130
[19]  40(B04) 1f 40 16  0  -1117.0  4092002.8  0.5  2 0  888 1299  388
[20]  41(B05)  1 16 28  1  -1141.7  4092004.9 -0.1  1 0  590  416  341
[21]  43(B07)  7 42  7  0  -1269.1  4092003.2  0.1  2 0 1610 2140 1228
[22]  44(B08)  1  7  7  0  -1117.4  4092003.9  0.9  1 0 1109 1617  778
[24]  46(B10)  7 32  7  0  -1560.0  4092004.0  0.2  5 0 1616 2778 1126
[25]  47(B11)  7 30  7  0    164.7  4091999.5  0.2  5 0 2179 3674 1967
[26]  49(B13)  7 25  7  0  -2083.3  4092005.3  0.2 10 0 1896 2402  905
[27]  54(B18)  1 29  7  0  -1350.2  4092005.3  0.4  1 0 1981 3072 1667
[28]  59(B23)  1  7  7  0  -3000.0  4092008.4 -0.0  1 0 1487 3020 1948
[29]  60(B24)  1  7  7  0   2250.0  4091995.1  0.0  1 0  653  383  224
[30]  61(B25)  1  7  7  0     -0.0  4091999.5 -0.2  1 0 2028 3390 1811
[48]  37(B01)  1 13 22  0  -1020.4 20460019.3 -0.1  1 0  262  464  649
[50]  39(B03)  1 21 21  0  -1026.8 20460015.1 -0.1  1 0  506  262   94
$GNGGA,075852.938,,,,,0,00,,,M,,,,0000*24
$GNRMC,075852.938,A,,,,,,,120180,,*23
$GPGSA,A,1,,,,,,,,,,,,,,,*1E
$BDGSA,A,1,,,,,,,,,,,,,,,*0F
$GLGSA,A,1,,,,,,,,,,,,,,,*02
$GPGSV,3,1,10,01,00,000,45,07,00,000,44,08,00,000,40,11,00,000,42*77
$GPGSV,3,2,10,13,00,000,38,17,00,000,39,18,00,000,43,22,00,000,40*76
$GPGSV,3,3,10,28,00,000,43,30,00,000,46*74
$BDGSV,2,1,08,01,00,000,40,02,00,000,39,03,00,000,42,04,00,000,40*6B
$BDGSV,2,2,08,07,00,000,40,10,00,000,31,11,00,000,30,13,00,000,25*66
$B3CN0,0,0,0,0,0,0,0,0,0,0,0,0,0,0*4C
---00000007--- Acq_st=3 0  2000-1-1 0:1:41 
[00]  00(G01)  f 45  7  0  -1284.2  2046001.6 -0.0  2 0 2141 3929 1943
[02]  06(G07)  f 44  7  0    932.5  2045998.7  0.0  2 0 2299 4093 1982
[03]  07(G08)  f 39  7  0   1486.3  2045998.0  0.1  2 0  650 1489  625
[04]  10(G11)  7 43 10  0     59.5  2045999.9 -0.0  2 0 2434 3605 1947
[05]  12(G13)  7 37  7  0  -1228.0  2046001.5 -0.1  2 0  931 1319  685
[06]  16(G17)  7 40  7  0  -2812.1  2046003.6 -0.1  2 0 1285 1593  512
[08]  17(G18)  7 43  7  0    561.8  2045999.2 -0.0  2 0 1299 2024  754
[09]  21(G22)  7 40  7  0  -2901.0  2046003.7 -0.1  2 0 1130 1537  666
[10]  27(G28)  7 43  7  0  -2933.7  2046003.7  0.1  2 0 1971 2911 1419
[11]  29(G30)  7 46  7  0  -1288.7  2046001.6 -0.0  2 0 3642 4846 2109
[16]  37(B01)  f 41 13  0  -1095.3  4092002.6  0.1  2 0 1367 1242  324
[17]  38(B02)  f 40 21  0  -1132.5  4092002.8 -0.2  2 0  798  939  496
[18]  39(B03)  f 43 31  0  -1105.5  4092002.8 -0.4  2 0 2090 2432 1354
[19]  40(B04) 1f 39 25  0  -1105.6  4092002.8  0.7  2 0 1304 1911 1222
[20]  41(B05)  1 33 20  0  -1143.6  4092006.3  0.7  1 0  542  392 1277
[21]  43(B07)  7 43 12  0  -1263.5  4092003.2  0.0  2 0 1729 2330 1110
[22]  44(B08)  1  7  7  0  -1107.0  4092004.1  0.9  1 0  997 1803  670
[24]  46(B10)  7 43  7  0  -1551.3  4092004.0 -0.0  2 0 1581 2379 1446
[25]  47(B11)  7 45  7  0    172.9  4091999.5 -0.0  2 0 2573 3320 1393
[26]  49(B13)  7 43  8  0  -2074.4  4092005.3 -0.0  2 0 2115 2411 1102
[27]  54(B18)  7 31  7  0  -1341.0  4092003.3  0.4  5 0 2114 2318  855
[28]  59(B23)  1  7  7  0  -2883.3  4092007.3  0.5  1 0 2311 3493 1620
[29]  60(B24)  1  7  7  0   2583.5  4091995.3 -0.1  1 0  147  102  309
[30]  61(B25)  1  7  7  0    133.0  4091999.3  0.1  1 0 2644 3717 1537
[48]  37(B01)  7 36 18  0  -1192.1 20460019.6  0.1  2 0  437  346  107
[49]  38(B02)  1 13 20  1   -947.5 20460020.6 -0.0  1 0  349  231  162
[50]  39(B03)  1 22 22  0   -945.0 20460017.9  0.1  1 0  414  295  187
[51]  40(B04)  1 19 23  0  -1443.2 20460015.1  0.1  1 0  670  617  375
$GNGGA,075853.938,,,,,0,00,,,M,,,,0000*25
$GNRMC,075853.938,A,,,,,,,120180,,*22
$GPGSA,A,1,,,,,,,,,,,,,,,*1E
$BDGSA,A,1,,,,,,,,,,,,,,,*0F
$GLGSA,A,1,,,,,,,,,,,,,,,*02
$GPGSV,3,1,10,01,00,000,45,07,00,000,44,08,00,000,39,11,00,000,43*78
$GPGSV,3,2,10,13,00,000,37,17,00,000,40,18,00,000,43,22,00,000,40*77
$GPGSV,3,3,10,28,00,000,43,30,00,000,46*74
$BDGSV,3,1,09,01,00,000,40,02,00,000,40,03,00,000,43,04,00,000,39*6A
$BDGSV,3,2,09,07,00,000,43,10,00,000,43,11,00,000,45,13,00,000,43*62
$BDGSV,3,3,09,18,00,000,31*5A
$B3CN0,0,0,0,0,0,0,0,0,0,0,0,0,0,0*4C
---00000008--- Acq_st=3 0  2000-1-1 0:1:42 
[00]  00(G01)  f 45  8  0  -1282.3  2046001.6 -0.0  2 0 2651 4686 2370
[02]  06(G07)  f 44  7  0    928.6  2045998.7 -0.0  2 0 2485 3629 1977
[03]  07(G08)  f 39  7  0   1479.4  2045998.0 -0.1  2 0 1367 2102  818
[04]  10(G11)  7 43  7  0     61.3  2045999.9  0.0  2 0 1996 3363 1571
[05]  12(G13)  7 37  7  0  -1232.8  2046001.6 -0.1  2 0 1107 1139  656
[06]  16(G17)  7 39  8  0  -2814.7  2046003.6  0.1  2 0 1348 1862  698
[08]  17(G18)  7 43  7  0    561.5  2045999.2 -0.0  2 0 1733 2810 1259
[09]  21(G22)  7 40  7  0  -2897.1  2046003.7  0.0  2 0  595 1431 1293
[10]  27(G28)  7 42  7  0  -2938.9  2046003.7 -0.1  2 0 1923 2830 1011
[11]  29(G30)  7 45  7  0  -1290.9  2046001.6  0.0  2 0 3109 5267 2325
[16]  37(B01) 1f 41 16  0  -1094.3  4092002.7  0.2  2 0 1351 1750  299
[17]  38(B02) 1f 40 26  0  -1136.6  4092002.8 -0.0  2 0 1263 1089  324
[18]  39(B03) 1f 45 31  0  -1112.8  4092002.8 -0.2  2 0 1984 2273  955
[19]  40(B04) 1f 39 20  0  -1114.4  4092002.8 -0.8  2 0 1060 1124  556
[20]  41(B05)  f 34 14  0  -1155.9  4092002.8  0.1  2 0 1493 1152  466
[21]  43(B07)  7 42  7  0  -1261.0  4092003.2  0.1  2 0 2306 2450  559
[22]  44(B08)  1  7  7  0  -1110.5  4092004.2  0.9  1 0  694 1476  780
[24]  46(B10)  7 43  9  0  -1551.6  4092004.0 -0.0  2 0 1945 2599  799
[25]  47(B11)  7 44  7  0    169.6  4091999.5 -0.0  2 0 2312 3177 1837
[26]  49(B13)  7 42  7  0  -2076.9  4092005.3 -0.0  2 0 1503 2138  968
[27]  54(B18)  7 44  7  0  -1337.9  4092003.3 -0.1  2 0 1972 2434 1170
[28]  59(B23)  7 37  7  0  -2880.7  4092007.5  0.1  2 0 2662 3664 1823
[29]  60(B24)  1  7  7  0   2647.9  4091995.9  0.0  1 0  565  608  989
[30]  61(B25)  1  7  7  0    134.4  4091999.5  0.2  1 0 2181 4018 2493
[32]  77(N-4)  1 26  7  0  -3772.1  1022002.6  0.3  1 0  1173 1792  973
[33]  78(N-3)  1 25  7  0   2685.9  1022000.1 -0.1  1 0   228  539  400
[34]  79(N-2)  1 26 30  0    -26.7  1022001.4  0.1  1 0   462 1593 1212
[35]  81(N00)  1 14  7  0  -5250.0  1022003.9 -0.0  1 0   256  462  319
[36]  82(N01)  1 13  7  0   2750.0  1022000.2  0.0  1 0   260  365  617
[37]  83(N02)  1  7 16  0     -0.1  1022002.3 -0.0  1 0   284 1901 2415
[48]  37(B01)  7 16 10  0  -1217.4 20460019.0  0.1  2 0   70  190  148
[49]  38(B02)  1 19 17  1   -922.3 20460016.9  0.0  1 0  517  155  680
[50]  39(B03)  1 10 21  0   -684.9 20460020.0  0.0  1 0  908  377  801
[51]  40(B04)  1 23 23  1  -2047.3 20460019.5  0.1  1 0  204  579  248
$GNGGA,075854.938,,,,,0,00,,,M,,,,0000*22
$GNRMC,075854.938,A,,,,,,,120180,,*25
$GPGSA,A,1,,,,,,,,,,,,,,,*1E
$BDGSA,A,1,,,,,,,,,,,,,,,*0F
$GLGSA,A,1,,,,,,,,,,,,,,,*02
$GPGSV,3,1,10,01,00,000,45,07,00,000,44,08,00,000,39,11,00,000,43*78
$GPGSV,3,2,10,13,00,000,37,17,00,000,39,18,00,000,43,22,00,000,40*79
$GPGSV,3,3,10,28,00,000,42,30,00,000,45*76
$BDGSV,3,1,11,01,00,000,40,02,00,000,39,03,00,000,43,04,00,000,39*6D
$BDGSV,3,2,11,05,00,000,34,07,00,000,42,10,00,000,43,11,00,000,44*6C
$BDGSV,3,3,11,13,00,000,42,18,00,000,44,23,00,000,36*51
$B3CN0,19,0,0,0,0,0,0,0,0,0,0,0,0,0*74
---00000009--- Acq_st=7 0  2000-1-1 0:1:43 
[00]  00(G01)  f 45  7  0  -1284.8  2046001.6 -0.0  2 0 3173 4941 2571
[02]  06(G07)  f 44  7  0    928.9  2045998.7  0.0  2 0 3162 4377 2446
[03]  07(G08)  f 39  7  0   1477.2  2045998.0  0.0  2 0  871 2011 1434
[04]  10(G11)  7 42  7  0     56.7  2045999.9 -0.0  2 0 2742 3731 1776
[05]  12(G13)  7 38  7  0  -1239.9  2046001.6 -0.0  2 0  766 1312  655
[06]  16(G17)  7 38  7  0  -2808.1  2046003.6 -0.1  2 0 1678 1813  704
[08]  17(G18)  7 42  7  0    560.6  2045999.2 -0.0  2 0 2043 2403  587
[09]  21(G22)  7 40  7  0  -2900.1  2046003.7 -0.0  2 0 1209 1397  396
[10]  27(G28)  7 42  7  0  -2940.3  2046003.7 -0.0  2 0 2002 3245 1646
[11]  29(G30)  7 45  7  0  -1290.8  2046001.6  0.0  2 0 3619 5589 2269
[16]  37(B01) 1f 41 25  0  -1094.5  4092002.8 -0.2  2 0 1078 1648 1000
[17]  38(B02) 1f 40 21  0  -1140.4  4092002.8  0.8  2 0 1447 1560  721
[18]  39(B03) 1f 42 29  0  -1111.9  4092002.8 -0.1  2 0 1680 2323  915
[19]  40(B04) 1f 40 20  0  -1109.8  4092002.9  0.7  2 0 1500 1463  877
[20]  41(B05)  f 35 23  0  -1152.5  4092002.8  0.6  2 0 1502 1753  758
[21]  43(B07)  7 43  9  0  -1262.3  4092003.2 -0.0  2 0 1758 1897  792
[24]  46(B10)  7 43  7  0  -1554.9  4092004.0  0.0  2 0 1448 2235  932
[25]  47(B11)  7 44  7  0    171.3  4091999.5 -0.0  2 0 2095 3072 1679
[26]  49(B13)  7 43  7  0  -2080.6  4092005.3  0.1  2 0 1754 2594  936
[27]  54(B18)  7 43  7  0  -1342.1  4092003.4 -0.0  2 0 2331 2389  634
[28]  59(B23)  7 44  7  0  -2880.1  4092007.5  0.0  2 0 2697 3800 2428
[29]  60(B24)  1 17  7  0   2501.6  4091996.5  0.1  1 0  362  804  418
[30]  61(B25)  1  7  7  0    132.1  4091999.5 -0.1  1 0 2001 3586 1713
[32]  77(N-4)  7 22  7  0  -3772.9  1022002.4  1.0 10 0   974 1652  785
[33]  78(N-3)  1 24  7  0   2680.9  1021998.2  0.4  1 0   586  455  474
[34]  79(N-2)  1 23 27  0    -29.1  1021999.8  0.9  1 0   791 1240  622
[35]  81(N00)  1 25 12  0  -5165.5  1022004.6 -0.0  1 0   133  557  396
[36]  82(N01)  1 27 13  0   2675.7  1021998.2  0.7  1 0   642  780  299
[37]  83(N02)  1 31  7  0    116.6  1022000.0  1.0  1 0  2122 2784 1106
[38]  86(N05)  1 28 19  0    422.1  1022000.0  0.5  1 0  2742 3602 1530
[48]  37(B01)  7 10 10  0  -1475.3 20460023.6  0.2  2 0  252  279  249
[49]  38(B02)  7 16 18  1  -1204.8 20460021.4  0.1  2 0  390  380  417
[50]  39(B03)  1 23 19  0  -1462.3 20460021.2 -0.0  1 0  761  541  932
[51]  40(B04)  1 22 20  0  -1099.9 20460021.4 -0.0  1 0  890  697  733
$GNGGA,075855.938,,,,,0,00,,,M,,,,0000*23
$GNRMC,075855.938,A,,,,,,,120180,,*24
$GPGSA,A,1,,,,,,,,,,,,,,,*1E
$BDGSA,A,1,,,,,,,,,,,,,,,*0F
$GLGSA,A,1,,,,,,,,,,,,,,,*02
$GPGSV,3,1,10,01,00,000,45,07,00,000,44,08,00,000,39,11,00,000,42*79
$GPGSV,3,2,10,13,00,000,37,17,00,000,39,18,00,000,42,22,00,000,40*78
$GPGSV,3,3,10,28,00,000,43,30,00,000,45*77
$BDGSV,3,1,11,01,00,000,40,02,00,000,40,03,00,000,43,04,00,000,39*63
$BDGSV,3,2,11,05,00,000,36,07,00,000,43,10,00,000,42,11,00,000,43*69
$BDGSV,3,3,11,13,00,000,43,18,00,000,43,23,00,000,44*52
$B3CN0,19,0,0,0,0,0,0,0,0,0,0,0,0,0*74
---00000010--- Acq_st=7 0  2000-1-1 0:1:44 
[00]  00(G01)  f 45  7  0  -1286.6  2046001.6 -0.0  2 0 2474 3987 1916
[02]  06(G07)  f 44  8  0    925.4  2045998.8  0.0  2 0 1514 2927 2277
[03]  07(G08)  f 39  7  0   1472.8  2045998.0 -0.1  2 0 1212 1961  731
[04]  10(G11)  f 42  7  0     55.3  2045999.9 -0.0  2 0 1583 2487 1047
[05]  12(G13)  f 37  7  0  -1232.8  2046001.5 -0.2  2 0  957 1531  759
[06]  16(G17)  f 39  7  0  -2810.7  2046003.6 -0.1  2 0 1118 1664  776
[08]  17(G18)  f 42  7  0    558.6  2045999.2  0.1  2 0 1950 3018 1901
[09]  21(G22)  f 40  7  0  -2902.1  2046003.7 -0.0  2 0 1104 1951  983
[10]  27(G28)  f 43  7  0  -2941.4  2046003.8 -0.0  2 0 1679 2562 1112
[11]  29(G30)  f 45  7  0  -1291.7  2046001.6  0.0  2 0 3880 5345 2237
[16]  37(B01) 1f 41 20  0  -1095.4  4092002.8 -0.1  2 0 1076 1612 1091
[17]  38(B02) 1f 39 24  0  -1139.4  4092002.8  0.3  2 0  819 1365  218
[18]  39(B03) 1f 43 31  0  -1115.4  4092002.9  0.3  2 0 1058 1654  697
[19]  40(B04) 1f 39 21  0  -1114.9  4092002.9 -0.1  2 0 1225 1460  627
[20]  41(B05)  f 36 10  0  -1148.0  4092002.8  0.9  2 0 1068  868  552
[21]  43(B07)  7 43  8  0  -1269.1  4092003.2  0.0  2 0 1553 2369  897
[24]  46(B10)  7 42  7  0  -1553.8  4092004.0 -0.0  2 0 1689 2185  832
[25]  47(B11)  7 43  7  0    166.7  4091999.4  0.0  2 0 2551 3354 1384
[26]  49(B13)  7 43  7  0  -2083.2  4092005.3 -0.1  2 0 1677 2572 1118
[27]  54(B18)  7 43 10  0  -1344.6  4092003.4 -0.0  2 0 2040 2580 1229
[28]  59(B23)  7 44  7  0  -2883.4  4092007.5 -0.0  2 0 2676 3477 1478
[29]  60(B24)  1 22  7  0   2535.4  4091994.8  0.3  1 0  578  638  208
[30]  61(B25)  1  7  7  0    129.3  4091999.6 -0.0  1 0 1666 3270 1543
[32]  77(N-4)  7 46  7  0  -3774.1  1022002.4 -0.0  2 0  1392 2339 1256
[33]  78(N-3)  7 33  7  0   2673.7  1021998.2 -0.1  5 0   482  143  169
[34]  79(N-2)  7 44 24  0    -30.6  1021999.9  0.0  2 0  1204 1788 1017
[35]  81(N00)  7 32  7  0  -5177.7  1022003.3  0.0  5 0   261  548  273
[36]  82(N01)  7 35  7  0   2668.9  1021998.1 -0.0  2 0   934  939  400
[37]  83(N02)  1 32  7  0    114.9  1021999.6  1.0  1 0  2000 2987 1255
[38]  86(N05)  7 30  7  0    421.5  1021999.6  0.5  5 0  2852 3403 1198
[48]  37(B01)  7 14 10  0  -1770.9 20460031.6 -0.0  2 0   79  174  183
[49]  38(B02)  7 10 10  1  -1351.1 20460019.9  0.1  2 0  453  478  393
[51]  40(B04)  1 23 25  1   -468.4 20460017.7  0.2  1 0  609  716  322
---00000011--- Acq_st=3 0  2000-1-1 0:1:45 
[00]  00(G01)  f 46  7  0  -1281.7  2046001.6  0.0  2 0 2470 4516 1872
[01]  08(G09)  1  7 13  0   1000.0  2045998.2 -0.1  1 0  733  456  522
[02]  06(G07)  f 45  7  0    931.6  2045998.7  0.1  2 0 2649 3903 2024
[03]  07(G08)  f 39  7  0   1478.9  2045998.0 -0.1  2 0  856 1709 1016
[04]  10(G11)  f 43  7  0     59.9  2045999.8  0.0  2 0 1743 2994 1040
[05]  12(G13)  f 37  7  0  -1232.2  2046001.5  0.8  2 0  669 1053  631
[06]  16(G17)  f 39  7  0  -2816.5  2046003.6  0.0  2 0 1188 1281  543
[08]  17(G18)  f 42  7  0    559.7  2045999.2 -0.0  2 0 1729 2451  844
[09]  21(G22)  f 40 10  0  -2897.0  2046003.7  0.0  2 0  667 2125 1441
[10]  27(G28)  f 42 10  0  -2941.9  2046003.8  0.1  2 0 1765 2883 1518
[11]  29(G30)  f 45  7  0  -1288.3  2046001.6  0.0  2 0 3331 5578 2415
[16]  37(B01) 1f 42 20  0  -1098.4  4092002.8  0.0  2 0 1259 1716  678
[17]  38(B02) 1f 40 24  0  -1137.9  4092002.8 -0.4  2 0 1130 1332  567
[18]  39(B03) 1f 42 31  0  -1110.8  4092002.9 -0.0  2 0 2204 2156 1246
[19]  40(B04) 1f 39 10  0  -1116.0  4092002.7 -0.2  2 0 1142 1265  683
[20]  41(B05) 1f 36 23  0  -1145.7  4092002.8 -0.8  2 0 1424  990  207
[21]  43(B07)  7 43 13  0  -1264.1  4092003.2 -0.0  2 0 2144 2516 1076
[24]  46(B10)  7 43  7  0  -1553.8  4092003.9  0.0  2 0 2486 2737 1141
[25]  47(B11)  7 44  7  0    169.9  4091999.5  0.0  2 0 2580 3017 1469
[26]  49(B13)  7 43  7  0  -2078.3  4092005.3  0.0  2 0 1051 1981  949
[27]  54(B18)  7 43  7  0  -1340.6  4092003.4  0.0  2 0 2087 2694 1323
[28]  59(B23)  7 44  7  0  -2879.1  4092007.5  0.0  2 0 2150 3403 1835
[32]  77(N-4)  7 46  7  0  -3770.0  1022002.4  0.3  2 0  1187 2271 1322
[33]  78(N-3)  7 33  7  0   2675.3  1021998.1  0.0  5 0   481  695  389
[34]  79(N-2)  7 44 21  0    -25.5  1022000.0 -0.1  2 0  1035 1517  517
[35]  81(N00)  7 32 12  0  -5174.3  1022003.2  0.0  5 0   265  283  183
[36]  82(N01)  7 36  7  0   2674.6  1021998.1 -0.1  2 0   207  389  548
[37]  83(N02)  1 32  7  0    118.7  1021999.9  1.0  1 0  1565 3414 1891
[38]  86(N05)  7 48  7  0    426.6  1021999.7  0.0  2 0  2252 3970 1927
[49]  38(B02)  7 10 22  0  -1677.2 20460027.9  0.2  2 0  459  341  375
[50]  39(B03)  1 14 18  1  -1105.0 20460021.1  0.1  1 0  716  832  783
[52]  41(B05)  1 24 18  1   -912.9 20460015.1 -0.0  1 0  653  461  105
$GNGGA,075856.938,,,,,0,00,,,M,,,,0000*20
$GNRMC,075856.938,A,,,,,,,200419,,*23
$GPGSA,A,1,,,,,,,,,,,,,,,*1E
$BDGSA,A,1,,,,,,,,,,,,,,,*0F
$GLGSA,A,1,,,,,,,,,,,,,,,*02
$GPGSV,3,1,10,01,00,000,46,07,00,000,45,08,00,000,39,11,00,000,43*7A
$GPGSV,3,2,10,13,00,000,37,17,00,000,39,18,00,000,42,22,00,000,40*78
$GPGSV,3,3,10,28,00,000,42,30,00,000,45*76
$BDGSV,3,1,11,01,00,000,42,02,00,000,40,03,00,000,42,04,00,000,39*60
$BDGSV,3,2,11,05,00,000,36,07,00,000,43,10,00,000,43,11,00,000,44*6F
$BDGSV,3,3,11,13,00,000,43,18,00,000,43,23,00,000,44*52
$B3CN0,0,0,0,0,0,0,0,0,0,0,0,0,0,0*4C
---00000012--- Acq_st=3 0  2000-1-1 0:1:46 
[00]  00(G01)  f 46  7  0  -1281.4  2046001.6  0.0  2 0 3029 4603 2005
[01]  08(G09)  1 28  8  0   1115.7  2045998.3  0.7  1 0  854 1456  509
[02]  06(G07)  f 45  7  0    933.6  2045998.7 -0.0  2 0 2621 3438 1339
[03]  07(G08)  f 39  7  0   1483.3  2045998.0  0.1  2 0 1452 2019  690
[04]  10(G11)  f 44  7  0     62.2  2045999.8 -0.1  2 0 1463 3206 1773
[05]  12(G13)  f 37  7  0  -1227.3  2046001.5 -0.8  2 0  357  824  257
[06]  16(G17)  f 39  7  0  -2807.5  2046003.6  0.0  2 0 1543 1886  749
[08]  17(G18)  f 43  7  0    566.6  2045999.2 -0.0  2 0 1549 2913 1229
[09]  21(G22)  f 39  7  0  -2897.6  2046003.7 -0.0  2 0  861 2003 1380
[10]  27(G28)  f 42  7  0  -2940.8  2046003.8  0.0  2 0 2025 2885 1302
[11]  29(G30)  f 46  8  0  -1287.3  2046001.6  0.1  2 0 3550 5761 2819
[16]  37(B01) 1f 40 22  0  -1094.7  4092002.8 -0.1  2 0 1266 1773  805
[17]  38(B02) 1f 39 26  0  -1133.8  4092002.8  0.3  2 0 1103 1487  774
[18]  39(B03) 1f 42 32  0  -1110.9  4092002.7 -0.2  2 0 1551 2078  450
[19]  40(B04) 1f 39 23  0  -1108.7  4092002.9 -0.3  2 0 1006 1641 1233
[20]  41(B05) 1f 36 19  0  -1143.0  4092002.9 -0.5  2 0 1141 1541 1007
[21]  43(B07) 1f 43 14  0  -1262.1  4092003.2  0.0  2 0 2185 2553  878
[24]  46(B10) 1f 43  7  0  -1551.1  4092003.9  0.0  2 0 1912 2617 1032
[25]  47(B11) 1f 44  7  0    173.4  4091999.4  0.0  2 0 2419 2861  982
[26]  49(B13) 1f 43  7  0  -2075.1  4092005.3 -0.0  2 0 1407 2097  601
[27]  54(B18) 1f 43  9  0  -1339.0  4092003.4 -0.1  2 0 2256 2899 1171
[28]  59(B23) 1f 44  7  0  -2878.5  4092007.4 -0.1  2 0 2336 3465 1506
[32]  77(N-4)  7 46  7  0  -3767.3  1022002.4 -0.0  2 0  1310 2055  829
[33]  78(N-3)  7 33  7  0   2678.4  1021998.1  0.1  5 0   632  481  245
[34]  79(N-2)  7 44 23  0    -24.0  1022000.0  0.1  2 0   858 1485  928
[35]  81(N00)  7 32 11  0  -5174.0  1022003.3  0.1  5 0   130  253  391
[36]  82(N01)  7 36 10  0   2673.1  1021998.2  0.1  2 0   440  646  417
[37]  83(N02)  1 32 12  0    121.0  1021999.9  1.0  1 0  1896 3321 1431
[38]  86(N05)  7 49 17  0    428.6  1021999.7  0.1  2 0  2342 3973 2067
[48]  37(B01)  1 14 18  0   -739.5 20460017.4  0.1  1 0  715  663  689
[49]  38(B02)  7 20 19  0  -2050.8 20460034.2 -0.0  2 0  540  363  206
[50]  39(B03)  1 19 13  1   -377.4 20460017.8  0.2  1 0  275  264  329
[51]  40(B04)  1 22 19  0   -939.0 20460018.7  0.1  1 0  284  663  424
[52]  41(B05)  1 22 20  0   -977.4 20460018.4 -0.1  1 0  403  430  313
$GNGGA,075857.938,,,,,0,00,,,M,,,,0000*21
$GNRMC,075857.938,A,,,,,,,200419,,*22
$GPGSA,A,1,,,,,,,,,,,,,,,*1E
$BDGSA,A,1,,,,,,,,,,,,,,,*0F
$GLGSA,A,1,,,,,,,,,,,,,,,*02
$GPGSV,3,1,10,01,00,000,46,07,00,000,45,08,00,000,39,11,00,000,44*7D
$GPGSV,3,2,10,13,00,000,37,17,00,000,39,18,00,000,43,22,00,000,39*77
$GPGSV,3,3,10,28,00,000,42,30,00,000,46*75
$BDGSV,3,1,11,01,00,000,40,02,00,000,39,03,00,000,42,04,00,000,39*6C
$BDGSV,3,2,11,05,00,000,36,07,00,000,43,10,00,000,43,11,00,000,44*6F
$BDGSV,3,3,11,13,00,000,43,18,00,000,43,23,00,000,44*52
$B3CN0,0,19,0,0,0,0,0,0,0,0,0,0,0,0*74
---00000013--- Acq_st=3 0  2000-1-1 0:1:47 
[00]  00(G01)  f 46  7  0  -1284.1  2046001.6  0.0  2 0 2609 4362 2357
[01]  08(G09)  7 32  7  0   1113.9  2045998.5  0.5  5 0 1036 1104 1022
[02]  06(G07)  f 45  7  0    929.9  2045998.7  0.0  2 0 2424 3623 1481
[03]  07(G08)  f 40  7  0   1475.0  2045998.0  0.1  2 0 1812 1876  351
[04]  10(G11)  f 44  7  0     58.8  2045999.9  0.0  2 0 1312 2652 1338
[05]  12(G13)  f 37  7  0  -1235.0  2046001.5 -0.7  2 0  902 1194  825
[06]  16(G17)  f 40  7  0  -2811.9  2046003.6  0.1  2 0  609 1589  979
[08]  17(G18)  f 44  7  0    561.3  2045999.2  0.1  2 0 1703 2346  933
[09]  21(G22)  f 39  9  0  -2897.3  2046003.7  0.0  2 0 1021 2012 1131
[10]  27(G28)  f 43  7  0  -2943.6  2046003.7  0.0  2 0 1755 2571  990
[11]  29(G30)  f 46  7  0  -1289.4  2046001.6 -0.0  2 0 3222 5494 3289
[16]  37(B01) 1f 41 13  0  -1097.5  4092002.7 -0.3  2 0 1082 1915  825
[17]  38(B02) 1f 39 20  0  -1140.8  4092002.9 -0.6  2 0 1428 1551  799
[18]  39(B03) 1f 43 31  0  -1111.0  4092002.8 -0.0  2 0 2087 2624 1393
[19]  40(B04) 1f 39 19  0  -1114.2  4092002.8  0.1  2 0 1279 1437  797
[20]  41(B05) 1f 37 25  0  -1144.2  4092002.8  0.8  2 0 1649 1227  111
[21]  43(B07) 1f 42 13  0  -1264.4  4092003.2  0.0  2 0 2230 2390  998
[22]  44(B08)  1  7  7  0  -1610.4  4092004.9  0.0  1 0 1490 2169  847
[24]  46(B10) 1f 43  7  0  -1555.9  4092003.9 -0.0  2 0 1589 2193  889
[25]  47(B11) 1f 43 10  0    169.8  4091999.4  0.0  2 0 2414 3257 1437
[26]  49(B13) 1f 42  7  0  -2079.9  4092005.3 -0.0  2 0 1467 2057  476
[27]  54(B18) 1f 43  7  0  -1342.2  4092003.4  0.0  2 0 2525 2927 1128
[28]  59(B23) 1f 44  7  0  -2879.5  4092007.4  0.0  2 0 2897 3135 1051
[32]  77(N-4)  f 37  7  0  -3771.8  1022002.4 -0.1  2 0  1519 2039  912
[33]  78(N-3)  f 31  7  0   2675.1  1021998.3  0.0  5 0   408  490  382
[34]  79(N-2)  f 37 21  0    -25.7  1022000.0  0.2  2 0   956 1232  375
[35]  81(N00)  f 30  7  0  -5173.7  1022003.2  0.1  5 0   203  607  679
[36]  82(N01)  f 33  7  0   2674.0  1021998.3  0.1  5 0   280  815  310
[38]  86(N05)  f 37  7  0    426.6  1021999.7 -0.1  2 0  2277 3565 1481
[48]  37(B01)  7 10 10  0   -808.5 20460013.5  0.1  2 0  402  216  331
[50]  39(B03)  1 36 23  0   -940.7 20460015.1 -0.0  1 0  526  574  202
[51]  40(B04)  1 24 20  1   -792.4 20460019.2 -0.1  1 0  334  377  386
[52]  41(B05)  1 23 26  1   -475.0 20460031.0 -0.1  1 0  597  883  988
[53]  43(B07)  1  7  7  0  -1441.7 20460018.6 -0.0  1 0  820  522  456
[56]  46(B10)  1  7  7  0  -1034.7 20460026.4 -0.1  1 0  558 1055  897
[57]  47(B11)  1  7  7  0     79.4 20459997.3 -0.0  1 0  192  321  652
[58]  49(B13)  1  7  7  0  -1810.3 20460031.8 -0.1  1 0  594  247  216
[59]  54(B18)  1  7  7  0  -1036.3 20460020.2 -0.0  1 0  629  782  801
[60]  59(B23)  1  7  7  0  -2096.0 20460045.5 -0.1  1 0  165  106   46
$GNGGA,075858.938,,,,,0,00,,,M,,,,0000*2E
$GNRMC,075858.938,A,,,,,,,200419,,*2D
$GPGSA,A,1,,,,,,,,,,,,,,,*1E
$BDGSA,A,1,,,,,,,,,,,,,,,*0F
$GLGSA,A,1,,,,,,,,,,,,,,,*02
$GPGSV,3,1,11,01,00,000,46,09,00,000,32,07,00,000,45,08,00,000,40*7A
$GPGSV,3,2,11,11,00,000,44,13,00,000,37,17,00,000,40,18,00,000,44*75
$GPGSV,3,3,11,22,00,000,39,28,00,000,43,30,00,000,46*4F
$BDGSV,3,1,11,01,00,000,41,02,00,000,39,03,00,000,43,04,00,000,39*6C
$BDGSV,3,2,11,05,00,000,37,07,00,000,42,10,00,000,43,11,00,000,43*68
$BDGSV,3,3,11,13,00,000,42,18,00,000,43,23,00,000,44*53
$B3CN0,0,0,0,0,0,0,0,0,0,0,0,0,0,0*4C
---00000014--- Acq_st=3 0  2000-1-1 0:1:48 
[00]  00(G01)  f 45  7  0  -1279.4  2046001.6  0.1  2 0 2613 4457 2133
[01]  08(G09)  7 35  7  0   1119.2  2045998.5 -0.2  2 0  374 1114  656
[02]  06(G07)  f 45 11  0    931.9  2045998.7 -0.0  2 0 2193 3436 1830
[03]  07(G08)  f 40 10  0   1478.4  2045998.0 -0.1  2 0 1097 2084  744
[04]  10(G11)  f 44  7  0     58.3  2045999.9  0.0  2 0 1373 3010 1341
[05]  12(G13)  f 37  7  0  -1232.7  2046001.5  0.0  2 0  866 1226  574
[06]  16(G17)  f 39  7  0  -2813.9  2046003.6  0.1  2 0 1095 1498  521
[08]  17(G18)  f 43  7  0    563.9  2045999.2  0.0  2 0 1004 2037 1187
[09]  21(G22)  f 39  7  0  -2897.5  2046003.6 -0.2  2 0  884 1674  975
[10]  27(G28)  f 42  7  0  -2942.6  2046003.7 -0.0  2 0 1594 2825 1558
[11]  29(G30)  f 46  7  0  -1286.2  2046001.6 -0.0  2 0 3621 5381 2259
[16]  37(B01) 1f 41 36  0  -1096.8  4092002.9 -0.1  2 0  775 1042  551
[17]  38(B02) 1f 40 25  0  -1136.7  4092002.9  0.6  2 0 1472 1722  963
[18]  39(B03) 1f 43 30  0  -1111.2  4092002.8  0.2  2 0 1377 1758 1090
[19]  40(B04) 1f 39 21  0  -1111.1  4092002.7  0.8  2 0 1078 1358  572
[20]  41(B05) 1f 37 21  0  -1144.4  4092002.9 -0.6  2 0 1029 1257  750
[21]  43(B07) 1f 43  7  0  -1263.3  4092003.2  0.0  2 0 1765 2316  925
[22]  44(B08)  7 24  7  0  -1608.5  4092004.1 -0.1 10 0 1591 2138  575
[24]  46(B10) 1f 43  7  0  -1554.6  4092004.0  0.1  2 0 1661 2185  543
[25]  47(B11) 1f 44  7  0    171.2  4091999.4  0.0  2 0 2896 3100 1349
[26]  49(B13) 1f 43  7  0  -2075.9  4092005.3  0.0  2 0 1717 2289  805
[27]  54(B18) 1f 43  7  0  -1342.9  4092003.4  0.0  2 0 2242 3005 1449
[28]  59(B23) 1f 44  7  0  -2875.8  4092007.4 -0.0  2 0 2239 3318 1762
[32]  77(N-4)  f 45  7  0  -3768.9  1022002.4  0.0  2 0  1173 2224  959
[33]  78(N-3)  f 33  7  0   2677.1  1021998.3 -0.0  5 0   220  544  396
[34]  79(N-2)  f 44 20  0    -23.2  1022000.0  0.1  2 0   846 1619  975
[35]  81(N00)  f 32  7  0  -5172.7  1022003.2 -0.0  5 0   482  542   88
[36]  82(N01)  f 36  7  0   2677.4  1021998.3  0.1  2 0   374  311  334
[38]  86(N05)  f 47  7  0    428.0  1021999.7  0.0  2 0  2635 4172 1628
[48]  37(B01)  7 10 21  0  -1241.1 20460018.1 -0.0  2 0  707  960  500
[49]  38(B02)  1 10 10  1  -1344.2 20460015.4  0.1  1 0   94   89   72
[50]  39(B03)  1 25 17  0   -917.0 20460020.8  0.1  1 0  824  305  270
[51]  40(B04)  1 23 16  0   -965.9 20460030.3  0.0  1 0   73  324  817
[52]  41(B05)  1 19 22  0   -609.1 20460017.6 -0.0  1 0 1031  850  150
[53]  43(B07)  1  7  7  0   -807.2 20460019.0 -0.2  1 0  209  399  371
[56]  46(B10)  1  7  7  0   -938.6 20460025.6 -0.1  1 0  756  593  520
[57]  47(B11)  7 23  7  0    130.6 20459996.7 -0.0 10 0  727  624  410
[58]  49(B13)  1 11  7  0  -1957.2 20460032.1  0.1  1 0  831  412  288
[59]  54(B18)  1  7  7  0    -49.2 20460021.7 -0.0  1 0  303  543 1282
[60]  59(B23)  1  7  7  0  -2033.4 20460046.9 -0.1  1 0  350  298  573
$GNGGA,075859.938,,,,,0,00,,,M,,,,0000*2F
$GNRMC,075859.938,A,,,,,,,200419,,*2C
$GPGSA,A,1,,,,,,,,,,,,,,,*1E
$BDGSA,A,1,,,,,,,,,,,,,,,*0F
$GLGSA,A,1,,,,,,,,,,,,,,,*02
$GPGSV,3,1,11,01,00,000,45,09,00,000,35,07,00,000,45,08,00,000,40*7E
$GPGSV,3,2,11,11,00,000,44,13,00,000,37,17,00,000,39,18,00,000,43*7C
$GPGSV,3,3,11,22,00,000,39,28,00,000,42,30,00,000,46*4E
$BDGSV,3,1,12,01,00,000,41,02,00,000,40,03,00,000,43,04,00,000,39*61
$BDGSV,3,2,12,05,00,000,37,07,00,000,43,08,00,000,24,10,00,000,43*63
$BDGSV,3,3,12,11,00,000,44,13,00,000,43,18,00,000,43,23,00,000,44*61
$B3CN0,0,0,0,0,0,0,0,0,0,0,23,0,0,0*7D
---00000015--- Acq_st=3 0  2000-1-1 0:1:49 
[00]  00(G01)  f 46  7  0  -1278.6  2046001.6 -0.0  2 0 2727 4149 1954
[01]  08(G09)  7 35 10  0   1117.6  2045998.5  0.0  2 0  711  901  645
[02]  06(G07)  f 44  7  0    934.0  2045998.7  0.0  2 0 3103 3695 1460
[03]  07(G08)  f 40  7  0   1477.5  2045998.0 -0.0  2 0  848 1413  177
[04]  10(G11)  f 44  7  0     61.7  2045999.9  0.0  2 0 2503 3624 2263
[05]  12(G13)  f 37  7  0  -1231.2  2046001.5 -0.1  2 0  437  829  549
[06]  16(G17)  f 39  7  0  -2811.2  2046003.6  0.0  2 0  519 1199  700
[08]  17(G18)  f 43  7  0    567.3  2045999.2  0.1  2 0 1899 2344  819
[09]  21(G22)  f 40 11  0  -2896.3  2046003.7  0.0  2 0 1281 2193 1317
[10]  27(G28)  f 43  7  0  -2939.5  2046003.7  0.1  2 0 1932 3109 1365
[11]  29(G30)  f 46  7  0  -1285.8  2046001.6 -0.0  2 0 3715 6209 3345
[16]  37(B01) 1f 41 17  0  -1094.7  4092002.8 -0.5  2 0 1385 1563  613
[17]  38(B02) 1f 40 24  0  -1137.3  4092002.8 -0.8  2 0 1128 1068  420
[18]  39(B03) 1f 45 31  0  -1111.6  4092002.8 -0.6  2 0 1408 1739  679
[19]  40(B04) 1f 39 20  0  -1108.8  4092002.8  0.4  2 0 1262 1582  437
[20]  41(B05) 1f 37 24  0  -1151.9  4092002.7 -0.6  2 0 1064  872  345
[21]  43(B07) 1f 43  8  0  -1263.7  4092003.2 -0.0  2 0 1505 2498 1407
[22]  44(B08)  7 43  7  0  -1606.9  4092004.1  0.0  2 0 1336 1813  859
[24]  46(B10) 1f 43  7  0  -1552.1  4092003.9 -0.0  2 0 2000 2401  400
[25]  47(B11) 1f 44  7  0    171.7  4091999.4 -0.0  2 0 2392 2764 1126
[26]  49(B13) 1f 43  7  0  -2077.8  4092005.3  0.0  2 0 1462 2127 1014
[27]  54(B18) 1f 43  7  0  -1344.7  4092003.4  0.0  2 0 2190 2916 1573
[28]  59(B23) 1f 45  7  0  -2879.5  4092007.4  0.0  2 0 2134 2763 1049
[29]  64(B28)  1  7  7  0  -3449.6  4092008.3 -0.1  1 0  237  224  374
[32]  77(N-4)  f 45  7  0  -3767.3  1022002.4 -0.1  2 0  1210 1806  578
[33]  78(N-3)  f 33  7  0   2678.4  1021998.2  0.1  5 0   386  230  266
[34]  79(N-2)  f 43 16  0    -23.0  1022000.0 -0.1  2 0   698 1605  978
[35]  81(N00)  f 33  7  0  -5172.3  1022003.2 -0.0  5 0   337  459  164
[36]  82(N01)  f 36  7  0   2675.9  1021998.2 -0.0  2 0   664  569   41
[38]  86(N05)  f 46  7  0    429.3  1021999.7 -0.0  2 0  2358 4116 2199
[48]  37(B01)  7 17 10  0  -1307.3 20460021.9  0.2  2 0  278  159  565
[49]  38(B02)  1 19 13  0  -1066.3 20460021.7  0.0  1 0  155  237  383
[51]  40(B04)  1 21 23  1  -1272.1 20460021.5  0.0  1 0  369  786  396
[53]  43(B07)  1  7  7  0   -830.2 20460016.4  0.0  1 0  610  293  441
[56]  46(B10)  1  7  7  0   -660.9 20460026.3  0.0  1 0   36  586  311
[57]  47(B11)  7 30  8  0    130.2 20459997.4 -0.1  5 0  624  491  442
[58]  49(B13)  1  7  7  0  -1919.9 20460032.1  0.0  1 0  309  279  267
[59]  54(B18)  1  7  7  0    -94.2 20460022.1  0.1  1 0  681  655  557
[60]  59(B23)  1  7  8  0  -1669.4 20460047.7 -0.1  1 0  705  384  315
$GNGGA,075900.938,,,,,0,00,,,M,,,,0000*22
$GNRMC,075900.938,A,,,,,,,200419,,*21
$GPGSA,A,1,,,,,,,,,,,,,,,*1E
$BDGSA,A,1,,,,,,,,,,,,,,,*0F
$GLGSA,A,1,,,,,,,,,,,,,,,*02
$GPGSV,3,1,11,01,00,000,46,09,00,000,35,07,00,000,44,08,00,000,40*7C
$GPGSV,3,2,11,11,00,000,44,13,00,000,37,17,00,000,39,18,00,000,43*7C
$GPGSV,3,3,11,22,00,000,40,28,00,000,43,30,00,000,46*41
$BDGSV,3,1,12,01,00,000,41,02,00,000,40,03,00,000,45,04,00,000,39*67
$BDGSV,3,2,12,05,00,000,36,07,00,000,43,08,00,000,43,10,00,000,43*63
$BDGSV,3,3,12,11,00,000,44,13,00,000,43,18,00,000,43,23,00,000,45*60
$B3CN0,16,0,0,0,0,0,0,0,0,0,30,0,0,0*48
---00000016--- Acq_st=7 0  2000-1-1 0:1:50 
[00]  00(G01)  f 46  7  0  -1280.9  2046001.6 -0.0  2 0 2373 4293 2051
[01]  08(G09)  f 34  7  0   1110.1  2045998.5 -0.2  2 0  594 1637  851
[02]  06(G07)  f 44  7  0    931.5  2045998.7  0.1  2 0 2177 2982 1772
[03]  07(G08)  f 40  9  0   1476.1  2045998.0  0.1  2 0  833 1429  727
[04]  10(G11)  f 43  7  0     59.6  2045999.8  0.0  2 0 2080 3316 1438
[05]  12(G13)  f 37  7  0  -1239.7  2046001.5  0.2  2 0  142  583  320
[06]  16(G17)  f 40  7  0  -2808.7  2046003.6 -0.2  2 0 1026 1504  762
[08]  17(G18)  f 43  7  0    564.3  2045999.2 -0.1  2 0 1665 3105 1520
[09]  21(G22)  f 40  7  0  -2892.7  2046003.7  0.0  2 0  960 1475  601
[10]  27(G28)  f 43  7  0  -2942.6  2046003.8 -0.0  2 0 1681 2534 1502
[11]  29(G30)  f 46  7  0  -1288.0  2046001.6 -0.0  2 0 3127 5341 2427
[16]  37(B01) 1f 41 10  0  -1101.1  4092002.8 -0.1  2 0 1304 1718  623
[17]  38(B02) 1f 39 26  0  -1140.7  4092002.8  0.3  2 0  882 1071  598
[18]  39(B03) 1f 42 30  0  -1114.9  4092002.8 -0.0  2 0 1465 2116 1166
[19]  40(B04) 1f 40 19  0  -1111.1  4092002.6  0.0  2 0 1126  930  319
[20]  41(B05) 1f 39 24  0  -1150.9  4092002.9 -0.7  2 0 1178 1038  401
[21]  43(B07) 1f 43  8  0  -1266.6  4092003.2  0.0  2 0 1637 1643  512
[22]  44(B08)  7 42 10  0  -1608.8  4092004.1  0.0  2 0 1642 2041  743
[24]  46(B10) 1f 43  7  0  -1555.1  4092004.0  0.1  2 0 1848 2431  714
[25]  47(B11) 1f 44  7  0    171.7  4091999.4 -0.0  2 0 2435 3004 1588
[26]  49(B13) 1f 43  8  0  -2079.9  4092005.3  0.0  2 0 1967 2655 1105
[27]  54(B18) 1f 44  7  0  -1343.5  4092003.4 -0.1  2 0 2279 2965 1175
[28]  59(B23) 1f 45  7  0  -2881.8  4092007.4 -0.0  2 0 2616 3401 1349
[29]  64(B28)  1  7  7  0  -3057.5  4092008.0 -0.1  1 0  230  694  407
[32]  77(N-4)  f 46  7  0  -3769.4  1022002.4  0.1  2 0  1217 2137  904
[33]  78(N-3)  f 34  7  0   2675.9  1021998.3 -0.0  5 0   500  645  345
[34]  79(N-2)  f 44 17  0    -22.8  1022000.0  0.1  2 0   698 1360  469
[35]  81(N00)  f 33  7  0  -5174.0  1022003.3  0.1  5 0   409  488   81
[36]  82(N01)  f 35  7  0   2674.8  1021998.2  0.1  2 0   454  734  343
[38]  86(N05)  f 46  7  0    428.0  1021999.7  0.0  2 0  2376 3833 1902
[48]  37(B01)  7 10 10  1  -1488.0 20460021.6  0.1  2 0   55  180  490
[49]  38(B02)  f 10 10  0  -1565.3 20460026.4 -0.1  2 0  471  132  876
[50]  39(B03)  1 22 21  1  -1136.6 20460022.5 -0.1  1 0  452  709  629
[52]  41(B05)  1 25 22  1   -467.9 20460022.0 -0.1  1 0  159  513  871
[53]  43(B07)  1  8  8  0   -605.0 20460018.8 -0.1  1 0  586  642   70
[56]  46(B10)  1  7  7  0   -766.3 20460024.0 -0.0  1 0  135   52  174
[57]  47(B11)  7 30  7  0    133.4 20459997.0 -0.0  5 0  414  150  108
[58]  49(B13)  1  7  7  0  -1555.2 20460032.9  0.1  1 0  126  428  555
[59]  54(B18)  1  7  7  0     39.3 20460022.0  0.1  1 0  109  273  320
[60]  59(B23)  1  7  7  0   -918.0 20460047.9 -0.2  1 0  435  411  242
$GNGGA,075901.938,,,,,0,00,,,M,,,,0000*23
$GNRMC,075901.938,A,,,,,,,200419,,*20
$GPGSA,A,1,,,,,,,,,,,,,,,*1E
$BDGSA,A,1,,,,,,,,,,,,,,,*0F
$GLGSA,A,1,,,,,,,,,,,,,,,*02
$GPGSV,3,1,11,01,00,000,46,09,00,000,34,07,00,000,44,08,00,000,40*7D
$GPGSV,3,2,11,11,00,000,43,13,00,000,37,17,00,000,40,18,00,000,43*75
$GPGSV,3,3,11,22,00,000,40,28,00,000,43,30,00,000,46*41
$BDGSV,3,1,12,01,00,000,41,02,00,000,39,03,00,000,42,04,00,000,40*60
$BDGSV,3,2,12,05,00,000,39,07,00,000,43,08,00,000,42,10,00,000,43*6D
$BDGSV,3,3,12,11,00,000,44,13,00,000,43,18,00,000,44,23,00,000,45*67
$B3CN0,0,0,0,0,0,0,0,0,0,0,30,0,0,0*7F
---00000017--- Acq_st=3 0  2000-1-1 0:1:51 
[00]  00(G01)  f 46  7  0  -1278.3  2046001.6  0.0  2 0 3161 4833 2140
[01]  08(G09)  f 34  7  0   1110.2  2045998.5  0.1  2 0  992  947  632
[02]  06(G07)  f 44  7  0    933.4  2045998.7 -0.0  2 0 2251 3373 1970
[03]  07(G08)  f 40  7  0   1475.6  2045998.0 -0.0  2 0  907 1343 1115
[04]  10(G11)  f 44  7  0     61.6  2045999.8 -0.0  2 0 1805 2773 1391
[05]  12(G13)  f 37  7  0  -1229.5  2046001.5  0.5  2 0  387  489  196
[06]  16(G17)  f 39 10  0  -2805.5  2046003.6 -0.0  2 0 1167 1349  470
[08]  17(G18)  f 42  7  0    562.5  2045999.2 -0.0  2 0 1970 2698  979
[09]  21(G22)  f 39  7  0  -2901.4  2046003.7 -0.1  2 0 1677 2018 1315
[10]  27(G28)  f 43  7  0  -2938.7  2046003.7 -0.0  2 0 1812 2718 1363
[11]  29(G30)  f 46  7  0  -1285.0  2046001.6  0.1  2 0 3500 5570 2831
[16]  37(B01) 1f 42 19  0  -1096.8  4092002.6  0.6  2 0 1256 1195  108
[17]  38(B02) 1f 40 25  0  -1136.7  4092002.9 -0.6  2 0 1154 1372  677
[18]  39(B03) 1f 43 31  0  -1113.2  4092002.8 -0.0  2 0 1495 2034 1068
[19]  40(B04) 1f 38 24  0  -1107.6  4092002.7 -0.7  2 0  716  763  146
[20]  41(B05) 1f 37 23  0  -1145.4  4092002.8  0.4  2 0  793  950   37
[21]  43(B07) 1f 42  7  0  -1265.3  4092003.2 -0.0  2 0 2196 2242  846
[22]  44(B08)  7 42  7  0  -1607.8  4092004.1  0.0  2 0 1475 2127 1208
[24]  46(B10) 1f 43  9  0  -1554.3  4092004.0 -0.0  2 0 1953 2938 1463
[25]  47(B11) 1f 44  7  0    168.4  4091999.4  0.0  2 0 2060 3093 1330
[26]  49(B13) 1f 43  7  0  -2075.8  4092005.3 -0.0  2 0 2076 2778  910
[27]  54(B18) 1f 43  7  0  -1342.1  4092003.4  0.0  2 0 2323 2822 1304
[28]  59(B23) 1f 45  7  0  -2877.6  4092007.4  0.0  2 0 2374 3102 1458
[29]  64(B28)  1  7  7  0  -3682.6  4092007.8  0.0  1 0  298  329  264
[32]  77(N-4) 8f 45  7  0  -3767.6  1022002.4 -0.0  2 0  1136 1841  808
[33]  78(N-3) 8f 34  7  0   2676.6  1021998.2  0.0  5 0   532  429  132
[34]  79(N-2) 8f 44 21  0    -21.8  1022000.0  0.1  2 0   765 1666  827
[35]  81(N00) 8f 33  7  0  -5172.9  1022003.3 -0.1  5 0   355  628  486
[36]  82(N01) 8f 35  7  0   2672.7  1021998.3  0.2  2 0   594  705   97
[38]  86(N05) 8f 46 11  0    429.4  1021999.7 -0.0  2 0  1896 3559 1940
[49]  38(B02)  f 10 10  1  -1749.3 20460027.1 -0.1  2 0  255  172   94
[50]  39(B03)  1 18 10  1  -1482.1 20460018.6 -0.0  1 0  359  631  616
[51]  40(B04)  1 23 19  0   -821.4 20460015.8 -0.0  1 0  780  360  453
[52]  41(B05)  1 24 23  0   -669.4 20460014.6  0.0  1 0  805  412  290
[57]  47(B11)  7 30  7  0    141.6 20459997.7  0.0  5 0  133  418  348
$GNGGA,075902.938,,,,,0,00,,,M,,,,0000*20
$GNRMC,075902.938,A,,,,,,,200419,,*23
$GPGSA,A,1,,,,,,,,,,,,,,,*1E
$BDGSA,A,1,,,,,,,,,,,,,,,*0F
$GLGSA,A,1,,,,,,,,,,,,,,,*02
$GPGSV,3,1,11,01,00,000,46,09,00,000,34,07,00,000,44,08,00,000,40*7D
$GPGSV,3,2,11,11,00,000,44,13,00,000,37,17,00,000,39,18,00,000,42*7D
$GPGSV,3,3,11,22,00,000,39,28,00,000,43,30,00,000,46*4F
$BDGSV,3,1,12,01,00,000,42,02,00,000,40,03,00,000,43,04,00,000,38*63
$BDGSV,3,2,12,05,00,000,37,07,00,000,42,08,00,000,42,10,00,000,43*62
$BDGSV,3,3,12,11,00,000,44,13,00,000,43,18,00,000,43,23,00,000,45*60
$B3CN0,0,0,0,0,0,0,0,0,0,0,30,0,0,0*7F
---00000018--- Acq_st=3 0  2000-1-1 0:1:52 
[00]  00(G01)  f 45  7  0  -1279.5  2046001.6 -0.0  2 0 2524 3946 2119
[01]  08(G09)  f 35  9  0   1109.9  2045998.5  0.1  2 0  126  650  934
[02]  06(G07)  f 44  7  0    937.6  2045998.7  0.0  2 0 2493 3933 2331
[03]  07(G08)  f 40  7  0   1476.3  2045998.0  0.1  2 0 1085 1617  708
[04]  10(G11)  f 44  7  0     64.6  2045999.8 -0.0  2 0 1531 2865 1121
[05]  12(G13)  f 36  7  0  -1237.2  2046001.5  0.0  2 0  636  808  900
[06]  16(G17)  f 39  8  0  -2807.1  2046003.6 -0.1  2 0 1087 1845  974
[08]  17(G18)  f 42  7  0    569.9  2045999.2  0.0  2 0 1298 2444 1297
[09]  21(G22)  f 40  7  0  -2895.4  2046003.7  0.1  2 0 1076 1339  830
[10]  27(G28)  f 43  7  0  -2940.8  2046003.7  0.1  2 0 2111 3095 1651
[11]  29(G30)  f 46  7  0  -1284.7  2046001.6 -0.1  2 0 3739 6049 2832
[16]  37(B01) 1f 40 24  0  -1099.5  4092002.7 -0.4  2 0 1424 1830  675
[17]  38(B02) 1f 39 24  0  -1131.9  4092002.8 -0.8  2 0 1210 1391  255
[18]  39(B03) 1f 43 31  0  -1109.2  4092002.7  0.1  2 0 1903 2600 1008
[19]  40(B04) 1f 40 22  0  -1110.3  4092002.8  0.3  2 0 1340 1920 1194
[20]  41(B05) 1f 37 23  0  -1147.9  4092002.9 -0.6  2 0  763 1001  492
[21]  43(B07) 1f 42 13  0  -1262.4  4092003.2  0.0  2 0 2162 2579  944
[22]  44(B08) 1f 42  7  0  -1606.1  4092004.1  0.0  2 0 2045 2473  964
[24]  46(B10) 1f 43  7  0  -1552.3  4092003.9 -0.0  2 0 1884 2281  991
[25]  47(B11) 1f 44  7  0    170.3  4091999.4  0.1  2 0 2057 2733 1326
[26]  49(B13) 1f 43  7  0  -2074.1  4092005.3 -0.0  2 0 2218 2441 1060
[27]  54(B18) 1f 43  7  0  -1341.8  4092003.4  0.1  2 0 1720 2442 1286
[28]  59(B23) 1f 45  7  0  -2876.7  4092007.4  0.0  2 0 2878 3755 1386
[29]  64(B28)  1  7 11  0  -3772.3  4092008.0  0.1  1 0  726  702  546
[32]  77(N-4) 8f 45  7  0  -3767.8  1022002.4 -0.1  2 0  1092 1979  766
[33]  78(N-3) 8f 34  7  0   2677.9  1021998.3  0.0  5 0   232  327  120
[34]  79(N-2) 8f 44 19  0    -21.3  1022000.0  0.1  2 0   594 1544  943
[35]  81(N00) 8f 33  7  0  -5172.7  1022003.3  0.1  5 0   145  207   66
[36]  82(N01) 8f 36  7  0   2675.3  1021998.1  0.0  2 0   365  489  208
[38]  86(N05) 8f 46  7  0    430.8  1021999.7 -0.0  2 0  2445 4013 1805
[48]  37(B01)  1 10 36  1   -970.3 20460021.6  0.2  1 0  720  523  259
[49]  38(B02)  f 36 10  0  -2216.3 20460034.9 -0.2  2 0  176  262  292
[50]  39(B03)  1 17 10  0  -1627.9 20460024.7  0.2  1 0  237  420  986
[51]  40(B04)  1 25 22  0   -847.8 20460020.5 -0.1  1 0  349  604  430
[52]  41(B05)  1 23 21  1   -585.3 20460022.9  0.0  1 0  116  117  488
[53]  43(B07)  1  7  7  0   -720.9 20460018.6 -0.1  1 0  298  279  421
[56]  46(B10)  1  7  7  0  -1603.6 20460024.9 -0.0  1 0  208  192  171
[57]  47(B11) 1f 30 13  0    131.1 20459997.6  0.0  5 0  847  591  351
[58]  49(B13)  1  7  9  0  -1767.1 20460032.1  0.1  1 0  321  238  144
[59]  54(B18)  1  7  7  0  -1031.6 20460019.5 -0.1  1 0  101  480  372
[60]  59(B23)  1  7  7  0  -2110.9 20460046.2  0.0  1 0  343  379  127
$GNGGA,075903.938,,,,,0,00,,,M,,,,0000*21
$GNRMC,075903.938,A,,,,,,,200419,,*22
$GPGSA,A,1,,,,,,,,,,,,,,,*1E
$BDGSA,A,1,,,,,,,,,,,,,,,*0F
$GLGSA,A,1,,,,,,,,,,,,,,,*02
$GPGSV,3,1,11,01,00,000,45,09,00,000,35,07,00,000,44,08,00,000,40*7F
$GPGSV,3,2,11,11,00,000,44,13,00,000,36,17,00,000,39,18,00,000,42*7C
$GPGSV,3,3,11,22,00,000,40,28,00,000,43,30,00,000,46*41
$BDGSV,3,1,12,01,00,000,40,02,00,000,39,03,00,000,43,04,00,000,40*60
$BDGSV,3,2,12,05,00,000,37,07,00,000,42,08,00,000,42,10,00,000,43*62
$BDGSV,3,3,12,11,00,000,44,13,00,000,43,18,00,000,43,23,00,000,45*60
$B3CN0,0,0,0,0,0,0,0,0,0,0,30,0,0,0*7F
---00000019--- Acq_st=3 0  2000-1-1 0:1:53 
[00]  00(G01)  f 46  7  0  -1276.4  2046001.6  0.0  2 0 3161 5197 2555
[01]  08(G09)  f 34  7  0   1123.2  2045998.5  0.0  2 0  285  505  282
[02]  06(G07)  f 45  7  0    938.0  2045998.7 -0.0  2 0 2432 3597 1811
[03]  07(G08)  f 40  7  0   1482.4  2045998.0 -0.0  2 0  606 1037  744
[04]  10(G11)  f 43 10  0     64.4  2045999.8 -0.0  2 0 1423 2285 1154
[05]  12(G13)  f 37  7  0  -1221.9  2046001.5  0.1  2 0  864  940  493
[06]  16(G17)  f 39  7  0  -2809.0  2046003.6  0.0  2 0  633  874  816
[08]  17(G18)  f 43  7  0    566.8  2045999.2 -0.0  2 0 1804 2973 1186
[09]  21(G22)  f 39  7  0  -2895.2  2046003.6 -0.0  2 0 1197 1785  590
[10]  27(G28)  f 43  7  0  -2936.7  2046003.8 -0.0  2 0 1777 2511 1026
[11]  29(G30)  f 46  7  0  -1283.0  2046001.6  0.0  2 0 3447 5172 1873
[16]  37(B01) 1f 40 10  0  -1095.6  4092002.6 -0.1  2 0 1100 1778  714
[17]  38(B02) 1f 40 27  0  -1137.7  4092002.8  0.5  2 0 1172 1154  246
[18]  39(B03) 1f 43 31  0  -1112.0  4092002.8 -0.5  2 0 2139 2454 1135
[19]  40(B04) 1f 40 18  0  -1115.0  4092002.7  0.7  2 0  849 1200  824
[20]  41(B05) 1f 37 22  0  -1146.6  4092002.9 -0.6  2 0 1250 1246  886
[21]  43(B07) 1f 43  8  0  -1262.5  4092003.2  0.0  2 0 1050 1259   90
[22]  44(B08) 1f 42  8  0  -1602.5  4092004.1 -0.0  2 0 1401 2002  961
[24]  46(B10) 1f 43  7  0  -1552.6  4092003.9  0.0  2 0  922 2127  827
[25]  47(B11) 1f 44  7  0    175.1  4091999.4 -0.1  2 0 2486 3417 1914
[26]  49(B13) 1f 43  7  0  -2072.8  4092005.3  0.0  2 0 2095 2346  792
[27]  54(B18) 1f 43  7  0  -1339.3  4092003.4  0.0  2 0 2505 3326 1449
[28]  59(B23) 1f 45  7  0  -2876.4  4092007.4  0.0  2 0 2591 3634 1859
[32]  77(N-4) 8f 46  7  0  -3764.7  1022002.4 -0.1  2 0  1190 1831  821
[33]  78(N-3) 8f 34  7  0   2678.0  1021998.1 -0.0  5 0   466  689  197
[34]  79(N-2) 8f 44 10  0    -20.5  1022000.0  0.1  2 0   688 1387  632
[35]  81(N00) 8f 33  7  0  -5170.2  1022003.3  0.1  5 0   259  527  252
[36]  82(N01) 8f 36  7  0   2679.9  1021998.3 -0.2  2 0   428  435  405
[38]  86(N05) 8f 46  8  0    431.9  1021999.7  0.1  2 0  2163 3987 2140
[48]  37(B01)  1 18 10  0  -1093.7 20460018.1 -0.0  1 0  274  256  140
[49]  38(B02)  f 17 10  0  -2691.3 20460041.7 -0.0  2 0   66  248  284
[50]  39(B03)  1 18 21  1  -1759.1 20460025.3  0.1  1 0  214  430  345
[51]  40(B04)  1 27 23  1     52.5 20460021.6 -0.1  1 0  789  711  874
[52]  41(B05)  1 20 22  1   -666.8 20460027.2 -0.0  1 0  302  394  201
[53]  43(B07)  1  7  7  0  -1236.6 20460020.0 -0.0  1 0  262  284  553
[54]  44(B08)  1  7  7  0  -1099.5 20460023.8  0.0  1 0  429  396  674
[56]  46(B10)  1  7  7  0  -2794.8 20460023.1 -0.1  1 0  218  193  335
[57]  47(B11) 1f 30 11  0    139.2 20459997.7 -0.1  5 0  515  944  585
[58]  49(B13)  1  7  8  0  -1935.9 20460031.8  0.0  1 0  355  497  838
[59]  54(B18)  1  7  7  0   -775.9 20460020.9  0.0  1 0 1035  857  270
[60]  59(B23)  1  7  7  0  -3078.5 20460043.7  0.0  1 0  297  480  321
$GNGGA,075904.938,,,,,0,00,,,M,,,,0000*26
$GNRMC,075904.938,A,,,,,,,200419,,*25
$GPGSA,A,1,,,,,,,,,,,,,,,*1E
$BDGSA,A,1,,,,,,,,,,,,,,,*0F
$GLGSA,A,1,,,,,,,,,,,,,,,*02
$GPGSV,3,1,11,01,00,000,46,09,00,000,34,07,00,000,45,08,00,000,40*7C
$GPGSV,3,2,11,11,00,000,43,13,00,000,37,17,00,000,39,18,00,000,43*7B
$GPGSV,3,3,11,22,00,000,39,28,00,000,43,30,00,000,46*4F
$BDGSV,3,1,12,01,00,000,40,02,00,000,40,03,00,000,43,04,00,000,40*6E
$BDGSV,3,2,12,05,00,000,37,07,00,000,43,08,00,000,42,10,00,000,43*63
$BDGSV,3,3,12,11,00,000,44,13,00,000,43,18,00,000,43,23,00,000,45*60
$B3CN0,0,16,0,0,0,0,0,0,0,0,30,0,0,0*48
---00000020--- Acq_st=3 0  2000-1-1 0:1:54 
[00]  00(G01)  f 46  7  0  -1275.2  2046001.6 -0.0  2 0 3014 4758 2230
[01]  08(G09)  f 33  7  0   1111.1  2045998.5  0.0  2 0  455 1002  592
[02]  06(G07)  f 45 11  0    938.1  2045998.7 -0.1  2 0 2361 3830 2199
[03]  07(G08)  f 40  7  0   1479.8  2045998.0 -0.0  2 0 1441 1043  194
[04]  10(G11)  f 44  7  0     65.5  2045999.9 -0.0  2 0 1631 3111 1194
[05]  12(G13)  f 36  7  0  -1219.4  2046001.6 -0.0  2 0 1156  460  131
[06]  16(G17)  f 38  7  0  -2812.8  2046003.6 -0.0  2 0  420  851  722
[08]  17(G18)  f 43  7  0    567.6  2045999.2  0.0  2 0 1847 3343 1339
[09]  21(G22)  f 40  7  0  -2890.9  2046003.6 -0.1  2 0 1286 1760  259
[10]  27(G28)  f 43  7  0  -2938.4  2046003.8 -0.0  2 0 1931 3005 1394
[11]  29(G30)  f 46  7  0  -1282.3  2046001.6  0.0  2 0 3143 5191 2114
[16]  37(B01) 1f 41 10  0  -1095.9  4092002.8 -0.0  2 0 1052 1918 1282
[17]  38(B02) 1f 40 10  0  -1135.4  4092002.9 -0.5  2 0  849 1297  837
[18]  39(B03) 1f 42 32  0  -1110.9  4092002.8  0.2  2 0 1933 2606 1240
[19]  40(B04) 1f 39 10  0  -1111.2  4092002.8 -0.6  2 0 1212 1168  396
[20]  41(B05) 1f 38 20  0  -1138.5  4092002.9  0.4  2 0  988 1274  782
[21]  43(B07) 1f 43 13  0  -1261.7  4092003.2 -0.1  2 0 2127 2532  988
[22]  44(B08) 1f 42  8  0  -1603.4  4092004.1 -0.0  2 0 1526 1901  619
[24]  46(B10) 1f 43  7  0  -1551.3  4092004.0 -0.0  2 0 1545 2383  764
[25]  47(B11) 1f 44  7  0    171.9  4091999.4  0.0  2 0 2370 2801  534
[26]  49(B13) 1f 43  7  0  -2075.2  4092005.3  0.0  2 0 1659 2332 1242
[27]  54(B18) 1f 43  7  0  -1338.1  4092003.4 -0.0  2 0 2346 3103 1108
[28]  59(B23) 1f 44  7  0  -2877.7  4092007.4 -0.0  2 0 2571 3253 1199
[29]  60(B24)  1  7  7  0   2250.0  4091996.8 -0.0  1 0  401  608 1275
[30]  61(B25)  1  7  7  0     -0.0  4091999.9 -0.0  1 0 2227 3725 1760
[32]  77(N-4) 8f 45  7  0  -3763.7  1022002.4  0.1  2 0  1243 2053 1057
[33]  78(N-3) 8f 34  7  0   2678.5  1021998.3  0.0  5 0   600  655  235
[34]  79(N-2) 8f 44  7  0    -18.8  1022000.0  0.1  2 0   984 1178  402
[35]  81(N00) 8f 33  7  0  -5169.9  1022003.3 -0.0  5 0   703 1090  532
[36]  82(N01) 8f 36  7  0   2677.1  1021998.3  0.1  2 0   271  617  708
[38]  86(N05) 8f 47  7  0    433.4  1021999.7 -0.0  2 0  2650 4347 1916
[48]  37(B01)  1 10 10  0  -1477.4 20460024.4 -0.1  1 0   92  271  138
[51]  40(B04)  1 20 24  1     55.8 20460018.9 -0.1  1 0  882  743  751
[53]  43(B07)  1  7  8  0   -978.9 20460020.7  0.0  1 0  265  116  365
[54]  44(B08)  1  8  7  0  -1596.2 20460023.9  0.2  1 0  387  153  264
[56]  46(B10)  1  7  8  0  -2660.5 20460024.0 -0.3  1 0  357  499  535
[57]  47(B11) 1f 31 12  0    132.5 20459996.9  0.1  5 0  359   60  492
[58]  49(B13)  1  7  7  0  -1258.6 20460032.9  0.0  1 0  144  412  366
[59]  54(B18)  1  7  7  0   -834.3 20460021.4 -0.2  1 0 1014  795  448
[60]  59(B23)  1  7  7  0  -3154.2 20460046.7  0.0  1 0  270   86  576
$GNGGA,075905.938,,,,,0,00,,,M,,,,0000*27
$GNRMC,075905.938,A,,,,,,,200419,,*24
$GPGSA,A,1,,,,,,,,,,,,,,,*1E
$BDGSA,A,1,,,,,,,,,,,,,,,*0F
$GLGSA,A,1,,,,,,,,,,,,,,,*02
$GPGSV,3,1,11,01,00,000,46,09,00,000,33,07,00,000,45,08,00,000,40*7B
$GPGSV,3,2,11,11,00,000,44,13,00,000,36,17,00,000,38,18,00,000,43*7C
$GPGSV,3,3,11,22,00,000,40,28,00,000,43,30,00,000,46*41
$BDGSV,3,1,12,01,00,000,41,02,00,000,40,03,00,000,42,04,00,000,39*60
$BDGSV,3,2,12,05,00,000,38,07,00,000,43,08,00,000,42,10,00,000,43*6C
$BDGSV,3,3,12,11,00,000,44,13,00,000,43,18,00,000,43,23,00,000,44*61
$B3CN0,0,0,0,0,0,0,0,0,0,0,31,0,0,0*7E
---00000021--- Acq_st=3 0  2000-1-1 0:1:55 
[00]  00(G01)  f 45  7  0  -1277.5  2046001.6  0.0  2 0 2687 4337 1907
[01]  08(G09)  f 34  7  0   1113.3  2045998.5 -0.2  2 0  325  977  838
[02]  06(G07)  f 44  8  0    935.4  2045998.7  0.0  2 0 2204 3270 1629
[03]  07(G08)  f 40  7  0   1475.2  2045998.0 -0.1  2 0 1216 2081 1179
[04]  10(G11)  f 43  7  0     63.9  2045999.8  0.0  2 0 2193 3339 1748
[05]  12(G13)  f 37  7  0  -1225.5  2046001.5  0.2  2 0  804 1335  619
[06]  16(G17)  f 38  7  0  -2808.1  2046003.6 -0.3  2 0 1025  977  320
[08]  17(G18)  f 42  7  0    571.0  2045999.2  0.0  2 0 1885 2695  969
[09]  21(G22)  f 40  7  0  -2895.4  2046003.8 -0.1  2 0  689 1412 1055
[10]  27(G28)  f 43  7  0  -2945.5  2046003.8 -0.0  2 0 1954 2984 1130
[11]  29(G30)  f 46  8  0  -1283.9  2046001.6  0.0  2 0 3172 5678 2566
[16]  37(B01) 1f 39 36  0  -1099.9  4092002.8  0.6  2 0 1434 2189  854
[17]  38(B02) 1f 40 26  0  -1139.8  4092002.8  0.5  2 0  894 1494  970
[18]  39(B03) 1f 43 30  0  -1116.7  4092002.8 -0.2  2 0 1762 2352 1067
[19]  40(B04) 1f 40 22  0  -1110.9  4092002.9 -0.3  2 0 1376 1367  599
[20]  41(B05) 1f 39 10  0  -1147.0  4092002.9  0.8  2 0  840 1088  700
[21]  43(B07) 1f 42 11  0  -1265.0  4092003.2 -0.0  2 0 1880 1898  641
[22]  44(B08) 1f 42  7  0  -1607.9  4092004.1 -0.1  2 0 1107 1776  246
[24]  46(B10) 1f 43  7  0  -1555.5  4092003.9  0.1  2 0 2112 2700  659
[25]  47(B11) 1f 44  7  0    171.2  4091999.4 -0.0  2 0 2226 2897 1304
[26]  49(B13) 1f 43  7  0  -2074.7  4092005.3  0.0  2 0 1330 2070 1120
[27]  54(B18) 1f 43  7  0  -1341.8  4092003.4  0.0  2 0 2404 3303 1508
[28]  59(B23) 1f 44  7  0  -2878.4  4092007.4  0.0  2 0 2686 3548 1226
[29]  60(B24)  1  7  9  0   1995.1  4091995.1  0.3  1 0  924 1288  361
[30]  61(B25)  1  7  7  0    135.1  4091999.4  0.2  1 0 2247 3486 1573
[32]  77(N-4) 8f 46  7  0  -3766.9  1022002.4  0.0  2 0  1091 1962 1156
[33]  78(N-3) 8f 34  7  0   2675.6  1021998.2  0.0  5 0   308  512  453
[34]  79(N-2) 8f 44 14  0    -20.8  1022000.0 -0.0  2 0  1188 1750  865
[35]  81(N00) 8f 33  7  0  -5173.4  1022003.2 -0.0  5 0    72  498  222
[36]  82(N01) 8f 36  7  0   2675.8  1021998.3 -0.1  2 0   128  732  297
[38]  86(N05) 8f 47  7  0    430.2  1021999.7  0.0  2 0  2405 3804 1795
[48]  37(B01)  1 10 10  0  -1504.7 20460021.3  0.0  1 0  420  629  488
[49]  38(B02)  1 10 10  0   -960.0 20460021.0  0.1  1 0  124  551  196
[50]  39(B03)  1 24 20  0  -1051.7 20460016.4 -0.1  1 0  644  616  250
[52]  41(B05)  1 22 25  0   -738.2 20460016.8  0.2  1 0  269  104  659
[53]  43(B07)  1  7  7  0  -1650.3 20460020.5 -0.1  1 0  279  335  308
[54]  44(B08)  1  8  7  0  -1655.2 20460024.5  0.1  1 0  228  204  474
[56]  46(B10)  1  7  7  0  -2428.6 20460024.2 -0.1  1 0  455  481  556
[57]  47(B11) 1f 30 11  0    125.8 20459997.0 -0.0  5 0  379  125   70
[58]  49(B13)  1  7 11  0   -906.6 20460031.3 -0.0  1 0  550  169   69
[59]  54(B18)  1  7  7  0   -626.9 20460019.5  0.1  1 0 1119 1189  397
[60]  59(B23)  1  7  7  0  -2774.8 20460045.3  0.1  1 0  758 1390 1202
$GNGGA,075906.938,,,,,0,00,,,M,,,,0000*24
$GNRMC,075906.938,A,,,,,,,200419,,*27
$GPGSA,A,1,,,,,,,,,,,,,,,*1E
$BDGSA,A,1,,,,,,,,,,,,,,,*0F
$GLGSA,A,1,,,,,,,,,,,,,,,*02
$GPGSV,3,1,11,01,00,000,45,09,00,000,34,07,00,000,44,08,00,000,40*7E
$GPGSV,3,2,11,11,00,000,43,13,00,000,37,17,00,000,38,18,00,000,42*7B
$GPGSV,3,3,11,22,00,000,40,28,00,000,43,30,00,000,46*41
$BDGSV,3,1,12,01,00,000,39,02,00,000,40,03,00,000,43,04,00,000,40*60
$BDGSV,3,2,12,05,00,000,39,07,00,000,42,08,00,000,42,10,00,000,43*6C
$BDGSV,3,3,12,11,00,000,44,13,00,000,43,18,00,000,43,23,00,000,44*61
$B3CN0,0,0,0,0,0,0,0,0,0,0,30,0,0,0*7F
---00000022--- Acq_st=7 0  2000-1-1 0:1:56 
[00]  00(G01)  f 45  7  0  -1274.9  2046001.6  0.0  2 0 2183 4293 2518
[01]  08(G09)  f 34  8  0   1115.8  2045998.5 -0.1  2 0  964 1163  977
[02]  06(G07)  f 45  7  0    934.8  2045998.7 -0.1  2 0 2668 3655 2017
[03]  07(G08)  f 40  7  0   1472.7  2045998.0 -0.0  2 0 1400 2283 1172
[04]  10(G11)  f 43  7  0     65.8  2045999.8  0.1  2 0 2037 3371 1608
[05]  12(G13)  f 37  7  0  -1235.0  2046001.5  0.3  2 0  568  936  693
[06]  16(G17)  f 37  7  0  -2810.3  2046003.6 -0.1  2 0  793 1923 1233
[08]  17(G18)  f 43  7  0    571.3  2045999.2  0.0  2 0 1397 2556 1194
[09]  21(G22)  f 39  7  0  -2900.1  2046003.7  0.0  2 0  553 1340  895
[10]  27(G28)  f 42  7  0  -2941.2  2046003.8  0.1  2 0 1047 2197 1244
[11]  29(G30)  f 45  7  0  -1282.1  2046001.6 -0.0  2 0 3869 5053 2163
[16]  37(B01) 1f 41 14  0  -1094.8  4092002.7  0.3  2 0 1281 1954  934
[17]  38(B02) 1f 40 13  0  -1141.8  4092002.7  0.2  2 0 1147  714  170
[18]  39(B03) 1f 43 33  0  -1111.4  4092002.8 -0.3  2 0 1284 1871  928
[19]  40(B04) 1f 40 20  0  -1112.4  4092002.8  0.4  2 0  932 1317  625
[20]  41(B05) 1f 37 25  0  -1146.7  4092002.9  0.4  2 0  655  712  169
[21]  43(B07) 1f 42 12  0  -1265.2  4092003.2  0.0  2 0 1825 2325 1397
[22]  44(B08) 1f 42  7  0  -1604.7  4092004.1 -0.0  2 0 1427 1877  923
[24]  46(B10) 1f 43  8  0  -1551.6  4092003.9 -0.0  2 0 1984 2385  517
[25]  47(B11) 1f 44  7  0    173.4  4091999.4  0.0  2 0 2376 3201 1589
[26]  49(B13) 1f 43  7  0  -2074.2  4092005.3  0.0  2 0 1802 2835 1025
[27]  54(B18) 1f 43  7  0  -1341.0  4092003.4  0.1  2 0 2325 2671  778
[28]  59(B23) 1f 44  7  0  -2876.6  4092007.4 -0.0  2 0 2724 3410 1419
[29]  60(B24)  7 30  7  0   1999.3  4091994.6  0.3  5 0  826 1219  644
[30]  61(B25)  7 30  7  0    140.8  4091999.6  0.2  5 0 2751 3732 1515
[32]  77(N-4) 8f 46  7  0  -3765.2  1022002.4 -0.0  2 0  1394 2062 1148
[33]  78(N-3) 8f 34  7  0   2678.0  1021998.3 -0.0  5 0   413  705  200
[34]  79(N-2) 8f 43 18  0    -18.8  1022000.0 -0.1  2 0   927 1685  826
[35]  81(N00) 8f 33  7  0  -5173.3  1022003.3 -0.1  5 0   596  910  416
