SD initialized success
Create debug.log Failed! 3
bbram_blkflag = 1
rtcflag = 0
BBRAM Block OK: 01 EPHflag: 280305c1 340012cf, rtc 00
Hot-start nowtime:day = 24,minute = 18,seconds = 01.00
GPS Pred_Dopp 1 -2324.16
sv_pvt.vx:117.222145,sv_pvt.vy:-952.125549,sv_pvt.vz:3056.673828
vel[0]:0.000000, vel[1]:-952.125488, vel[2]:3056.673828
-0.599942 0.777092 0.190260,df:-213.620000
BD Pred_Dopp 1 -1103.89
BD Pred_Dopp 2 -1138.68
BD Pred_Dopp 3 -1120.44
BD Pred_Dopp 4 -1114.97
GPS Pred_Dopp 7    36.73
sv_pvt.vx:-596.507690,sv_pvt.vy:591.445679,sv_pvt.vz:-3058.171387
vel[0]:0.000000, vel[1]:591.445312, vel[2]:-3058.171387
-0.202756 0.966977 0.154423,df:-213.620000
BD Pred_Dopp 7 -1340.06
GPS Pred_Dopp 8  1470.16
sv_pvt.vx:-1666.611816,sv_pvt.vy:-2141.679932,sv_pvt.vz:-646.325195
vel[0]:0.000000, vel[1]:-2141.679688, vel[2]:-646.325195
-0.587871 -0.016978 0.808777,df:-213.620000
BD Pred_Dopp 8 -1877.16
GPS Pred_Dopp 9  1461.10
sv_pvt.vx:-1332.075317,sv_pvt.vy:-1293.936279,sv_pvt.vz:-2339.672363
vel[0]:0.000000, vel[1]:-1293.935547, vel[2]:-2339.672363
0.235002 0.663118 -0.710668,df:-213.620000
BD Pred_Dopp 10 -1577.00
GPS Pred_Dopp 11  -784.68
sv_pvt.vx:-428.475647,sv_pvt.vy:-1933.323608,sv_pvt.vz:2158.937500
vel[0]:0.000000, vel[1]:-1933.323242, vel[2]:2158.937500
-0.431153 0.699172 0.570321,df:-213.620000
BD Pred_Dopp 13 -2289.83
GPS Pred_Dopp 17 -3213.03
sv_pvt.vx:-218.725586,sv_pvt.vy:33.490097,sv_pvt.vz:3216.554932
vel[0]:0.000000, vel[1]:33.490082, vel[2]:3216.554932
0.688240 0.720560 -0.084374,df:-213.620000
GPS Pred_Dopp 18  -437.89
sv_pvt.vx:410.654205,sv_pvt.vy:-1926.533447,sv_pvt.vz:2310.470703
vel[0]:0.000000, vel[1]:-1926.533203, vel[2]:2310.470703
-0.700246 0.448870 0.555132,df:-213.620000
BD Pred_Dopp 27  1595.41
GPS Pred_Dopp 28 -2921.61
sv_pvt.vx:-2495.540771,sv_pvt.vy:196.303436,sv_pvt.vz:1222.081787
vel[0]:0.000000, vel[1]:196.303345, vel[2]:1222.081787
0.539744 0.349309 0.765937,df:-213.620000
BD Pred_Dopp 29 -3129.49
GPS Pred_Dopp 30 -2216.99
sv_pvt.vx:-1050.956421,sv_pvt.vy:1712.580444,sv_pvt.vz:-2154.078857
vel[0]:0.000000, vel[1]:1712.580078, vel[2]:-2154.078857
0.213838 0.768364 0.603233,df:-213.620000
BD Pred_Dopp 30  -529.67
GPS 0 Init Dop: -2199, 2
GPS 1 Init Dop: 10000,80
GPS 2 Init Dop: 10000,80
GPS 3 Init Dop: 10000,80
GPS 4 Init Dop: 10000,80
GPS 5 Init Dop: 10000,80
GPS 6 Init Dop:   161, 2
GPS 7 Init Dop:  1595, 2
GPS 8 Init Dop:  1586, 2
GPS 9 Init Dop: 10000,80
GPS10 Init Dop:  -659, 2
GPS11 Init Dop: 10000,80
GPS12 Init Dop: 10000,80
GPS13 Init Dop: 10000,80
GPS14 Init Dop: 10000,80
GPS15 Init Dop: 10000,80
GPS16 Init Dop: -3088, 2
GPS17 Init Dop:  -312, 2
GPS18 Init Dop: 10000,80
GPS19 Init Dop: 10000,80
GPS20 Init Dop: 10000,80
GPS21 Init Dop: 10000,80
GPS22 Init Dop: 10000,80
GPS23 Init Dop: 10000,80
GPS24 Init Dop: 10000,80
GPS25 Init Dop: 10000,80
GPS26 Init Dop: 10000,80
GPS27 Init Dop: -2796, 2
GPS28 Init Dop: 10000,80
GPS29 Init Dop: -2091, 2
GPS30 Init Dop: 10000,80
GPS31 Init Dop: 10000,80
BDS 0 Init Dop:  -978, 2
BDS 1 Init Dop: -1013, 2
BDS 2 Init Dop:  -995, 2
BDS 3 Init Dop:  -989, 2
BDS 4 Init Dop: 10000,80
BDS 5 Init Dop: 10000,80
BDS 6 Init Dop: -1215, 2
BDS 7 Init Dop: -1752, 2
BDS 8 Init Dop: 10000,80
BDS 9 Init Dop: -1452, 2
BDS10 Init Dop: 10000,80
BDS11 Init Dop: 10000,80
BDS12 Init Dop: -2164, 2
BDS13 Init Dop: 10000,80
BDS14 Init Dop: 10000,80
BDS15 Init Dop: 10000,80
BDS16 Init Dop: 10000,80
BDS17 Init Dop: 10000,80
BDS18 Init Dop: 10000,80
BDS19 Init Dop: 10000,80
BDS20 Init Dop: 10000,80
BDS21 Init Dop: 10000,80
BDS22 Init Dop: 10000,80
BDS23 Init Dop: 10000,80
BDS24 Init Dop: 10000,80
BDS25 Init Dop: 10000,80
BDS26 Init Dop:  1720, 2
BDS27 Init Dop: 10000,80
BDS28 Init Dop: -3004, 2
BDS29 Init Dop:  -404, 2
BDS30 Init Dop: 10000,80
BDS31 Init Dop: 10000,80
Good luck!
ch0 satid=0 freq=-2199 acq ok!
ch1 satid=6 freq=161 acq ok!
ch2 satid=7 freq=1595 acq ok!
ch3 satid=10 freq=-659 acq ok!
ch6 satid=17 freq=-312 acq ok!
$GNGGA,000000.000,,,,,0,00,,,M,,,,0000*2B
$GNRMC,000000.000,A,,,,,,,060180,,*29
$GPGSA,A,1,,,,,,,,,,,,,,,*1E
$BDGSA,A,1,,,,,,,,,,,,,,,*0F
$GLGSA,A,1,,,,,,,,,,,,,,,*02
$B3CN0,0,0,0,0,0,0,0,0,0,0,0,0,0,0*4C
---00000001--- Acq_st=3 0  2019-4-24 7:18:2 
[00]  00(G01)  1 26  7  0  -2284.0  2046004.5  0.5  1 0 1909 3106 1478
[01]  06(G07)  1  7  7  0     77.4  2046000.9  0.0  1 0 2442 4813 2536
[02]  07(G08)  1  7  7  0   1508.6  2045997.7  0.1  1 0 1044 2953 1408
[03]  10(G11)  1  7  7  0   -659.0  2046002.1  0.0  1 0 1398 2776 2182
[04]  12(G13)  1  7  7  0  -2250.0  2046003.0 -0.0  1 0  134  450  554
[05]  16(G17)  1  7  7  0  -3338.0  2046005.1  0.0  1 0  369  732 1239
[06]  17(G18)  1  7  7  0   -312.0  2046002.1 -0.0  1 0  604 1107 2589
ch8 satid=27 freq=-3046 acq ok!
ch9 satid=29 freq=-2091 acq ok!
ch18 satid=39 freq=-1245 acq ok!
$GNGGA,000000.000,,,,,0,00,,,M,,,,0000*2B
$GNRMC,000000.000,A,,,,,,,060180,,*29
$GPGSA,A,1,,,,,,,,,,,,,,,*1E
$BDGSA,A,1,,,,,,,,,,,,,,,*0F
$GLGSA,A,1,,,,,,,,,,,,,,,*02
$B3CN0,0,0,0,0,0,0,0,0,0,0,0,0,0,0*4C
---00000002--- Acq_st=3 0  2019-4-24 7:18:3 
[00]  00(G01)  7 26  7  0  -2280.9  2046002.9  0.6 10 0 2676 2685 1455
[01]  06(G07)  1 26  7  0     76.8  2045999.7  1.0  1 0 3040 3809 1855
[02]  07(G08)  1 25  7  0   1510.2  2045997.9  0.9  1 0 1128 2228 1037
[03]  10(G11)  1 27  7  0   -743.6  2046000.8  0.9  1 0 1349 3120 2043
[04]  12(G13)  1 23  7  0  -1991.0  2046002.9  0.4  1 0 1032  679  441
[05]  16(G17)  1 20  7  0  -3169.0  2046005.1  0.4  1 0  801  458  293
[06]  17(G18)  1 25  7  0   -398.1  2046000.8  0.7  1 0 1689 2760 1342
[08]  27(G28)  1  7  7  0  -3046.0  2046005.2  0.0  1 0  461  460 1932
[09]  29(G30)  1  7  7  0  -2091.0  2046004.8 -0.0  1 0  313 2677 5106
[16]  37(B01)  1 10 10  0  -1228.0  4092004.0  0.0  1 0  404  261  673
[17]  38(B02)  1 10 10  0  -1013.0  4092003.9  0.0  1 0  145  951 1690
[18]  39(B03)  1 10 10  0  -1245.0  4092004.4  0.0  1 0  720 1399 1953
[19]  40(B04)  1 10 10  0  -1239.0  4092003.3  0.0  1 0  380  333  497
ch20 satid=43 freq=-1465 acq ok!
ch21 satid=44 freq=-2002 acq ok!
ch22 satid=46 freq=-1452 acq ok!
ch24 satid=49 freq=-2164 acq ok!
$GNGGA,000000.000,,,,,0,00,,,M,,,,0000*2B
$GNRMC,000000.000,A,,,,,,,060180,,*29
$GPGSA,A,1,,,,,,,,,,,,,,,*1E
$BDGSA,A,1,,,,,,,,,,,,,,,*0F
$GLGSA,A,1,,,,,,,,,,,,,,,*02
$GPGSV,1,1,01,01,00,000,26*4D
$B3CN0,0,0,0,0,0,0,0,0,0,0,0,0,0,0*4C
---00000003--- Acq_st=3 0  2019-4-24 7:18:4 
[00]  00(G01)  7 43  7  0  -2271.1  2046002.8 -0.1  2 0 2234 3252 1856
[01]  06(G07)  7 40  7  0     89.7  2045999.8  0.1  2 0 3184 3760 1857
[02]  07(G08)  7 39  7  0   1520.0  2045998.0  0.0  2 0 1484 2557 1182
[03]  10(G11)  7 36  7  0   -738.0  2046000.9  0.2  2 0 1255 2326 1186
[04]  12(G13)  7 30  7  0  -1983.0  2046002.6  0.2  5 0  599  666  104
[05]  16(G17)  7 26  7  0  -3168.1  2046004.0  0.4 10 0  798  687  379
[06]  17(G18)  7 27  7  0   -386.9  2046000.4  0.6 10 0 1794 2992 1574
[08]  27(G28)  1 30  8  0  -2872.1  2046004.8  0.6  1 0 1814 2386  919
[09]  29(G30)  1 27  7  0  -2169.2  2046003.0  0.7  1 0 3466 5050 2199
[16]  37(B01)  1 40 10  0  -1059.2  4092004.6  1.0  1 0  485 1276  522
[17]  38(B02)  1 37 29  0  -1089.8  4092004.4  0.9  1 0   42  611  847
[18]  39(B03)  1 43 33  0  -1073.7  4092002.5  1.0  1 0 2189 1964  592
[19]  40(B04)  1 37 24  0  -1067.6  4092006.4  0.9  1 0  306  975 1330
[20]  43(B07)  1  7  7  0  -1292.4  4092004.1  0.1  1 0 1622 2388 1145
[21]  44(B08)  1  7  7  0  -1811.3  4092006.5  0.1  1 0  251   85  838
[22]  46(B10)  1  7  7  0  -1495.0  4092006.3  0.1  1 0  472 1478 2791
[24]  49(B13)  1  7  7  0  -2164.0  4092006.6 -0.0  1 0  487  494  858
$GNGGA,000000.000,,,,,0,00,,,M,,,,0000*2B
$GNRMC,000000.000,A,,,,,,,060180,,*29
$GPGSA,A,1,,,,,,,,,,,,,,,*1E
$BDGSA,A,1,,,,,,,,,,,,,,,*0F
$GLGSA,A,1,,,,,,,,,,,,,,,*02
$GPGSV,2,1,07,01,00,000,43,07,00,000,40,08,00,000,39,11,00,000,36*7F
$GPGSV,2,2,07,13,00,000,30,17,00,000,26,18,00,000,27*41
$B3CN0,0,0,0,0,0,0,0,0,0,0,0,0,0,0*4C
---00000004--- Acq_st=3 0  2019-4-24 7:18:5 
[00]  00(G01)  7 42  7  0  -2274.1  2046002.9  0.1  2 0 2065 2526 1264
[01]  06(G07)  7 45  7  0     88.3  2045999.8 -0.1  2 0 3148 4430 1956
[02]  07(G08)  7 41  7  0   1518.7  2045998.0  0.0  2 0 1059 2050 1029
[03]  10(G11)  7 43  7  0   -735.1  2046000.9  0.0  2 0 1754 2883 1247
[04]  12(G13)  7 35  7  0  -1988.5  2046002.5 -0.2  2 0 1102 1405  208
[05]  16(G17)  7 36  8  0  -3166.6  2046004.0  0.3  2 0  804  647  373
[06]  17(G18)  7 43  7  0   -386.7  2046000.4 -0.0  2 0 1937 3192 1674
[08]  27(G28)  7 32  7  0  -2876.7  2046003.6  0.4  5 0 1658 2038  947
[09]  29(G30)  7 31  7  0  -2167.6  2046002.7  0.5  5 0 2780 4102 1923
[16]  37(B01)  f 37 16  0  -1056.7  4092002.5  0.5  2 0 1435 1075  337
[17]  38(B02)  7 40 24  0  -1087.2  4092002.8 -0.6  2 0  918 1492  967
[18]  39(B03)  7 35 33  1  -1008.1  4092002.9  0.0  2 0 2039 1267  379
[19]  40(B04)  f 39 25  0  -1068.6  4092002.6  0.5  2 0 1693 1360  460
[20]  43(B07)  7 10  7  0  -1293.4  4092003.3  0.3 10 0 1205 2333 1122
[21]  44(B08)  7 10  7  0  -1831.2  4092004.7  0.4 10 0 1918 2241 1273
[22]  46(B10)  1  7  7  0  -1531.6  4092003.8  0.6  1 0 1279 2094  601
[24]  49(B13)  1  7  7  0  -1754.0  4092008.0  0.3  1 0  382  709  547
ch25 satid=63 freq=1720 acq ok!
$GNGGA,000000.000,,,,,0,00,,,M,,,,0000*2B
$GNRMC,000000.000,A,,,,,,,060180,,*29
$GPGSA,A,1,,,,,,,,,,,,,,,*1E
$BDGSA,A,1,,,,,,,,,,,,,,,*0F
$GLGSA,A,1,,,,,,,,,,,,,,,*02
$GPGSV,3,1,09,01,00,000,42,07,00,000,45,08,00,000,41,11,00,000,43*79
$GPGSV,3,2,09,13,00,000,35,17,00,000,36,18,00,000,43,28,00,000,32*73
$GPGSV,3,3,09,30,00,000,31*41
$BDGSV,1,1,04,01,00,000,37,02,00,000,40,03,00,000,36,04,00,000,39*67
$B3CN0,0,0,0,0,0,0,0,0,0,0,0,0,0,0*4C
---00000005--- Acq_st=3 0  2019-4-24 7:18:6 
[00]  00(G01)  7 42  7  0  -2281.0  2046002.9  0.0  2 0 2093 2814  880
[01]  06(G07)  7 45  7  0     78.9  2045999.8  0.0  2 0 3018 4176 1751
[02]  07(G08)  7 41  7  0   1509.5  2045998.0 -0.0  2 0  998 2284  898
[03]  10(G11)  7 43  7  0   -743.0  2046000.9 -0.0  2 0 2194 2742 1448
[04]  12(G13)  7 35 12  0  -1991.0  2046002.5 -0.2  2 0  598 1041  845
[05]  16(G17)  7 36  9  0  -3173.0  2046004.0 -0.3  2 0  723  925  730
[06]  17(G18)  7 43  7  0   -395.3  2046000.4  0.1  2 0 2490 3148 1099
[08]  27(G28)  7 42  7  0  -2885.6  2046003.6 -0.0  2 0 1145 2074  904
[09]  29(G30)  7 45  7  0  -2175.7  2046002.8 -0.0  2 0 2603 4220 2369
[16]  37(B01)  f 38 10  0  -1067.6  4092002.6  0.3  2 0 1675 1542  181
[17]  38(B02)  f 39 24  0  -1095.0  4092002.7  0.6  2 0 1304 1491  443
[18]  39(B03)  7 36 30  1  -1004.3  4092002.7  0.0  2 0 2459 1289  167
[19]  40(B04)  f 39 14  0  -1078.2  4092002.7  0.3  2 0  992 1193  787
[20]  43(B07)  7 43  7  0  -1303.3  4092003.3  0.0  2 0 1514 2256 1122
[21]  44(B08)  7 43  7  0  -1844.3  4092004.7  0.0  2 0 1967 2054 1038
[22]  46(B10)  7 37  7  0  -1536.7  4092003.9  0.1  2 0 1441 2316  851
[24]  49(B13)  1  7  7  0  -1752.2  4092005.8  0.1  1 0  656  984  541
[25]  63(B27)  1  7  7  0   1720.0  4091997.8  0.0  1 0  523  485 1476
[48]  37(B01)  1 23 36  1   -582.3 20460017.0 -0.1  1 0  683  472  495
[51]  40(B04)  1 26 18  0   -996.0 20460014.4 -0.0  1 0  254   74  405
ch26 satid=65 freq=-3254 acq ok!
ch27 satid=66 freq=-404 acq ok!
ch32 satid=78 freq=1750 acq ok!
$GNGGA,071807.812,2944.9011,N,10633.0877,E,1,08,1.4,308.3,M,,,,0000*1B
$GNRMC,071807.812,A,2944.9011,N,10633.0877,E,1.16,0.00,090180,,*14
$GPGSA,A,3,01,07,08,11,17,18,28,30,,,,,2.5,1.4,2.1*3B
$BDGSA,A,3,,,,,,,,,,,,,2.5,1.4,2.1*22
$GLGSA,A,3,,,,,,,,,,,,,2.5,1.4,2.1*2F
$GPGSV,3,1,09,01,00,000,42,07,00,000,44,08,00,000,41,11,00,000,43*78
$GPGSV,3,2,09,13,00,000,35,17,00,000,36,18,00,000,43,28,00,000,42*74
$GPGSV,3,3,09,30,00,000,45*42
$BDGSV,2,1,07,01,00,000,39,02,00,000,38,03,00,000,36,04,00,000,40*68
$BDGSV,2,2,07,07,00,000,43,08,00,000,43,10,00,000,37*55
$B3CN0,0,0,0,0,0,0,0,0,0,0,0,0,0,0*4C
ch33 satid=79 freq=-1500 acq ok!
---00000006--- Acq_st=2 0  2000-1-9 7:18:8 
[00]  00(G01)  f 42  9  0  -2281.1  2046002.9 -0.1  2 0 1524 2819 1458
[01]  06(G07)  f 45  7  0     80.2  2045999.8  0.0  2 0 2552 4016 1903
[02]  07(G08)  f 41  7  0   1511.7  2045998.0 -0.1  2 0 1256 2386 1238
[03]  10(G11)  f 42  7  0   -740.6  2046000.9 -0.0  2 0 1483 2827 1635
[04]  12(G13)  7 34  7  0  -1983.4  2046002.5 -0.1  2 0  456  538  113
[05]  16(G17)  f 36  8  0  -3175.5  2046004.0 -0.0  2 0 1213 1391  343
[06]  17(G18)  f 43  7  0   -395.6  2046000.4  0.0  2 0 2044 3323 1733
[08]  27(G28)  f 42  8  0  -2884.7  2046003.6  0.0  2 0 1819 2762 1313
[09]  29(G30)  f 45  9  0  -2173.4  2046002.7 -0.0  2 0 3165 4909 2127
[16]  37(B01)  f 39 10  0  -1064.8  4092002.6  0.9  2 0  744 1511  962
[17]  38(B02)  f 39 23  0  -1097.1  4092002.8 -0.4  2 0 1600 2036  935
[18]  39(B03)  f 39 32  0  -1085.5  4092002.6 -0.2  2 0 2100 1498  519
[19]  40(B04)  f 39 20  0  -1073.7  4092002.7 -0.2  2 0  801 1257 1029
[20]  43(B07)  7 42  7  0  -1299.0  4092003.3 -0.0  2 0 1952 2282  791
[21]  44(B08)  7 42  7  0  -1837.8  4092004.7 -0.0  2 0 2090 2229  953
[22]  46(B10)  7 43 11  0  -1538.5  4092003.9 -0.0  2 0  877 2028  771
[24]  49(B13)  1  7  7  0  -1752.4  4092005.5  0.2  1 0 1025 1763  991
[25]  63(B27)  1  8  7  0   1632.5  4091995.8  0.2  1 0 1728 2075  985
[26]  65(B29)  1  7  7  0  -3095.5  4092008.2  0.1  1 0 1500 2090  600
[27]  66(B30)  1  7  7  0   -497.2  4092005.1  0.0  1 0  492 2716 3911
[32]  78(N-3)  1  7  7  0   2336.7  1022001.1  0.0  1 0   241  592 1707
[33]  79(N-2)  1  7  7  0 259422.5  1022001.7 -0.0  1 0   297  530 1355
[48]  37(B01)  1 10 19  0   -603.3 20460024.0 -0.0  1 0  636  957  426
[49]  38(B02)  1 19 22  0   -916.0 20460018.7  0.1  1 0  101  230  444
[51]  40(B04)  1 24 16  1   -714.7 20460018.7 -0.1  1 0  395  289  170
ch34 satid=82 freq=2500 acq ok!
ch35 satid=83 freq=-500 acq ok!
---00000007--- Acq_st=7 0  2000-1-9 7:18:9 
[00]  00(G01)  f 42  7  0  -2282.0  2046002.9  0.1  2 0 2384 3369 1133
[01]  06(G07)  f 45  7  0     77.7  2045999.8  0.0  2 0 2786 3726 1541
[02]  07(G08)  f 41  7  0   1502.5  2045998.0 -0.0  2 0 1353 1759  942
[03]  10(G11)  f 43  7  0   -744.1  2046000.9 -0.0  2 0 1563 2751 1509
[04]  12(G13)  7 34  8  0  -1998.8  2046002.5  0.0  2 0  413  811  217
[05]  16(G17)  f 36  7  0  -3175.2  2046004.0 -0.2  2 0 1167 1431  735
[06]  17(G18)  f 43  7  0   -394.9  2046000.5 -0.0  2 0 2447 3130 1765
[08]  27(G28)  f 43  7  0  -2884.7  2046003.7  0.0  2 0 2177 2468  909
[09]  29(G30)  f 45  7  0  -2175.6  2046002.8 -0.0  2 0 2856 4459 2206
[16]  37(B01) 1f 39 10  0  -1070.4  4092002.7  0.3  2 0 1105 1722 1140
[17]  38(B02) 1f 40 26  0  -1102.9  4092002.8  0.1  2 0  935 1288  697
[18]  39(B03) 1f 41 31  0  -1085.7  4092002.6 -0.6  2 0 2255 2041  916
[19]  40(B04) 1f 39 24  0  -1079.7  4092002.8 -0.2  2 0  988 1570  892
[20]  43(B07)  7 42  7  0  -1304.2  4092003.3  0.0  2 0 1712 2297 1051
[21]  44(B08)  7 43 12  0  -1844.0  4092004.7 -0.0  2 0 1670 2077 1009
[22]  46(B10)  7 42 13  0  -1540.3  4092004.0 -0.0  2 0 1248 1942 1115
[24]  49(B13)  1  7  7  0  -1759.7  4092005.7  0.1  1 0 1189 1545  442
[25]  63(B27)  7 27  7  0   1628.4  4091995.6  0.2 10 0 1066 1773  913
[26]  65(B29)  7 24  7  0  -3097.8  4092008.1  0.3 10 0 1484 2233  778
[27]  66(B30)  7 24  7  0   -497.0  4092001.1  0.2 10 0 3503 3443 1339
[32]  78(N-3)  1 21 20  0   1829.3  1021999.3  1.0  1 0  1736 1858  840
[33]  79(N-2)  1 21 12  0  -1509.7  1022001.9  0.9  1 0   734 1536  576
[34]  82(N01)  1 24 25  1   2406.7  1022000.2  0.4  1 0   102  647  404
[35]  83(N02)  1  7 14  0   -505.6  1022001.0 -0.1  1 0   860 1865 1342
[48]  37(B01)  1 36 17  0   -667.1 20460017.1 -0.0  1 0  652 1039  524
[49]  38(B02)  1 10 10  0  -1560.9 20460019.3  0.0  1 0  890  162  384
[50]  39(B03)  1 16 10  1   -732.0 20460016.3  0.1  1 0  757  497  623
[51]  40(B04)  1 25 18  1   -533.7 20460020.7 -0.0  1 0  420  253  354
calculate DOP row 0,[ -0.21  -0.77  -0.60   1.00]
calculate DOP row 1,[  0.20  -0.97  -0.15   1.00]
calculate DOP row 2,[  0.60  -0.78  -0.19   1.00]
calculate DOP row 3,[  0.43  -0.70  -0.57   1.00]
calculate DOP row 4,[  0.70  -0.45  -0.56   1.00]
calculate DOP row 5,[ -0.54  -0.35  -0.77   1.00]
calculate DOP row 6,[  0.59   0.02  -0.81   1.00]
calculate DOP row 7,[ -0.69  -0.72   0.08   1.00]
DOP:  0.51   2.95   2.89   2.79
Refix G01: 2, 285506.931386, -2284
Refix G07: 2, 285506.932187, 75
Refix G08: 2, 285506.924208, 1504
Refix G09: 2, 285506.917342, 1487
Refix G11: 2, 285506.932260, -744
Refix G17: 2, 285506.921696, -3180
Refix G18: 2, 285506.930855, -397
Refix G28: 2, 285506.923890, -2887
Refix G30: 2, 285506.930894, -2176
$GNGGA,071809.000,2944.9009,N,10633.0894,E,1,12,1.4,307.4,M,,,,0000*19
$GNRMC,071809.000,A,2944.9009,N,10633.0894,E,1.07,0.00,090180,,*15
$GPGSA,A,3,01,07,08,11,17,18,28,30,,,,,2.5,1.4,2.1*3B
$BDGSA,A,3,01,02,03,04,,,,,,,,,2.5,1.4,2.1*26
$GLGSA,A,3,,,,,,,,,,,,,2.5,1.4,2.1*2F
$GPGSV,3,1,09,01,00,000,42,07,00,000,45,08,00,000,41,11,00,000,43*79
$GPGSV,3,2,09,13,00,000,34,17,00,000,36,18,00,000,43,28,00,000,43*74
$GPGSV,3,3,09,30,00,000,45*42
$BDGSV,3,1,10,01,00,000,39,02,00,000,40,03,00,000,41,04,00,000,38*6F
$BDGSV,3,2,10,07,00,000,42,08,00,000,43,10,00,000,42,27,00,000,27*61
$BDGSV,3,3,10,29,00,000,24,30,00,000,24*61
$B3CN0,0,0,0,0,0,0,0,0,0,0,0,0,0,0*4C
---00000008--- Acq_st=3 0  2000-1-9 7:18:9 
[00]  00(G01)  f 43  7  0  -2287.0  2046002.9 -0.1  2 0 1646 3035 1697
[01]  06(G07)  f 45  7  0     75.3  2045999.8  0.0  2 0 2367 3597 2115
[02]  07(G08)  f 41  9  0   1501.0  2045998.0 -0.0  2 0  791 1357 1042
[03]  10(G11)  f 43  7  0   -744.0  2046000.9  0.0  2 0 1751 2852 1040
[04]  12(G13)  7 35 15  0  -1994.9  2046002.5  0.5  2 0  349  792  433
[05]  16(G17)  f 36  7  0  -3179.6  2046004.1  0.5  2 0  761  822  304
[06]  17(G18)  f 43  7  0   -402.3  2046000.5 -0.1  2 0 1943 3275 1469
[08]  27(G28)  f 43  8  0  -2891.4  2046003.7 -0.0  2 0 1322 2509 1189
[09]  29(G30)  f 45  7  0  -2178.6  2046002.8 -0.1  2 0 2335 4240 1669
[10]  02(G03)  1  7  7  0  -3486.1  2046005.0  0.1  1 0  490   29 1025
[16]  37(B01) 1f 39 20  0  -1071.2  4092002.7 -0.2  2 0 1323 1406  565
[17]  38(B02) 1f 39 23  0  -1110.0  4092002.9  0.2  2 0 1071 1542  522
[18]  39(B03) 1f 42 32  0  -1087.0  4092002.6  0.2  2 0 1711 1410  447
[19]  40(B04) 1f 40 13  0  -1082.8  4092002.6 -0.4  2 0  982  852  527
[20]  43(B07) 1f 42  7  0  -1305.8  4092003.3  0.0  2 0 1671 2141 1073
[21]  44(B08) 1f 42  7  0  -1848.0  4092004.7 -0.1  2 0 1911 1907  525
[22]  46(B10) 1f 42  7  0  -1545.3  4092003.9 -0.0  2 0 1611 2251 1112
[25]  63(B27)  7 41  7  0   1628.2  4091995.6  0.1  2 0 1809 1929  495
[26]  65(B29)  7 43  7  0  -3097.3  4092008.1 -0.0  2 0 1683 2393  849
[27]  66(B30)  7 45  7  0   -499.7  4092001.1 -0.0  2 0 3272 3052  749
[32]  78(N-3)  1 26 23  0   1826.5  1021998.4  1.0  1 0  1859 2398 1302
[33]  79(N-2)  1 26  7  0  -1512.0  1022000.8  1.0  1 0  1309 1837 1018
[34]  82(N01)  1 31 12  0   2404.1  1021998.3  1.0  1 0   692  732  570
[35]  83(N02)  1 23 14  0   -508.2  1022000.2  0.3  1 0   697 1659  859
[48]  37(B01)  1 17 14  1   -290.4 20460026.3  0.1  1 0  551  678  389
[49]  38(B02)  1 10 13  1  -1135.8 20460022.3 -0.1  1 0  551  654  317
[50]  39(B03)  1 22 23  0   -418.1 20460014.0 -0.2  1 0  367  509   49
[51]  40(B04)  1 20 21  1   -635.8 20460023.5  0.1  1 0  638  468  477
calculate DOP row 0,[  0.20  -0.97  -0.15   1.00]
calculate DOP row 1,[ -0.21  -0.77  -0.60   1.00]
calculate DOP row 2,[  0.43  -0.70  -0.57   1.00]
calculate DOP row 3,[  0.70  -0.45  -0.56   1.00]
calculate DOP row 4,[ -0.54  -0.35  -0.77   1.00]
calculate DOP row 5,[  0.60  -0.78  -0.19   1.00]
calculate DOP row 6,[  0.60  -0.58  -0.54   0.00]
calculate DOP row 7,[  0.39  -0.90  -0.18   0.00]
calculate DOP row 8,[  0.18  -0.62  -0.76   0.00]
calculate DOP row 9,[  0.36  -0.93   0.08   0.00]
calculate DOP row 10,[  0.59   0.02  -0.81   1.00]
calculate DOP row 11,[  0.81  -0.58   0.06   0.00]
calculate DOP row 12,[ -0.16  -0.98   0.11   0.00]
calculate DOP row 13,[  0.97  -0.23   0.07   0.00]
calculate DOP row 14,[ -0.69  -0.72   0.08   1.00]
DOP:  0.27   0.25   0.65   0.32
Refix G01: 2, 285507.931387, -2285
Refix G07: 2, 285507.932187, 74
Refix G08: 2, 285507.924207, 1503
Refix G09: 2, 285507.917341, 1488
Refix G11: 2, 285507.932261, -746
Refix G17: 2, 285507.921698, -3179
Refix G18: 2, 285507.930856, -398
Refix G28: 2, 285507.923892, -2889
Refix G30: 2, 285507.930896, -2178
$GNGGA,071810.000,2944.9011,N,10633.0894,E,1,15,0.9,310.8,M,,,,0000*19
$GNRMC,071810.000,A,2944.9011,N,10633.0894,E,0.61,0.00,090180,,*15
$GPGSA,A,3,01,07,08,11,17,18,28,30,,,,,1.1,0.9,0.5*36
$BDGSA,A,3,01,02,03,04,07,08,10,,,,,,1.1,0.9,0.5*25
$GLGSA,A,3,,,,,,,,,,,,,1.1,0.9,0.5*22
$GPGSV,3,1,10,01,62,128,43,07,68,192,45,08,32,042,41,11,76,063,43*78
$GPGSV,3,2,10,13,00,000,35,17,22,249,36,18,55,072,43,28,32,313,43*77
$GPGSV,3,3,10,30,62,293,45,09,07,204,00*7E
$BDGSV,3,1,11,01,40,125,39,02,46,218,39,03,55,171,42,04,23,109,40*69
$BDGSV,3,2,11,07,64,075,42,08,69,159,42,10,70,359,42,27,27,041,41*6B
$BDGSV,3,3,11,29,37,239,43,30,76,345,45,13,46,192,00*53
$B3CN0,0,0,0,0,0,0,0,0,0,0,0,0,0,0*4C
---00000009--- Acq_st=3 0  2000-1-9 7:18:10 
[00]  00(G01)  f 42  7  0  -2288.4  2046002.9  0.0  2 0 2264 3330 1244
[01]  06(G07)  f 45  8  0     76.4  2045999.8 -0.0  2 0 3454 4525 2452
[02]  07(G08)  f 41  9  0   1503.0  2045998.0  0.0  2 0 1274 1764  664
[03]  10(G11)  f 43 11  0   -748.5  2046000.9  0.0  2 0 2062 3183 1887
[04]  12(G13)  7 35 10  0  -2002.2  2046002.4 -0.2  2 0  748  419  510
[05]  16(G17)  f 36  7  0  -3182.3  2046004.1  0.1  2 0  409  919  868
[06]  17(G18)  f 43  7  0   -401.9  2046000.5  0.0  2 0 1566 3028 1264
[08]  27(G28)  f 43  7  0  -2889.5  2046003.7  0.0  2 0 1875 3300 1565
[09]  29(G30)  f 45  9  0  -2178.9  2046002.8 -0.0  2 0 3429 4658 1839
[10]  02(G03)  1  7  7  0  -3782.5  2046006.3 -0.0  1 0  651  885  534
[11]  21(G22)  1 15  7  0  -3097.6  2046004.8 -0.1  1 0  202  918 1405
[16]  37(B01) 1f 39 23  0  -1069.7  4092002.6  0.0  2 0 1011 1274  609
[17]  38(B02) 1f 40 26  0  -1105.6  4092002.9  0.2  2 0  753 1712  965
[18]  39(B03) 1f 42 32  0  -1090.3  4092002.7 -0.3  2 0 1271 1510  428
[19]  40(B04) 1f 38 24  0  -1084.6  4092002.8  0.6  2 0 1176 1247  324
[20]  43(B07) 1f 42  7  0  -1306.1  4092003.3 -0.0  2 0 1690 2128  630
[21]  44(B08) 1f 42  8  0  -1849.3  4092004.7  0.0  2 0 1587 1993  905
[22]  46(B10) 1f 43  7  0  -1546.5  4092003.9  0.1  2 0 1891 2410  751
[25]  63(B27)  7 41  7  0   1625.6  4091995.6 -0.1  2 0 1625 1715  492
[26]  65(B29)  7 43  9  0  -3100.1  4092008.0  0.0  2 0 1555 2329 1143
[27]  66(B30)  7 45  7  0   -499.8  4092001.2 -0.0  2 0 2611 3764 2161
[32]  78(N-3)  7 38 22  0   1827.8  1021998.8  0.2  2 0  1362 2664 1514
[33]  79(N-2)  7 34  7  0  -1511.0  1022000.9  0.3  5 0   724 1503  949
[34]  82(N01)  7 23  7  0   2401.9  1021998.5  0.8 10 0   583  782  260
[35]  83(N02)  7 17  7  0   -508.7  1022000.3  0.2 10 0  1011 1862 1300
[48]  37(B01)  7 10 10  1   -432.1 20460008.2 -0.1  2 0  552  564  239
[49]  38(B02)  f 10 10  1  -1162.4 20460020.5  0.1  2 0  489  177  309
[50]  39(B03)  1 13 21  0   -310.4 20460025.6 -0.1  1 0  225  312  559
[52]  43(B07)  1  7  7  0  -1028.3 20460020.3  0.1  1 0  177  354  610
[53]  44(B08)  1  7  9  0  -1425.6 20460029.0  0.1  1 0  378  204  976
[54]  46(B10)  1  7  7  0  -1433.0 20460023.2  0.3  1 0  442  192  307
calculate DOP row 0,[ -0.21  -0.77  -0.60   1.00]
calculate DOP row 1,[  0.20  -0.97  -0.15   1.00]
calculate DOP row 2,[  0.43  -0.70  -0.57   1.00]
calculate DOP row 3,[  0.70  -0.45  -0.56   1.00]
calculate DOP row 4,[ -0.54  -0.35  -0.77   1.00]
calculate DOP row 5,[  0.36  -0.93   0.08   0.00]
calculate DOP row 6,[  0.18  -0.62  -0.76   0.00]
calculate DOP row 7,[  0.60  -0.78  -0.19   1.00]
calculate DOP row 8,[  0.60  -0.58  -0.54   0.00]
calculate DOP row 9,[  0.39  -0.90  -0.18   0.00]
calculate DOP row 10,[  0.59   0.02  -0.81   1.00]
calculate DOP row 11,[ -0.16  -0.98   0.11   0.00]
calculate DOP row 12,[  0.81  -0.58   0.06   0.00]
calculate DOP row 13,[  0.97  -0.23   0.07   0.00]
calculate DOP row 14,[ -0.69  -0.72   0.08   1.00]
DOP:  0.27   0.25   0.65   0.32
Refix G01: 2, 285508.931389, -2285
Refix G07: 2, 285508.932187, 75
Refix G08: 2, 285508.924206, 1501
Refix G09: 2, 285508.917340, 1489
Refix G11: 2, 285508.932261, -746
Refix G17: 2, 285508.921700, -3179
Refix G18: 2, 285508.930856, -398
Refix G28: 2, 285508.923893, -2890
Refix G30: 2, 285508.930897, -2178
$GNGGA,071811.000,2944.9011,N,10633.0896,E,1,15,0.9,311.5,M,,,,0000*16
$GNRMC,071811.000,A,2944.9011,N,10633.0896,E,0.06,0.00,090180,,*17
$GPGSA,A,3,01,07,08,11,17,18,28,30,,,,,1.1,0.9,0.5*36
$BDGSA,A,3,01,02,03,04,07,08,10,,,,,,1.1,0.9,0.5*25
$GLGSA,A,3,,,,,,,,,,,,,1.1,0.9,0.5*22
$GPGSV,3,1,10,01,62,128,42,07,68,192,45,08,32,042,41,11,76,063,43*79
$GPGSV,3,2,10,13,00,000,35,17,22,249,36,18,55,072,43,28,32,313,43*77
$GPGSV,3,3,10,30,62,293,45,09,07,204,00*7E
$BDGSV,3,1,11,01,40,125,39,02,46,218,40,03,55,171,42,04,23,109,38*68
$BDGSV,3,2,11,07,64,075,42,08,69,159,42,10,70,359,43,27,27,041,41*6A
$BDGSV,3,3,11,29,37,239,43,30,76,345,45,13,46,192,00*53
$B3CN0,0,0,0,0,0,0,0,0,0,0,0,0,0,0*4C
---00000010--- Acq_st=3 0  2000-1-9 7:18:11 
[00]  00(G01)  f 42  7  0  -2279.1  2046002.9  0.0  2 0 1817 2461 1181
[01]  06(G07)  f 44  7  0     78.2  2045999.8  0.0  2 0 2627 4329 2456
[02]  07(G08)  f 41  7  0   1504.5  2045998.0  0.0  2 0  899 1844  985
[03]  10(G11)  f 43  7  0   -739.9  2046000.9 -0.1  2 0 1289 2443 1425
[04]  12(G13)  7 35 10  0  -1998.2  2046002.6 -0.2  2 0  147  547  506
[05]  16(G17)  f 36  7  0  -3177.1  2046004.1 -0.0  2 0  742 1404  401
[06]  17(G18)  f 43  9  0   -393.0  2046000.5  0.0  2 0 1532 2710 1087
[08]  27(G28)  f 42 10  0  -2886.0  2046003.7  0.0  2 0 1548 2201  974
[09]  29(G30)  f 45  7  0  -2176.2  2046002.8  0.0  2 0 2624 3457 1309
[10]  02(G03)  1  7  7  0  -3840.3  2046004.7  0.0  1 0  814  861   49
[11]  21(G22)  7 18  7  0  -3041.5  2046003.8  0.6 10 0  909 1640  622
[16]  37(B01) 1f 39 18  0  -1067.9  4092002.7  0.5  2 0 1148 1544  857
[17]  38(B02) 1f 39 22  0  -1105.8  4092002.9  0.7  2 0 1105 1548  433
[18]  39(B03) 1f 42 32  0  -1083.0  4092002.6  0.2  2 0 1578 2030  671
[19]  40(B04) 1f 40 17  0  -1075.9  4092002.6  0.5  2 0  669 1043  462
[20]  43(B07) 1f 42  7  0  -1306.9  4092003.3  0.1  2 0 1622 2249  902
[21]  44(B08) 1f 43  7  0  -1843.8  4092004.7  0.0  2 0 2119 2106  824
[22]  46(B10) 1f 43  7  0  -1542.8  4092003.9 -0.0  2 0 1249 1799  632
[24]  41(B05)  1 10 10  1  -1609.9  4092005.2  0.0  1 0  569  896  497
[25]  63(B27)  7 41  7  0   1630.9  4091995.6  0.0  2 0 1268 1447  384
[26]  65(B29)  7 43  7  0  -3091.9  4092008.0  0.0  2 0 2352 2620 1177
[27]  66(B30)  7 44  7  0   -493.5  4092001.2  0.1  2 0 3036 3515 1628
[32]  78(N-3)  7 49 23  0   1833.2  1021998.8  0.1  2 0  1086 2501 1370
[33]  79(N-2)  7 44 13  0  -1504.2  1022000.9 -0.1  2 0   986 1552  808
[34]  82(N01)  7 39 16  0   2406.6  1021998.4 -0.3  2 0   325  855  564
[35]  83(N02)  7 45 15  0   -501.0  1022000.3  0.1  2 0  1458 2058 1040
[48]  37(B01)  7 10 10  0   -633.6 20460009.1  0.1  2 0  374  386  324
[49]  38(B02)  f 17 23  0  -1495.5 20460022.3 -0.0  2 0  924  536  155
[50]  39(B03)  1 19 24  0   -696.4 20460017.5  0.0  1 0  221  297  265
[51]  40(B04)  1 20 23  0  -1015.8 20460020.0  0.2  1 0  335  306  196
[52]  43(B07)  1  7  7  0   -762.7 20460022.0 -0.1  1 0  595  654  345
[53]  44(B08)  1  7  7  0   -982.1 20460027.7 -0.1  1 0  221  523  688
[54]  46(B10)  1  7  7  0  -1764.6 20460024.0  0.2  1 0  469  636  759
calculate DOP row 0,[  0.20  -0.97  -0.15   1.00]
calculate DOP row 1,[ -0.21  -0.77  -0.60   1.00]
calculate DOP row 2,[  0.43  -0.70  -0.57   1.00]
calculate DOP row 3,[  0.70  -0.45  -0.56   1.00]
calculate DOP row 4,[  0.60  -0.58  -0.54   0.00]
calculate DOP row 5,[  0.39  -0.90  -0.18   0.00]
calculate DOP row 6,[  0.19  -0.62  -0.76   0.00]
calculate DOP row 7,[  0.60  -0.78  -0.19   1.00]
calculate DOP row 8,[ -0.54  -0.35  -0.77   1.00]
calculate DOP row 9,[  0.36  -0.93   0.08   0.00]
calculate DOP row 10,[  0.59   0.02  -0.81   1.00]
calculate DOP row 11,[ -0.16  -0.98   0.11   0.00]
calculate DOP row 12,[  0.97  -0.23   0.07   0.00]
calculate DOP row 13,[  0.81  -0.58   0.06   0.00]
calculate DOP row 14,[ -0.69  -0.72   0.08   1.00]
DOP:  0.27   0.25   0.65   0.32
Refix G01: 2, 285509.931390, -2278
Refix G07: 2, 285509.932187, 82
Refix G08: 2, 285509.924205, 1507
Refix G09: 2, 285509.917339, 1493
Refix G11: 2, 285509.932261, -738
Refix G17: 2, 285509.921702, -3174
Refix G18: 2, 285509.930856, -391
Refix G28: 2, 285509.923895, -2885
Refix G30: 2, 285509.930898, -2171
$GNGGA,071812.000,2944.9015,N,10633.0897,E,1,15,0.9,312.5,M,,,,0000*13
$GNRMC,071812.000,A,2944.9015,N,10633.0897,E,0.19,0.00,090180,,*1F
$GPGSA,A,3,01,07,08,11,17,18,28,30,,,,,1.1,0.9,0.5*36
$BDGSA,A,3,01,02,03,04,07,08,10,,,,,,1.1,0.9,0.5*25
$GLGSA,A,3,,,,,,,,,,,,,1.1,0.9,0.5*22
$GPGSV,3,1,11,01,62,128,42,07,68,192,44,08,32,042,41,11,76,063,43*79
$GPGSV,3,2,11,13,00,000,35,17,22,249,36,18,55,072,43,28,32,313,42*77
$GPGSV,3,3,11,30,62,293,45,22,00,000,18,09,07,204,00*46
$BDGSV,3,1,11,01,40,125,39,02,46,218,39,03,55,171,42,04,23,109,40*69
$BDGSV,3,2,11,07,64,075,42,08,69,159,43,10,70,359,43,27,27,041,41*6B
$BDGSV,3,3,11,29,37,239,43,30,76,345,44,13,46,192,00*52
$B3CN0,0,18,0,0,0,0,0,0,0,0,0,0,0,0*75
---00000011--- Acq_st=3 0  2000-1-9 7:18:12 
[00]  00(G01)  f 43  7  0  -2277.6  2046002.9  0.0  2 0 1330 2254  896
[01]  06(G07)  f 45  9  0     86.5  2045999.8 -0.0  2 0 3130 4442 1924
[02]  07(G08)  f 41  7  0   1511.0  2045998.0 -0.0  2 0  943 1772  799
[03]  10(G11)  f 43  7  0   -735.0  2046000.9  0.1  2 0 1970 2775 1314
[04]  12(G13)  7 34  8  0  -1987.3  2046002.5  0.1  2 0  932  857  180
[05]  16(G17)  f 35  7  0  -3161.0  2046004.0 -0.2  2 0  847  988  884
[06]  17(G18)  f 43  7  0   -386.0  2046000.4  0.0  2 0 1369 2955  974
[08]  27(G28)  f 42  9  0  -2883.1  2046003.7  0.0  2 0 2108 2791 1013
[09]  29(G30)  f 44  7  0  -2167.8  2046002.8  0.0  2 0 2849 4563 2367
[10]  02(G03)  1  7  7  0  -4437.1  2046005.5  0.1  1 0  274  206  361
[11]  21(G22)  7 36  7  0  -3035.2  2046003.9  0.0  2 0 1169 1164  120
[16]  37(B01) 1f 40 16  0  -1063.4  4092002.7  0.2  2 0 1379 1693  533
[17]  38(B02) 1f 40 24  0  -1098.2  4092002.8 -0.3  2 0 1288 1884  792
[18]  39(B03) 1f 45 29  0  -1079.4  4092002.7  0.3  2 0 2455 2406  650
[19]  40(B04) 1f 40 19  0  -1074.0  4092002.7  0.5  2 0 1240 1372  586
[20]  43(B07) 1f 42  7  0  -1297.2  4092003.3  0.0  2 0 2037 2355  773
[21]  44(B08) 1f 42  9  0  -1836.9  4092004.7 -0.0  2 0 1651 2029  733
[22]  46(B10) 1f 43  9  0  -1534.9  4092003.9  0.0  2 0 1637 2395  988
[24]  41(B05)  1 10 10  0  -1536.8  4092003.5  0.0  1 0  801  147  366
[25]  63(B27)  7 41  8  0   1634.1  4091995.6 -0.0  2 0 1570 1849  401
[26]  65(B29)  7 43  7  0  -3087.8  4092008.0 -0.0  2 0 2109 2225  916
[27]  66(B30)  7 45  7  0   -489.8  4092001.1 -0.0  2 0 2825 3340 1167
[32]  78(N-3)  7 48 25  0   1839.3  1021998.8 -0.1  2 0  1357 2557 1297
[33]  79(N-2)  7 45  7  0  -1497.3  1022000.9  0.1  2 0   946 1803 1003
[34]  82(N01)  7 39 12  0   2414.5  1021998.4  0.4  2 0   646  933  471
[35]  83(N02)  7 45 14  0   -494.6  1022000.3  0.0  2 0  1062 1815  829
[48]  37(B01)  7 10 16  0  -1010.5 20460015.3  0.0  2 0  238  428  311
[49]  38(B02)  f 10 10  0  -2030.3 20460033.2 -0.1  2 0  274  150  324
[51]  40(B04)  1 26 21  0  -1222.4 20460018.2  0.1  1 0  701  405  170
[52]  43(B07)  1  7  7  0   -683.2 20460020.2  0.1  1 0  484  614  359
[53]  44(B08)  1  7  7  0   -678.7 20460029.3  0.2  1 0  412  334  321
[54]  46(B10)  1  7  7  0  -1981.0 20460023.6  0.1  1 0  610  500  691
calculate DOP row 0,[  0.20  -0.97  -0.15   1.00]
calculate DOP row 1,[ -0.21  -0.77  -0.60   1.00]
calculate DOP row 2,[  0.60  -0.78  -0.19   1.00]
calculate DOP row 3,[  0.43  -0.70  -0.57   1.00]
calculate DOP row 4,[  0.70  -0.45  -0.56   1.00]
calculate DOP row 5,[  0.36  -0.93   0.08   0.00]
calculate DOP row 6,[  0.19  -0.62  -0.76   0.00]
calculate DOP row 7,[ -0.54  -0.35  -0.77   1.00]
calculate DOP row 8,[  0.60  -0.58  -0.54   0.00]
calculate DOP row 9,[  0.39  -0.90  -0.18   0.00]
calculate DOP row 10,[  0.59   0.02  -0.81   1.00]
calculate DOP row 11,[  0.81  -0.58   0.06   0.00]
calculate DOP row 12,[ -0.16  -0.98   0.11   0.00]
calculate DOP row 13,[  0.97  -0.23   0.07   0.00]
calculate DOP row 14,[ -0.69  -0.72   0.08   1.00]
DOP:  0.27   0.25   0.65   0.32
Refix G01: 2, 285510.931391, -2273
Refix G07: 2, 285510.932187, 86
Refix G08: 2, 285510.924204, 1512
Refix G09: 2, 285510.917338, 1495
Refix G11: 2, 285510.932262, -733
Refix G17: 2, 285510.921704, -3171
Refix G18: 2, 285510.930856, -386
Refix G28: 2, 285510.923897, -2880
Refix G30: 2, 285510.930900, -2166
$GNGGA,071813.000,2944.9016,N,10633.0898,E,1,15,0.9,312.9,M,,,,0000*12
$GNRMC,071813.000,A,2944.9016,N,10633.0898,E,0.58,0.00,090180,,*17
$GPGSA,A,3,01,07,08,11,17,18,28,30,,,,,1.1,0.9,0.5*36
$BDGSA,A,3,01,02,03,04,07,08,10,,,,,,1.1,0.9,0.5*25
$GLGSA,A,3,,,,,,,,,,,,,1.1,0.9,0.5*22
$GPGSV,3,1,11,01,62,128,43,07,68,192,45,08,32,042,41,11,76,063,43*79
$GPGSV,3,2,11,13,00,000,34,17,22,249,35,18,55,072,43,28,32,313,42*75
$GPGSV,3,3,11,30,62,293,44,22,00,000,36,09,07,204,00*4B
$BDGSV,3,1,11,01,40,125,40,02,46,218,40,03,55,171,45,04,23,109,40*6E
$BDGSV,3,2,11,07,64,075,42,08,69,159,42,10,70,359,43,27,27,041,41*6A
$BDGSV,3,3,11,29,37,239,43,30,76,345,45,13,46,192,00*53
$B3CN0,0,0,0,0,0,0,0,0,0,0,0,0,0,0*4C
---00000012--- Acq_st=3 0  2000-1-9 7:18:13 
[00]  00(G01)  f 43 12  0  -2279.3  2046002.9 -0.0  2 0 2250 3300 1585
[01]  06(G07)  f 45  7  0     84.4  2045999.8  0.0  2 0 2876 3912 1702
[02]  07(G08)  f 42  7  0   1509.2  2045998.0 -0.0  2 0 1179 1904  969
[03]  10(G11)  f 43  7  0   -738.6  2046000.9 -0.0  2 0 1397 2382 1263
[04]  12(G13)  f 35  7  0  -1995.9  2046002.5 -0.2  2 0  705 1117  624
[05]  16(G17)  f 37  7  0  -3172.2  2046004.1  0.0  2 0  525  877  609
[06]  17(G18)  f 43  7  0   -389.9  2046000.4  0.0  2 0 2136 3362 1642
[08]  27(G28)  f 43  7  0  -2883.7  2046003.7 -0.0  2 0 1558 2414 1161
[09]  29(G30)  f 45  7  0  -2168.1  2046002.8 -0.0  2 0 2431 4237 2067
[11]  21(G22)  f 37  7  0  -3033.8  2046003.9  0.3  2 0 1186 1064  289
[16]  37(B01) 1f 40 10  0  -1065.8  4092002.6 -0.6  2 0 1602 1505  467
[17]  38(B02) 1f 40 26  0  -1097.9  4092002.6 -0.2  2 0 1265 1597  503
[18]  39(B03) 1f 41 31  0  -1082.1  4092002.8 -0.1  2 0 1724 2076  908
[19]  40(B04) 1f 38 20  0  -1085.4  4092002.7  0.7  2 0 1662 1969 1084
[20]  43(B07) 1f 43  7  0  -1302.7  4092003.3  0.0  2 0 1869 2103  727
[21]  44(B08) 1f 42  7  0  -1839.5  4092004.7 -0.1  2 0 1774 2194 1042
[22]  46(B10) 1f 42  7  0  -1539.2  4092003.9 -0.0  2 0 1618 2244 1353
[24]  41(B05)  1 19 25  1  -1101.7  4092006.4  0.1  1 0  644  373  307
[25]  63(B27)  7 41  7  0   1632.2  4091995.6  0.0  2 0 1510 1570  251
[26]  65(B29)  7 43  7  0  -3089.7  4092008.0  0.0  2 0 1367 1783 1004
[27]  66(B30)  7 44 11  0   -489.5  4092001.2 -0.0  2 0 3001 3892 1441
[32]  78(N-3)  7 48 24  0   1839.0  1021998.8 -0.1  2 0  1536 2866 1438
[33]  79(N-2)  7 44 12  0  -1499.4  1022000.9  0.1  2 0  1094 1872 1140
[34]  82(N01)  7 39  7  0   2412.4  1021998.4 -0.3  2 0   709  992  508
[35]  83(N02)  7 45 16  0   -495.2  1022000.3 -0.0  2 0   741 1751  911
[48]  37(B01)  7 19 10  0   -895.8 20460014.3 -0.1  2 0  230  209  134
[49]  38(B02)  f 19 10  1  -2188.1 20460034.9 -0.1  2 0  355  570  454
[50]  39(B03)  1 18 23  0   -732.9 20460015.2  0.0  1 0  291  510  550
[51]  40(B04)  1 36 24  0  -1112.2 20460017.5  0.0  1 0  951  754  410
[52]  43(B07)  1  7  7  0     54.9 20460020.5  0.1  1 0  414  353  210
[53]  44(B08)  1  7  7  0   -676.8 20460030.2 -0.2  1 0  308  260  360
[54]  46(B10)  1  7  9  0  -2026.0 20460024.4 -0.0  1 0  497  207  229
calculate DOP row 0,[  0.20  -0.97  -0.15   1.00]
calculate DOP row 1,[ -0.21  -0.77  -0.60   1.00]
calculate DOP row 2,[  0.70  -0.45  -0.56   1.00]
calculate DOP row 3,[  0.60  -0.78  -0.19   1.00]
calculate DOP row 4,[  0.43  -0.70  -0.57   1.00]
calculate DOP row 5,[ -0.54  -0.35  -0.77   1.00]
calculate DOP row 6,[  0.36  -0.93   0.08   0.00]
calculate DOP row 7,[  0.60  -0.58  -0.54   0.00]
calculate DOP row 8,[  0.59   0.02  -0.81   1.00]
calculate DOP row 9,[  0.39  -0.90  -0.18   0.00]
calculate DOP row 10,[  0.19  -0.62  -0.76   0.00]
calculate DOP row 11,[  0.81  -0.58   0.06   0.00]
calculate DOP row 12,[ -0.16  -0.98   0.11   0.00]
calculate DOP row 13,[  0.97  -0.23   0.07   0.00]
calculate DOP row 14,[ -0.69  -0.72   0.08   1.00]
DOP:  0.27   0.25   0.65   0.32
Refix G01: 2, 285511.931393, -2277
Refix G07: 2, 285511.932187, 83
Refix G08: 2, 285511.924203, 1508
Refix G09: 2, 285511.917337, 1493
Refix G11: 2, 285511.932262, -738
Refix G17: 2, 285511.921706, -3173
Refix G18: 2, 285511.930856, -390
Refix G28: 2, 285511.923899, -2884
Refix G30: 2, 285511.930901, -2170
$GNGGA,071814.000,2944.9017,N,10633.0899,E,1,15,0.9,313.0,M,,,,0000*1D
$GNRMC,071814.000,A,2944.9017,N,10633.0899,E,0.38,0.00,090180,,*16
$GPGSA,A,3,01,07,08,11,17,18,28,30,,,,,1.1,0.9,0.5*36
$BDGSA,A,3,01,02,03,04,07,08,10,,,,,,1.1,0.9,0.5*25
$GLGSA,A,3,,,,,,,,,,,,,1.1,0.9,0.5*22
$GPGSV,3,1,11,01,62,128,43,07,68,192,45,08,32,042,42,11,76,063,43*7A
$GPGSV,3,2,11,13,00,000,35,17,22,249,37,18,55,072,43,28,32,313,43*77
$GPGSV,3,3,11,30,62,293,45,22,00,000,37,09,07,204,00*4B
$BDGSV,3,1,11,01,40,125,40,02,46,218,40,03,55,171,41,04,23,109,38*65
$BDGSV,3,2,11,07,64,075,43,08,69,159,42,10,70,359,42,27,27,041,41*6A
$BDGSV,3,3,11,29,37,239,43,30,76,345,44,13,46,192,00*52
$B3CN0,19,19,0,0,0,0,0,0,0,0,0,0,0,0*4C
---00000013--- Acq_st=3 0  2000-1-9 7:18:14 
[00]  00(G01)  f 43  7  0  -2282.8  2046002.9  0.0  2 0 2171 3473 1448
[01]  06(G07)  f 45  9  0     81.1  2045999.8  0.0  2 0 2892 4583 2501
[02]  07(G08)  f 42  7  0   1507.2  2045998.0 -0.0  2 0  780 1782 1044
[03]  10(G11)  f 44  7  0   -745.0  2046000.9  0.0  2 0 1835 3426 1901
[04]  12(G13)  f 34  8  0  -1992.9  2046002.5 -0.1  2 0 1033 1551  573
[05]  16(G17)  f 36  7  0  -3177.5  2046004.1 -0.4  2 0 1124 1599  774
[06]  17(G18)  f 44  7  0   -392.3  2046000.4  0.0  2 0 1418 2828 1292
[08]  27(G28)  f 43  7  0  -2885.9  2046003.7 -0.0  2 0 1845 2245  896
[09]  29(G30)  f 45  7  0  -2175.2  2046002.8  0.0  2 0 2714 4478 2052
[11]  21(G22)  f 36  7  0  -3043.3  2046003.9  0.8  2 0  943  960  311
[16]  37(B01) 1f 40 21  0  -1072.9  4092002.7  0.1  2 0  796 1395  409
[17]  38(B02) 1f 38 23  0  -1103.4  4092002.8 -0.2  2 0 1196 1628 1031
[18]  39(B03) 1f 43 31  0  -1087.2  4092002.7 -0.1  2 0 1595 1935  790
[19]  40(B04) 1f 39 18  0  -1082.6  4092002.8  0.3  2 0  691 1223  596
[20]  43(B07) 1f 42  7  0  -1303.7  4092003.3 -0.0  2 0 1666 2120 1054
[21]  44(B08) 1f 42  7  0  -1845.1  4092004.7  0.0  2 0 1948 2277 1179
[22]  46(B10) 1f 43  7  0  -1542.2  4092003.9  0.0  2 0 1620 2112  781
[24]  41(B05)  7 18 24  0   -808.2  4092002.3  0.1  2 0  406  668  731
[25]  63(B27)  7 41  7  0   1630.0  4091995.6 -0.0  2 0 1258 1512  528
[26]  65(B29)  7 42  7  0  -3095.8  4092008.0 -0.0  2 0 1500 2008  710
[27]  66(B30)  7 44  7  0   -496.1  4092001.2  0.0  2 0 3212 3616 1371
[32]  78(N-3)  f 37  7  0   1832.5  1021998.8 -0.1  2 0  1716 2526 1136
[33]  79(N-2)  f 37  7  0  -1505.5  1022000.9  0.1  2 0   948 1452  382
[34]  82(N01)  f 34  7  0   2406.8  1021998.4 -0.7  5 0   348  666  298
[35]  83(N02)  f 37  7  0   -501.1  1022000.3  0.0  2 0   804 1472  757
[50]  39(B03)  7 17 20  1  -1105.2 20460020.0  0.2  2 0  546  234  124
[51]  40(B04)  1 19 20  1  -1380.9 20460023.6  0.0  1 0  372  379  274
calculate DOP row 0,[  0.20  -0.97  -0.15   1.00]
calculate DOP row 1,[ -0.21  -0.77  -0.60   1.00]
calculate DOP row 2,[  0.36  -0.93   0.08   0.00]
calculate DOP row 3,[  0.43  -0.70  -0.57   1.00]
calculate DOP row 4,[  0.60  -0.78  -0.19   1.00]
calculate DOP row 5,[  0.70  -0.45  -0.56   1.00]
calculate DOP row 6,[ -0.54  -0.35  -0.77   1.00]
calculate DOP row 7,[  0.19  -0.62  -0.76   0.00]
calculate DOP row 8,[  0.59   0.02  -0.81   1.00]
calculate DOP row 9,[  0.60  -0.58  -0.54   0.00]
calculate DOP row 10,[  0.39  -0.90  -0.18   0.00]
calculate DOP row 11,[  0.81  -0.58   0.06   0.00]
calculate DOP row 12,[ -0.16  -0.98   0.11   0.00]
calculate DOP row 13,[  0.97  -0.23   0.07   0.00]
calculate DOP row 14,[ -0.69  -0.72   0.08   1.00]
DOP:  0.27   0.25   0.65   0.32
Refix G01: 2, 285512.931394, -2277
Refix G07: 2, 285512.932187, 82
Refix G08: 2, 285512.924202, 1506
Refix G09: 2, 285512.917336, 1495
Refix G11: 2, 285512.932263, -739
Refix G17: 2, 285512.921708, -3172
Refix G18: 2, 285512.930857, -391
Refix G28: 2, 285512.923901, -2886
Refix G30: 2, 285512.930902, -2171
$GNGGA,071815.000,2944.9020,N,10633.0900,E,1,15,0.9,313.8,M,,,,0000*11
$GNRMC,071815.000,A,2944.9020,N,10633.0900,E,0.28,0.00,090180,,*13
$GPGSA,A,3,01,07,08,11,17,18,28,30,,,,,1.1,0.9,0.5*36
$BDGSA,A,3,01,02,03,04,07,08,10,,,,,,1.1,0.9,0.5*25
$GLGSA,A,3,,,,,,,,,,,,,1.1,0.9,0.5*22
$GPGSV,3,1,11,01,62,128,43,07,68,192,45,08,32,042,42,11,76,063,44*7D
$GPGSV,3,2,11,13,00,000,34,17,22,249,36,18,55,072,44,28,32,313,43*70
$GPGSV,3,3,11,30,62,293,45,22,00,000,36,09,07,204,00*4A
$BDGSV,3,1,12,01,40,125,40,02,46,218,38,03,55,171,42,04,23,109,39*6B
$BDGSV,3,2,12,07,64,075,42,08,69,159,42,10,70,359,43,05,00,000,19*64
$BDGSV,3,3,12,27,27,041,41,29,37,239,42,30,76,345,44,13,46,192,00*60
$B3CN0,0,0,17,0,0,0,0,0,0,0,0,0,0,0*7A
---00000014--- Acq_st=7 0  2000-1-9 7:18:15 
[00]  00(G01)  f 43  7  0  -2277.1  2046002.9  0.0  2 0 2569 3609 1844
[01]  06(G07)  f 45  7  0     82.9  2045999.8  0.0  2 0 2923 3793 2173
[02]  07(G08)  f 42  7  0   1509.2  2045998.0  0.1  2 0 1020 1592 1199
[03]  10(G11)  f 44  7  0   -737.3  2046000.9  0.0  2 0 2119 3153 1392
[04]  12(G13)  f 34 10  0  -1991.4  2046002.6 -0.2  2 0  857 1488 1027
[05]  16(G17)  f 36  7  0  -3173.2  2046004.1  0.6  2 0  941 1622 1121
[06]  17(G18)  f 44  7  0   -390.8  2046000.4 -0.1  2 0 2227 3489 1736
[08]  27(G28)  f 42  7  0  -2879.9  2046003.7  0.1  2 0 1788 2630 1437
[09]  29(G30)  f 45  7  0  -2170.4  2046002.8 -0.0  2 0 2868 4677 2353
[11]  21(G22)  f 36 11  0  -3042.7  2046003.8  0.5  2 0  865 1094  276
[16]  37(B01) 1f 40 10  0  -1068.8  4092002.7 -0.1  2 0 1330 1416  755
[17]  38(B02) 1f 40 28  0  -1102.2  4092002.8  0.2  2 0 1088 1478  731
[18]  39(B03) 1f 43 31  0  -1084.3  4092002.7  0.1  2 0 2105 2558  713
[19]  40(B04) 1f 40 25  0  -1075.1  4092002.7 -0.5  2 0 1071 1188  787
[20]  43(B07) 1f 42  7  0  -1306.0  4092003.3  0.0  2 0 2004 2117  434
[21]  44(B08) 1f 43  7  0  -1840.3  4092004.7  0.0  2 0 1762 2202  864
[22]  46(B10) 1f 43  8  0  -1539.4  4092003.9 -0.0  2 0 1944 2538 1081
[24]  41(B05)  7 10 10  0   -599.6  4092001.4  0.0  2 0  319  244  122
[25]  63(B27) 1f 41 11  0   1630.5  4091995.6  0.0  2 0 1318 1853  902
[26]  65(B29) 1f 43  7  0  -3087.4  4092008.0  0.0  2 0 2197 2579 1423
[27]  66(B30) 1f 44  7  0   -490.7  4092001.2 -0.1  2 0 2419 3408 1440
[32]  78(N-3)  f 47  7  0   1838.4  1021998.8  0.0  2 0  1686 2737 1148
[33]  79(N-2)  f 44  7  0  -1499.3  1022000.9  0.0  2 0  1099 1807  826
[34]  82(N01)  f 38  7  0   2412.6  1021998.4  0.2  2 0  1058 1165  678
[35]  83(N02)  f 44  7  0   -495.3  1022000.3  0.1  2 0   994 2068 1247
[48]  37(B01)  1 10 10  1   -893.1 20460015.2 -0.0  1 0  231  395  797
[49]  38(B02)  1 36 19  0   -750.5 20460018.1  0.1  1 0  194  357  624
[50]  39(B03)  7 23 18  0  -1737.5 20460026.8 -0.1  2 0  332  402  182
[52]  43(B07)  1  7  7  0  -1226.3 20460019.6  0.1  1 0  705  383  442
[53]  44(B08)  1  7  7  0  -1441.1 20460029.3 -0.1  1 0  315  391  386
[54]  46(B10)  1  7  7  0  -1225.9 20460023.9 -0.0  1 0  705  569  179
calculate DOP row 0,[  0.20  -0.97  -0.15   1.00]
calculate DOP row 1,[ -0.21  -0.77  -0.60   1.00]
calculate DOP row 2,[  0.43  -0.70  -0.57   1.00]
calculate DOP row 3,[  0.15  -0.72  -0.67   0.00]
calculate DOP row 4,[  0.60  -0.78  -0.19   1.00]
calculate DOP row 5,[  0.70  -0.45  -0.56   1.00]
calculate DOP row 6,[  0.60  -0.58  -0.54   0.00]
calculate DOP row 7,[  0.39  -0.90  -0.18   0.00]
calculate DOP row 8,[  0.19  -0.62  -0.76   0.00]
calculate DOP row 9,[ -0.45  -0.89   0.05   0.00]
calculate DOP row 10,[  0.59   0.02  -0.81   1.00]
calculate DOP row 11,[ -0.54  -0.35  -0.77   1.00]
calculate DOP row 12,[  0.36  -0.93   0.08   0.00]
calculate DOP row 13,[  0.58   0.10  -0.81   0.00]
calculate DOP row 14,[  0.81  -0.58   0.06   0.00]
calculate DOP row 15,[ -0.16  -0.98   0.11   0.00]
calculate DOP row 16,[  0.97  -0.23   0.07   0.00]
calculate DOP row 17,[ -0.69  -0.72   0.08   1.00]
DOP:  0.24   0.18   0.42   0.25
Refix G01: 2, 285513.931396, -2275
Refix G07: 2, 285513.932186, 85
Refix G08: 2, 285513.924201, 1507
Refix G09: 2, 285513.917335, 1496
Refix G11: 2, 285513.932263, -737
Refix G17: 2, 285513.921710, -3170
Refix G18: 2, 285513.930857, -389
Refix G28: 2, 285513.923902, -2884
Refix G30: 2, 285513.930904, -2169
$GNGGA,071816.000,2944.9028,N,10633.0904,E,1,18,0.8,315.1,M,,,,0000*1D
$GNRMC,071816.000,A,2944.9028,N,10633.0904,E,0.35,0.00,090180,,*10
$GPGSA,A,3,01,07,08,11,17,18,28,30,,,,,0.9,0.8,0.4*3F
$BDGSA,A,3,01,02,03,04,07,08,10,27,29,30,,,0.9,0.8,0.4*21
$GLGSA,A,3,,,,,,,,,,,,,0.9,0.8,0.4*2B
$GPGSV,3,1,11,01,62,128,43,07,68,192,45,08,32,042,42,11,76,063,44*7D
$GPGSV,3,2,11,13,00,000,34,17,22,249,36,18,55,072,44,28,32,313,42*71
$GPGSV,3,3,11,30,62,293,45,22,00,000,36,09,07,204,00*4A
$BDGSV,3,1,11,01,40,125,40,02,46,218,40,03,55,171,43,04,23,109,40*68
$BDGSV,3,2,11,07,64,075,42,08,69,159,43,10,70,359,43,27,27,041,41*6B
$BDGSV,3,3,11,29,37,239,43,30,76,345,44,13,46,192,00*52
$B3CN0,0,0,23,0,0,0,0,0,0,0,0,0,0,0*7D
---00000015--- Acq_st=7 0  2000-1-9 7:18:16 
[00]  00(G01)  f 43  7  0  -2278.5  2046002.9  0.0  2 0 1510 3115 2057
[01]  06(G07)  f 45 10  0     80.4  2045999.8 -0.0  2 0 3068 3973 2007
[02]  07(G08)  f 41  7  0   1502.4  2045998.0 -0.1  2 0 1428 2049  923
[03]  10(G11)  f 44  7  0   -741.6  2046000.9 -0.0  2 0 1567 2720 1424
[04]  12(G13)  f 34 11  0  -1987.0  2046002.4  0.1  2 0  830 1784 1282
[05]  16(G17)  f 36  7  0  -3177.1  2046004.1 -0.4  2 0 1061 1377 1071
[06]  17(G18)  f 43  7  0   -391.7  2046000.5  0.0  2 0 1987 2924 1623
[08]  27(G28)  f 43  7  0  -2885.8  2046003.7 -0.0  2 0 1908 2626 1092
[09]  29(G30)  f 46  7  0  -2172.6  2046002.7 -0.0  2 0 2527 4027 1677
[11]  21(G22)  f 35  7  0  -3041.9  2046003.9 -0.3  2 0  242 1127  319
[16]  37(B01) 1f 40 16  0  -1063.7  4092002.7  0.6  2 0 1034 1546  772
[17]  38(B02) 1f 39 22  0  -1104.1  4092002.8  0.7  2 0 1367 1379  391
[18]  39(B03) 1f 43 32  0  -1086.7  4092002.8  0.1  2 0 1203 1772 1026
[19]  40(B04) 1f 39 22  0  -1074.3  4092002.7 -0.4  2 0  661 1028  592
[20]  43(B07) 1f 43  7  0  -1307.4  4092003.3 -0.0  2 0 1382 1906  928
[21]  44(B08) 1f 43  7  0  -1843.1  4092004.7 -0.0  2 0 1383 2032  942
[22]  46(B10) 1f 43  7  0  -1546.6  4092003.9 -0.0  2 0 1497 2029  781
[24]  41(B05)  7 22 21  0  -1081.3  4092002.9  0.1  2 0  294  392  406
[25]  63(B27) 1f 41  7  0   1630.1  4091995.6 -0.0  2 0 1492 2205 1125
[26]  65(B29) 1f 43  7  0  -3094.5  4092008.0 -0.0  2 0 1698 2126  679
[27]  66(B30) 1f 45  7  0   -492.8  4092001.2  0.1  2 0 3004 3378 1461
[32]  78(N-3)  f 46 10  0   1835.8  1021998.8 -0.0  2 0  1358 2675 1235
[33]  79(N-2)  f 44  7  0  -1500.5  1022000.9  0.0  2 0   993 1515  633
[34]  82(N01)  f 39  7  0   2409.2  1021998.4 -0.0  2 0   543  691  368
[35]  83(N02)  f 44  7  0   -498.3  1022000.3  0.0  2 0   884 1958  625
[48]  37(B01)  1 21 10  1   -991.6 20460022.4  0.1  1 0  766  715  411
[49]  38(B02)  f 14 10  1   -509.9 20460010.3 -0.1  2 0  357  301  323
[50]  39(B03)  7 22 20  1  -2098.1 20460033.0 -0.1  2 0  430  407  662
[51]  40(B04)  1 24 19  1   -722.5 20460019.9  0.0  1 0  275  330   24
[52]  43(B07)  1  7  7  0  -1406.5 20460019.4  0.0  1 0  268  224  473
[53]  44(B08)  1  7  7  0  -1568.4 20460029.5 -0.0  1 0  826  652  542
[54]  46(B10)  1  7  7  0  -1026.7 20460024.3 -0.2  1 0  153  690  787
[57]  63(B27)  1  7  7  0   1803.8 20459974.2 -0.0  1 0  662  336  491
[58]  65(B29)  1  7  7  0  -2292.1 20460049.2 -0.1  1 0  245  643  507
[59]  66(B30)  1  7  7  0    -45.7 20460006.4  0.1  1 0  691  685  368
calculate DOP row 0,[ -0.21  -0.77  -0.60   1.00]
calculate DOP row 1,[  0.20  -0.97  -0.15   1.00]
calculate DOP row 2,[  0.15  -0.72  -0.67   0.00]
calculate DOP row 3,[  0.43  -0.70  -0.57   1.00]
calculate DOP row 4,[  0.60  -0.78  -0.19   1.00]
calculate DOP row 5,[  0.70  -0.45  -0.56   1.00]
calculate DOP row 6,[  0.60  -0.58  -0.54   0.00]
calculate DOP row 7,[  0.39  -0.90  -0.18   0.00]
calculate DOP row 8,[  0.19  -0.62  -0.76   0.00]
calculate DOP row 9,[ -0.45  -0.89   0.04   0.00]
calculate DOP row 10,[ -0.54  -0.35  -0.77   1.00]
calculate DOP row 11,[  0.59   0.02  -0.81   1.00]
calculate DOP row 12,[  0.36  -0.93   0.08   0.00]
calculate DOP row 13,[  0.58   0.10  -0.81   0.00]
calculate DOP row 14,[  0.97  -0.23   0.07   0.00]
calculate DOP row 15,[  0.81  -0.58   0.06   0.00]
calculate DOP row 16,[ -0.16  -0.98   0.11   0.00]
calculate DOP row 17,[ -0.69  -0.72   0.08   1.00]
DOP:  0.24   0.18   0.42   0.25
Refix G01: 2, 285514.931397, -2280
Refix G07: 2, 285514.932186, 80
Refix G08: 2, 285514.924200, 1503
Refix G09: 2, 285514.917334, 1492
Refix G11: 2, 285514.932264, -742
Refix G17: 2, 285514.921712, -3175
Refix G18: 2, 285514.930857, -393
Refix G28: 2, 285514.923904, -2889
Refix G30: 2, 285514.930905, -2174
$GNGGA,071817.000,2944.9033,N,10633.0906,E,1,18,0.8,316.0,M,,,,0000*16
$GNRMC,071817.000,A,2944.9033,N,10633.0906,E,0.23,0.00,090180,,*1E
$GPGSA,A,3,01,07,08,11,17,18,28,30,,,,,0.9,0.8,0.4*3F
$BDGSA,A,3,01,02,03,04,07,08,10,27,29,30,,,0.9,0.8,0.4*21
$GLGSA,A,3,,,,,,,,,,,,,0.9,0.8,0.4*2B
$GPGSV,3,1,11,01,62,128,43,07,68,192,45,08,32,042,41,11,76,063,44*7E
$GPGSV,3,2,11,13,00,000,34,17,22,249,36,18,55,072,43,28,32,313,43*77
$GPGSV,3,3,11,30,62,293,46,22,00,000,35,09,07,204,00*4A
$BDGSV,3,1,12,01,40,125,39,02,46,218,39,03,55,171,43,04,23,109,39*65
$BDGSV,3,2,12,07,64,075,43,08,69,159,43,10,70,359,43,05,00,000,22*6C
$BDGSV,3,3,12,27,27,041,41,29,37,239,43,30,76,345,45,13,46,192,00*60
$B3CN0,0,0,22,0,0,0,0,0,0,0,0,0,0,0*7C
---00000016--- Acq_st=7 0  2000-1-9 7:18:17 
[00]  00(G01)  f 43  7  0  -2279.3  2046002.9 -0.0  2 0 2079 2942 1528
[01]  06(G07)  f 45  7  0     83.3  2045999.8  0.0  2 0 3040 3828 1709
[02]  07(G08)  f 41  7  0   1508.1  2045998.0 -0.1  2 0 1655 2116  674
[03]  10(G11)  f 44  7  0   -737.6  2046000.9 -0.0  2 0 1807 3133 1513
[04]  12(G13)  f 33  7  0  -1983.0  2046002.6 -0.1  2 0  927 1374 1075
[05]  16(G17)  f 36  7  0  -3181.8  2046004.1  0.5  2 0  872 1408  900
[06]  17(G18)  f 44  9  0   -388.9  2046000.4  0.0  2 0 2019 2904 1608
[08]  27(G28)  f 43  7  0  -2884.0  2046003.7  0.0  2 0 1822 2297  828
[09]  29(G30)  f 45 11  0  -2169.5  2046002.8  0.0  2 0 2760 4633 2436
[11]  21(G22)  f 35  7  0  -3041.9  2046004.0  0.4  2 0 1002  935  428
[16]  37(B01) 1f 39 18  0  -1067.2  4092002.7  0.1  2 0 1334 1491  766
[17]  38(B02) 1f 39 25  0  -1105.3  4092002.8  0.1  2 0 1294 1726 1045
[18]  39(B03) 1f 42 30  0  -1081.8  4092002.7 -0.0  2 0 2240 2572  933
[19]  40(B04) 1f 40 22  0  -1078.9  4092002.7 -0.1  2 0 1242 1681  766
[20]  43(B07) 1f 42  7  0  -1307.2  4092003.3  0.0  2 0 1715 2074  860
[21]  44(B08) 1f 43  7  0  -1843.1  4092004.7  0.0  2 0 1867 2084 1010
[22]  46(B10) 1f 43 10  0  -1538.9  4092003.9 -0.1  2 0 1908 2389  953
[24]  41(B05)  7 13 10  0  -1557.3  4092004.2  0.2  2 0  406  502  320
[25]  63(B27) 1f 41  9  0   1629.8  4091995.6  0.1  2 0 1787 2401 1027
[26]  65(B29) 1f 43  7  0  -3090.8  4092008.0  0.0  2 0 1195 2072 1029
[27]  66(B30) 1f 45 11  0   -493.1  4092001.2 -0.0  2 0 3053 3918 1727
[32]  78(N-3)  f 47  7  0   1837.0  1021998.8  0.0  2 0  1470 2739 1282
[33]  79(N-2)  f 43  7  0  -1498.9  1022000.9 -0.0  2 0   774 1549 1079
[34]  82(N01)  f 39  7  0   2410.6  1021998.4 -0.2  2 0   884 1303  516
[35]  83(N02)  f 44  7  0   -496.5  1022000.3 -0.0  2 0   798 1650  819
[48]  37(B01)  f 16 10  0   -703.0 20460009.4 -0.2  2 0  657  292  302
[49]  38(B02)  f 24 16  1  -1027.1 20460018.3 -0.1  2 0  171  282  490
[50]  39(B03)  7 10 22  0  -2563.1 20460042.6  0.0  2 0   46   16  285
[51]  40(B04)  1 22 24  1   -513.8 20460018.8 -0.1  1 0  182  550  519
[52]  43(B07)  1  7  7  0  -1934.5 20460019.6  0.1  1 0  261  588  361
[53]  44(B08)  1  7  7  0  -1406.0 20460028.3  0.0  1 0  369  220  501
[54]  46(B10)  1  7  7  0   -842.1 20460023.6 -0.1  1 0  575  211  271
[57]  63(B27)  1  7 10  0   1862.0 20459974.7 -0.0  1 0  233  309  181
[58]  65(B29)  1 12  9  0  -2283.9 20460048.5 -0.0  1 0  222  784  564
[59]  66(B30)  1  7  8  0    164.3 20460007.1  0.2  1 0  427  386  587
calculate DOP row 0,[  0.20  -0.97  -0.15   1.00]
calculate DOP row 1,[ -0.21  -0.77  -0.60   1.00]
calculate DOP row 2,[  0.15  -0.72  -0.67   0.00]
calculate DOP row 3,[  0.43  -0.70  -0.57   1.00]
calculate DOP row 4,[  0.70  -0.45  -0.56   1.00]
calculate DOP row 5,[  0.60  -0.78  -0.19   1.00]
calculate DOP row 6,[ -0.54  -0.35  -0.77   1.00]
calculate DOP row 7,[  0.39  -0.90  -0.18   0.00]
calculate DOP row 8,[  0.19  -0.62  -0.76   0.00]
calculate DOP row 9,[ -0.45  -0.89   0.04   0.00]
calculate DOP row 10,[  0.36  -0.93   0.08   0.00]
calculate DOP row 11,[  0.60  -0.58  -0.54   0.00]
calculate DOP row 12,[  0.59   0.02  -0.81   1.00]
calculate DOP row 13,[  0.81  -0.58   0.06   0.00]
calculate DOP row 14,[  0.58   0.10  -0.81   0.00]
calculate DOP row 15,[ -0.16  -0.98   0.11   0.00]
calculate DOP row 16,[  0.97  -0.23   0.07   0.00]
calculate DOP row 17,[ -0.69  -0.72   0.08   1.00]
DOP:  0.24   0.18   0.42   0.25
Refix G01: 2, 285515.931398, -2275
Refix G07: 2, 285515.932186, 85
Refix G08: 2, 285515.924199, 1506
Refix G09: 2, 285515.917333, 1493
Refix G11: 2, 285515.932264, -737
Refix G17: 2, 285515.921714, -3172
Refix G18: 2, 285515.930857, -388
Refix G28: 2, 285515.923906, -2886
Refix G30: 2, 285515.930906, -2169
$GNGGA,071818.000,2944.9037,N,10633.0908,E,1,18,0.8,316.7,M,,,,0000*14
$GNRMC,071818.000,A,2944.9037,N,10633.0908,E,0.18,0.00,090180,,*13
$GPGSA,A,3,01,07,08,11,17,18,28,30,,,,,0.9,0.8,0.4*3F
$BDGSA,A,3,01,02,03,04,07,08,10,27,29,30,,,0.9,0.8,0.4*21
$GLGSA,A,3,,,,,,,,,,,,,0.9,0.8,0.4*2B
$GPGSV,3,1,11,01,62,128,43,07,68,192,45,08,32,042,41,11,76,063,44*7E
$GPGSV,3,2,11,13,00,000,33,17,22,249,36,18,55,072,44,28,32,313,43*77
$GPGSV,3,3,11,30,62,293,45,22,00,000,35,09,07,204,00*49
$BDGSV,3,1,11,01,40,125,40,02,46,218,39,03,55,171,42,04,23,109,40*67
$BDGSV,3,2,11,07,64,075,42,08,69,159,43,10,70,359,43,27,27,041,41*6B
$BDGSV,3,3,11,29,37,239,43,30,76,345,45,13,46,192,00*53
$B3CN0,0,24,0,0,0,0,0,0,0,0,0,0,0,0*7A
---00000017--- Acq_st=3 0  2000-1-9 7:18:18 
[00]  00(G01)  f 43 10  0  -2275.0  2046002.9  0.1  2 0  881 2128 1308
[01]  06(G07)  f 45  7  0     83.8  2045999.8 -0.0  2 0 2972 3973 2128
[02]  07(G08)  f 41  7  0   1499.1  2045998.0  0.1  2 0  909 1903  548
[03]  10(G11)  f 43  7  0   -738.8  2046000.9  0.0  2 0 1389 2809 1438
[04]  12(G13)  f 34  7  0  -1995.5  2046002.5  0.1  2 0  223  328  117
[05]  16(G17)  f 36  7  0  -3175.4  2046004.1  0.4  2 0  698 1547 1382
[06]  17(G18)  f 44  7  0   -390.7  2046000.4 -0.0  2 0 1804 2868 1090
[08]  27(G28)  f 43  7  0  -2885.4  2046003.7 -0.0  2 0 1349 2625 1258
[09]  29(G30)  f 45  8  0  -2173.5  2046002.8 -0.0  2 0 2632 4018 1347
[10]  02(G03)  1  7  7  0  -3540.1  2046004.8  0.0  1 0  420  356  650
[11]  21(G22)  f 36  7  0  -3038.8  2046003.9  0.2  2 0  891  895  445
[16]  37(B01) 1f 41 16  0  -1070.5  4092002.7  0.4  2 0 1093 1479  485
[17]  38(B02) 1f 40 19  0  -1104.1  4092002.8  0.4  2 0  885 1432 1020
[18]  39(B03) 1f 42 32  0  -1086.1  4092002.7  0.3  2 0 1582 2192  956
[19]  40(B04) 1f 40 23  0  -1077.4  4092002.7  0.1  2 0  836 1161  303
[20]  43(B07) 1f 42  7  0  -1306.7  4092003.3  0.0  2 0 1932 2056  738
[21]  44(B08) 1f 42  7  0  -1841.8  4092004.7  0.0  2 0 1932 2419 1143
[22]  46(B10) 1f 43  7  0  -1540.1  4092003.9 -0.0  2 0 1996 2587 1147
[24]  41(B05)  7 36 29  0  -2003.8  4092005.1 -0.0  2 0  514  491  543
[25]  63(B27) 1f 41  7  0   1631.8  4091995.6 -0.0  2 0 1623 1817  699
[26]  65(B29) 1f 43  7  0  -3095.0  4092008.0  0.0  2 0 1839 2248  862
[27]  66(B30) 1f 44  7  0   -492.1  4092001.2  0.0  2 0 2625 3320 1591
[32]  78(N-3)  f 47  7  0   1835.5  1021998.8  0.1  2 0  1172 2572 1249
[33]  79(N-2)  f 44  7  0  -1499.3  1022000.9  0.0  2 0  1200 1491  511
[34]  82(N01)  f 39  7  0   2411.7  1021998.5  0.4  2 0   737  833  513
[35]  83(N02)  f 44  7  0   -496.5  1022000.3  0.0  2 0   848 1620  937
[48]  37(B01)  f 36 10  0  -1057.5 20460014.8 -0.1  2 0  676  878   53
[49]  38(B02)  f 10 10  1  -1261.0 20460019.0  0.0  2 0  335  262  259
[50]  39(B03)  7 13 18  1  -3036.2 20460049.4  0.1  2 0  305  380  430
[51]  40(B04)  1 23 22  1   -206.8 20460022.8 -0.0  1 0  456  219  585
[52]  43(B07)  1  7  7  0  -2036.8 20460018.9  0.1  1 0  195  423  466
[53]  44(B08)  1  7  7  0  -1290.9 20460029.8  0.2  1 0  719  644  453
[54]  46(B10)  1  7  7  0   -891.8 20460024.3 -0.1  1 0  474  160   71
[57]  63(B27)  1  7  7  0   1878.7 20459974.6 -0.1  1 0  570  199   76
[58]  65(B29)  1  7 10  0  -1751.2 20460048.5 -0.1  1 0  223  116  340
[59]  66(B30)  1  8  7  0    885.1 20460009.0 -0.1  1 0  583  113  439
calculate DOP row 0,[  0.20  -0.97  -0.15   1.00]
calculate DOP row 1,[ -0.21  -0.77  -0.60   1.00]
calculate DOP row 2,[  0.70  -0.45  -0.56   1.00]
calculate DOP row 3,[  0.15  -0.72  -0.67   0.00]
calculate DOP row 4,[  0.60  -0.78  -0.19   1.00]
calculate DOP row 5,[  0.43  -0.70  -0.57   1.00]
calculate DOP row 6,[ -0.54  -0.35  -0.77   1.00]
calculate DOP row 7,[  0.19  -0.62  -0.76   0.00]
calculate DOP row 8,[ -0.45  -0.89   0.04   0.00]
calculate DOP row 9,[  0.59   0.02  -0.81   1.00]
calculate DOP row 10,[  0.36  -0.93   0.08   0.00]
calculate DOP row 11,[  0.60  -0.58  -0.54   0.00]
calculate DOP row 12,[  0.39  -0.90  -0.18   0.00]
calculate DOP row 13,[  0.58   0.10  -0.81   0.00]
calculate DOP row 14,[  0.81  -0.58   0.06   0.00]
calculate DOP row 15,[ -0.16  -0.98   0.11   0.00]
calculate DOP row 16,[  0.97  -0.23   0.07   0.00]
calculate DOP row 17,[ -0.69  -0.72   0.08   1.00]
DOP:  0.24   0.18   0.42   0.25
Refix G01: 2, 285516.931400, -2273
Refix G07: 2, 285516.932186, 87
Refix G08: 2, 285516.924198, 1508
Refix G09: 2, 285516.917333, 1494
Refix G11: 2, 285516.932264, -735
Refix G17: 2, 285516.921716, -3171
Refix G18: 2, 285516.930858, -386
Refix G28: 2, 285516.923908, -2884
Refix G30: 2, 285516.930908, -2167
$GNGGA,071819.000,2944.9040,N,10633.0908,E,1,18,0.8,317.2,M,,,,0000*11
$GNRMC,071819.000,A,2944.9040,N,10633.0908,E,0.17,0.00,240419,,*17
$GPGSA,A,3,01,07,08,11,17,18,28,30,,,,,0.9,0.8,0.4*3F
$BDGSA,A,3,01,02,03,04,07,08,10,27,29,30,,,0.9,0.8,0.4*21
$GLGSA,A,3,,,,,,,,,,,,,0.9,0.8,0.4*2B
$GPGSV,3,1,11,01,62,128,43,07,68,192,45,08,32,042,41,11,76,063,43*79
$GPGSV,3,2,11,13,00,000,34,17,22,249,36,18,55,072,44,28,32,313,43*70
$GPGSV,3,3,11,30,62,293,45,22,00,000,36,09,07,204,00*4A
$BDGSV,3,1,11,01,40,125,41,02,46,218,40,03,55,171,42,04,23,109,40*68
$BDGSV,3,2,11,07,64,075,42,08,69,159,42,10,70,359,43,27,27,041,41*6A
$BDGSV,3,3,11,29,37,239,43,30,76,345,44,13,46,192,00*52
$B3CN0,0,0,0,0,0,0,0,0,0,0,0,0,0,0*4C
---00000018--- Acq_st=3 0  2019-4-24 7:18:19 
[00]  00(G01)  f 43  8  0  -2274.0  2046002.9 -0.0  2 0 1789 2248 1124
[01]  06(G07)  f 45  7  0     85.1  2045999.8 -0.0  2 0 2965 4168 1721
[02]  07(G08)  f 42  7  0   1508.7  2045998.0  0.0  2 0 1151 2090  982
[03]  10(G11)  f 43  7  0   -737.0  2046000.9  0.0  2 0 1805 3148 1542
[04]  12(G13)  f 35 10  0  -1980.0  2046002.5 -0.1  2 0  914 1030  179
[05]  16(G17)  f 36  7  0  -3173.2  2046004.1  0.0  2 0  758 1067  695
[06]  17(G18)  f 44  7  0   -387.0  2046000.4  0.0  2 0 1415 3040 1312
[08]  27(G28)  f 42  7  0  -2883.9  2046003.7  0.0  2 0 1416 2417 1353
[09]  29(G30)  f 45  7  0  -2170.1  2046002.8  0.0  2 0 2557 4434 2072
[10]  02(G03)  1  8  7  0  -3967.6  2046004.2 -0.0  1 0  349  649  684
[11]  21(G22)  f 36  9  0  -3047.0  2046003.9 -0.1  2 0  860 1326  865
[16]  37(B01) 1f 41 19  0  -1070.6  4092002.7  0.8  2 0 1195 1584  884
