SD initialized success
Create debug.log Failed! 3
bbram_blkflag = 1
rtcflag = 0
BBRAM Block OK: 01 EPHflag: 00000000 0036837f, rtc 00
Hot-start nowtime:day = 22,minute = 11,seconds = 42.00
Start Channel by LuYu
$GNGGA,000000.000,,,,,0,00,,,M,,,,0000*2B
$GNRMC,000000.000,A,,,,,,,060180,,*29
$GPGSA,A,1,,,,,,,,,,,,,,,*1E
$BDGSA,A,1,,,,,,,,,,,,,,,*0F
$GLGSA,A,1,,,,,,,,,,,,,,,*02
$B3CN0,0,0,0,0,0,0,0,0,0,0,0,0,0,0*4C
---00000001--- Acq_st=3 0  2019-4-22 2:11:43 
[00]  02(G03)  1 22 10  0     95.8  2046002.2  0.1  1 0  715 1071  756
$GNGGA,000000.000,,,,,0,00,,,M,,,,0000*2B
$GNRMC,000000.000,A,,,,,,,060180,,*29
$GPGSA,A,1,,,,,,,,,,,,,,,*1E
$BDGSA,A,1,,,,,,,,,,,,,,,*0F
$GLGSA,A,1,,,,,,,,,,,,,,,*02
$B3CN0,0,0,0,0,0,0,0,0,0,0,0,0,0,0*4C
---00000002--- Acq_st=3 0  2019-4-22 2:11:44 
[00]  02(G03)  7 15  7  0     88.3  2045999.7  1.0 10 0 1874 2188 1240
[01]  13(G14)  1 30  7  0   1242.8  2045998.1  0.3  1 0 2024 2714 1357
[02]  15(G16)  1 25 19  0  -2021.3  2046004.8  0.5  1 0 1041 2938 2404
[03]  21(G22)  1 18  7  0    750.0  2046000.4 -0.0  1 0  848 2993 1690
[04]  22(G23)  1  7  7  0  -4250.0  2046006.2 -0.1  1 0  307  110 1008
[05]  25(G26)  1  7  7  0     -0.0  2046002.3 -0.0  1 0  293 3015 5217
$GNGGA,000000.000,,,,,0,00,,,M,,,,0000*2B
$GNRMC,000000.000,A,,,,,,,060180,,*29
$GPGSA,A,1,,,,,,,,,,,,,,,*1E
$BDGSA,A,1,,,,,,,,,,,,,,,*0F
$GLGSA,A,1,,,,,,,,,,,,,,,*02
$B3CN0,0,0,0,0,0,0,0,0,0,0,0,0,0,0*4C
---00000003--- Acq_st=3 0  2019-4-22 2:11:45 
[00]  02(G03)  7 38  7  0     93.0  2045999.8 -0.1  2 0 1229 1392  583
[01]  13(G14)  7 23  7  0   1246.5  2045998.4  0.8 10 0 1534 2470  824
[02]  15(G16)  7 18  7  0  -2019.6  2046002.5  0.8 10 0 2424 3430 1584
[03]  21(G22)  1 30  7  0    778.1  2045998.5  0.7  1 0 1967 2960 1028
[04]  22(G23)  1 23  7  0  -4243.9  2046008.0  0.0  1 0  520 1358  926
[05]  25(G26)  1 26  8  0     58.8  2045999.9  0.4  1 0 2769 3694 1420
[06]  26(G27)  1 25  7  0  -4693.3  2046006.5  0.5  1 0  950 1726  961
[08]  30(G31)  1 16  7  0    390.2  2045999.8  0.1  1 0 2036 3208 2210
[09]  31(G32)  1  7  7  0   2089.7  2045998.0 -0.1  1 0 1733 1497  337
[16]  37(B01)  1 20 20  0   -965.2  4092004.7 -0.1  1 0  240  145  701
[17]  38(B02)  1 10 10  1  -1500.0  4092004.7 -0.0  1 0  285  817  428
[18]  39(B03)  1 10 35  1  -1000.0  4092001.2 -0.0  1 0  307   96  214
[19]  40(B04)  1 10 10  0  -1500.0  4092004.3 -0.1  1 0  534 1243 1347
$GNGGA,000000.000,,,,,0,00,,,M,,,,0000*2B
$GNRMC,000000.000,A,,,,,,,060180,,*29
$GPGSA,A,1,,,,,,,,,,,,,,,*1E
$BDGSA,A,1,,,,,,,,,,,,,,,*0F
$GLGSA,A,1,,,,,,,,,,,,,,,*02
$GPGSV,1,1,03,03,00,000,38,14,00,000,23,16,00,000,17*47
$B3CN0,0,0,0,0,0,0,0,0,0,0,0,0,0,0*4C
---00000004--- Acq_st=3 0  2019-4-22 2:11:46 
[00]  02(G03)  7 38  7  0     92.9  2045999.8  0.1  2 0  738 1296  445
[01]  13(G14)  7 42  7  0   1247.0  2045998.3  0.0  2 0 1570 2389 1149
[02]  15(G16)  7 44 20  0  -2017.6  2046002.5  0.0  2 0 2325 3020  892
[03]  21(G22)  7 32  7  0    778.9  2045998.9  0.3  5 0 1680 2372  703
[04]  22(G23)  7 30  7  0  -4240.6  2046005.4 -0.1  5 0  889 1285  564
[05]  25(G26)  7 27  7  0     63.3  2045999.8  0.6 10 0 2606 4274 2339
[06]  26(G27)  7 26  7  0  -4689.2  2046006.0  0.6 10 0 1180 2328 1251
[08]  30(G31)  7 14  7  0    391.8  2045999.4  0.9 10 0 1653 3338 1405
[09]  31(G32)  7  7  7  0   2095.0  2045997.3  1.0  5 0 1213 2113  999
[16]  37(B01)  1 41 20  0  -1158.0  4092004.4  1.0  1 0  533 1564  628
[17]  38(B02)  1 10 10  1  -1608.8  4092003.5  0.0  1 0  869  509   70
[18]  39(B03)  1 10 10  0   -396.0  4092003.7  0.1  1 0  476  383  660
[19]  40(B04)  1 10 10  1  -1636.6  4092004.3 -0.1  1 0  917 1039  352
[20]  41(B05)  1 10 22  0  -1061.3  4092003.4 -0.1  1 0   57  312  115
[21]  42(B06)  1  7  7  0   -511.6  4092003.6  0.1  1 0 1354 2144 1343
[22]  43(B07)  1  7  7  0   -847.8  4092003.4  0.1  1 0 1451 2589 1330
[24]  45(B09)  1  7  7  0   -989.6  4092002.4  0.0  1 0  204  357  154
[25]  46(B10)  1  7  7  0  -1250.0  4092004.4  0.0  1 0 1141 2768 1737
$GNGGA,000000.000,,,,,0,00,,,M,,,,0000*2B
$GNRMC,000000.000,A,,,,,,,060180,,*29
$GPGSA,A,1,,,,,,,,,,,,,,,*1E
$BDGSA,A,1,,,,,,,,,,,,,,,*0F
$GLGSA,A,1,,,,,,,,,,,,,,,*02
$GPGSV,2,1,07,03,00,000,38,14,00,000,42,16,00,000,44,22,00,000,32*70
$GPGSV,2,2,07,23,00,000,30,26,00,000,27,27,00,000,26*4C
$B3CN0,0,0,0,0,0,0,0,0,0,0,0,0,0,0*4C
---00000005--- Acq_st=3 0  2019-4-22 2:11:47 
[00]  02(G03)  7 38  7  0     97.0  2045999.8  0.0  2 0  795  763  444
[01]  13(G14)  7 42  7  0   1250.6  2045998.4  0.1  2 0 1791 2375 1304
[02]  15(G16)  7 43 21  0  -2017.0  2046002.5 -0.0  2 0 2146 3022 1073
[03]  21(G22)  7 43  7  0    781.8  2045998.9  0.1  2 0 1885 2693  984
[04]  22(G23)  7 39  7  0  -4238.5  2046005.4 -0.1  2 0  639 1221  400
[05]  25(G26)  7 46  8  0     64.4  2045999.8  0.0  2 0 2610 3842 1483
[06]  26(G27)  7 42  7  0  -4689.4  2046006.0 -0.0  2 0 1393 1564  546
[08]  30(G31)  7 44  7  0    390.2  2045999.4  0.0  2 0 2365 3120  898
[09]  31(G32)  7 40  7  0   2098.0  2045997.2  0.1  2 0  820 1661  970
[16]  37(B01)  f 41 19  0  -1152.1  4092002.8 -0.3  2 0 1228 2029 1113
[17]  38(B02)  1 10 10  0  -2194.1  4092003.9 -0.0  1 0  559  670  707
[18]  39(B03)  1 10 27  1    165.7  4092003.3 -0.1  1 0  375  250  154
[19]  40(B04)  1 13 18  0  -1607.3  4092003.3  0.3  1 0  600  299  331
[20]  41(B05)  1 14 10  0   -274.3  4092002.8  0.1  1 0  329  265  325
[21]  42(B06)  7 23  7  0   -505.8  4092001.2  0.2 10 0 1301 1859 1093
[22]  43(B07)  1  7  7  0   -850.8  4092001.9 -0.0  1 0 2108 2812 1298
[24]  45(B09)  1  7 11  0   -501.7  4092002.0 -0.1  1 0  411  250  151
[25]  46(B10)  1  7 10  0  -1084.9  4092002.5  0.4  1 0 1783 2144  824
[26]  52(B16)  1  7  7  0   -482.7  4092003.2 -0.1  1 0  379  220 1344
[27]  54(B18)  1  7  7  0  -1000.0  4092002.6 -0.1  1 0 1731 2956 2167
[28]  55(B19)  1  7  7  0   1500.0  4091994.8 -0.0  1 0 1532 1326  417
$GNGGA,000000.000,,,,,0,00,,,M,,,,0000*2B
$GNRMC,000000.000,A,,,,,,,060180,,*29
$GPGSA,A,1,,,,,,,,,,,,,,,*1E
$BDGSA,A,1,,,,,,,,,,,,,,,*0F
$GLGSA,A,1,,,,,,,,,,,,,,,*02
$GPGSV,3,1,09,03,00,000,38,14,00,000,42,16,00,000,43,22,00,000,43*7E
$GPGSV,3,2,09,23,00,000,39,26,00,000,46,27,00,000,42,31,00,000,44*7D
$GPGSV,3,3,09,32,00,000,40*45
$BDGSV,1,1,02,01,00,000,41,06,00,000,23*69
$B3CN0,0,0,0,0,0,0,0,0,0,0,0,0,0,0*4C
---00000006--- Acq_st=3 0  2019-4-22 2:11:48 
[00]  02(G03)  7 39 10  0     92.7  2045999.8  0.0  2 0  926 1515 1035
[01]  13(G14)  7 42  7  0   1249.3  2045998.3  0.1  2 0 1293 2473 1097
[02]  15(G16)  7 43 21  0  -2015.2  2046002.5  0.0  2 0 2132 2844 1333
[03]  21(G22)  7 43  7  0    786.2  2045998.9  0.0  2 0 1516 2097  457
[04]  22(G23)  7 39  7  0  -4239.2  2046005.4  0.1  2 0 1267 1231  448
[05]  25(G26)  7 45  7  0     64.3  2045999.8 -0.0  2 0 3094 4429 1982
[06]  26(G27)  7 41  7  0  -4688.1  2046006.0  0.0  2 0  940 1618  682
[08]  30(G31)  7 44  7  0    391.0  2045999.4 -0.0  2 0 2140 3062 1326
[09]  31(G32)  7 40  7  0   2096.0  2045997.3 -0.0  2 0  897 1427  653
[16]  37(B01) 1f 41 25  0  -1151.6  4092003.0 -0.2  2 0 1129 1381  666
[17]  38(B02)  1 10 10  0  -2366.6  4092004.3 -0.0  1 0  466  174  127
[18]  39(B03)  1 13 10  0    580.6  4092004.1 -0.0  1 0  515  613  659
[19]  40(B04)  1 10 10  1  -2122.0  4092005.3  0.1  1 0  163  137  238
[20]  41(B05)  1 10 30  1    -50.5  4092003.0  0.1  1 0  148  425  489
[21]  42(B06)  7 42  8  0   -504.1  4092001.2 -0.0  2 0 1616 1863  721
[22]  43(B07)  1  7  7  0   -851.1  4092002.0 -0.0  1 0 1345 2652 1119
[24]  45(B09)  1  8  7  0   -350.4  4092002.4 -0.1  1 0  279  592  243
[25]  46(B10)  7 36  7  0  -1086.2  4092002.7  0.1  2 0 1881 2646 1086
[26]  52(B16)  1  7  7  0   -542.4  4092002.1  0.2  1 0 2320 2286  872
[27]  54(B18)  1  7  7  0   -976.8  4092002.6  0.5  1 0 2015 3650 1590
[28]  55(B19)  1  7  7  0   1362.3  4091994.7  0.5  1 0 1101 1854  641
[29]  57(B21)  1  7  7  0  -3030.5  4092009.9  0.2  1 0 1373 2511 1709
[30]  58(B22)  1  7  7  0   -381.6  4092000.9  0.1  1 0 2242 3777 1874
[48]  37(B01)  1 10 19  0   -891.1 20460023.2 -0.0  1 0  162  366  360
$GNGGA,021149.554,,,,,0,00,,,M,,,,0000*20
$GNRMC,021149.554,A,,,,,,,070180,,*23
$GPGSA,A,1,,,,,,,,,,,,,,,*1E
$BDGSA,A,1,,,,,,,,,,,,,,,*0F
$GLGSA,A,1,,,,,,,,,,,,,,,*02
$GPGSV,3,1,09,03,00,000,39,14,00,000,42,16,00,000,43,22,00,000,43*7F
$GPGSV,3,2,09,23,00,000,39,26,00,000,45,27,00,000,41,31,00,000,44*7D
$GPGSV,3,3,09,32,00,000,40*45
$BDGSV,1,1,03,01,00,000,41,06,00,000,42,10,00,000,36*5B
$B3CN0,0,0,0,0,0,0,0,0,0,0,0,0,0,0*4C
---00000007--- Acq_st=3 0  2019-4-22 2:11:49 
[00]  02(G03)  f 40  7  0     96.0  2045999.8  0.1  2 0 1559 1326  640
[01]  13(G14)  f 43  7  0   1255.2  2045998.3 -0.0  2 0 1782 3234 1595
[02]  15(G16)  f 44 22  0  -2009.8  2046002.5 -0.0  2 0 2569 3449 1116
[03]  21(G22)  f 43  7  0    787.0  2045998.9  0.0  2 0 1865 3312 1509
[04]  22(G23)  f 39  7  0  -4237.4  2046005.4  0.1  2 0  234 1014 1046
[05]  25(G26)  f 45  7  0     68.8  2045999.8  0.0  2 0 3232 4690 1808
[06]  26(G27)  f 41  7  0  -4682.0  2046006.0 -0.1  2 0 1266 2196 1131
[08]  30(G31)  f 44  7  0    395.2  2045999.4  0.0  2 0 1860 2979 1269
[09]  31(G32)  f 40  7  0   2101.6  2045997.2 -0.1  2 0  870 1931 1300
[16]  37(B01) 1f 40 10  0  -1149.4  4092002.8 -0.3  2 0 1282 1483  703
[17]  38(B02)  1 10 24  0  -2137.6  4092005.3  0.1  1 0  409  484  436
[18]  39(B03)  7 10 18  1    270.7  4091999.5  0.1  2 0  258  358   48
[19]  40(B04)  1 22 24  1  -1949.6  4092005.4  0.1  1 0  569  404   69
[20]  41(B05)  1 21 10  0   -637.0  4092003.4  0.2  1 0  237  308  472
[21]  42(B06)  7 42  7  0   -502.1  4092001.2 -0.0  2 0 1817 2409 1044
[22]  43(B07)  1  7  7  0   -849.2  4092002.1 -0.1  1 0 1722 2353 1507
[24]  45(B09)  1 13  7  0   -703.3  4092002.4  0.1  1 0  412  513  134
[25]  46(B10)  7 43  8  0  -1080.3  4092002.7 -0.0  2 0 1505 2418  896
[26]  52(B16)  7 41 10  0   -532.7  4092001.3  0.1  2 0 1743 2500 1007
[27]  54(B18)  7 33  7  0   -970.4  4092002.5  0.2  5 0 2262 3221 1395
[28]  55(B19)  1  7  7  0   1368.0  4091994.9  0.7  1 0 1110 2055 1175
[29]  57(B21)  7 26  7  0  -3022.2  4092007.8  0.2 10 0 1510 1640  292
[30]  58(B22)  7 25  7  0   -375.0  4092000.9  0.4 10 0 2231 3538 1474
[32]  75(N-6)  1 10  7  0  -4412.9  1022004.6  0.0  1 0   374 1194 1971
[33]  76(N-5)  1  7  7  0  48516.0  1022001.8 -0.0  1 0   953 2931 3576
[48]  37(B01)  1 18 10  0   -844.7 20460020.0 -0.1  1 0  132  368  650
$GNGGA,021150.554,,,,,0,00,,,M,,,,0000*28
$GNRMC,021150.554,A,,,,,,,070180,,*2B
$GPGSA,A,1,,,,,,,,,,,,,,,*1E
$BDGSA,A,1,,,,,,,,,,,,,,,*0F
$GLGSA,A,1,,,,,,,,,,,,,,,*02
$GPGSV,3,1,09,03,00,000,40,14,00,000,43,16,00,000,44,22,00,000,43*77
$GPGSV,3,2,09,23,00,000,39,26,00,000,45,27,00,000,41,31,00,000,44*7D
$GPGSV,3,3,09,32,00,000,40*45
$BDGSV,2,1,07,01,00,000,40,06,00,000,42,10,00,000,43,16,00,000,40*6C
$BDGSV,2,2,07,18,00,000,33,21,00,000,26,22,00,000,25*56
$B3CN0,0,0,0,0,0,0,0,0,0,0,0,0,0,0*4C
---00000008--- Acq_st=7 0  2019-4-22 2:11:50 
[00]  02(G03)  f 40  7  0    100.6  2045999.8  0.1  2 0 1380 1772 1102
[01]  13(G14)  f 42  7  0   1256.2  2045998.3 -0.0  2 0 1838 2560 1081
[02]  15(G16)  f 44 21  0  -2012.8  2046002.6 -0.0  2 0 2415 3600 1790
[03]  21(G22)  f 43  7  0    785.0  2045998.9  0.0  2 0 1730 3069 1358
[04]  22(G23)  f 39  7  0  -4239.4  2046005.4 -0.0  2 0 1082 1733  851
[05]  25(G26)  f 45 10  0     71.9  2045999.8  0.0  2 0 2837 4391 1890
[06]  26(G27)  f 41  7  0  -4681.1  2046006.0 -0.0  2 0 1125 1701  704
[08]  30(G31)  f 44  7  0    393.8  2045999.4 -0.0  2 0 1997 3191 2084
[09]  31(G32)  f 40  7  0   2096.0  2045997.2 -0.0  2 0  589  887  550
[16]  37(B01) 1f 41 10  0  -1150.8  4092002.8 -0.1  2 0  806 1423  437
[18]  39(B03)  7 10 10  0   -237.7  4092000.8  0.1  2 0  174  365  189
[21]  42(B06)  7 42  7  0   -501.9  4092001.1  0.0  2 0 1230 1503  704
[24]  45(B09)  1  7  7  0  -1522.7  4092001.9  0.0  1 0  609  431  691
[25]  46(B10)  7 43  7  0  -1080.1  4092002.7 -0.0  2 0 2087 2588 1216
[26]  52(B16)  7 43  7  0   -536.9  4092001.2 -0.0  2 0 1515 2122  972
[27]  54(B18)  7 44 10  0   -969.9  4092002.5 -0.0  2 0 1391 3132 1848
[28]  55(B19)  1  7  7  0   1368.4  4091995.1  0.8  1 0  944 1374  630
[29]  57(B21)  7 42 12  0  -3023.0  4092007.8  0.0  2 0 1642 2005  834
[30]  58(B22)  7 45  7  0   -373.3  4092000.9 -0.0  2 0 2232 3082 1195
[32]  75(N-6)  1 28 18  0  -4492.4  1022003.2  1.0  1 0  1213 2423 1501
[33]  76(N-5)  1 30 17  0  -1128.5  1022000.9  1.0  1 0  2413 4306 2126
[34]  78(N-3)  1 24 17  0  -3813.5  1022004.2  0.0  1 0    92  413  501
[35]  82(N01)  1 23 15  0   1500.0  1022000.1 -0.1  1 0   657 1059  588
[36]  83(N02)  1 23 14  0   -500.0  1022001.0 -0.0  1 0  1629 3614 2259
[37]  84(N03)  1  7  7  0  -1000.0  1022000.8 -0.0  1 0   266  960  776
[38]  85(N04)  1 25  7  0   2500.0  1022001.0  0.0  1 0   252 1140 1459
[40]  86(N05)  1 21  7  0  -4750.0  1022004.7  0.0  1 0   268  762  769
[48]  37(B01)  1 10 10  0  -1042.8 20460026.0  0.2  1 0  532  493  714
$GNGGA,021151.422,2944.9177,N,10633.1011,E,1,06,3.8,335.7,M,,,,0000*19
$GNRMC,021151.422,A,2944.9177,N,10633.1011,E,0.27,0.00,070180,,*11
$GPGSA,A,3,,,,,,,,,,,,,5.4,3.8,3.9*32
$BDGSA,A,3,01,06,10,16,21,22,,,,,,,5.4,3.8,3.9*21
$GLGSA,A,3,,,,,,,,,,,,,5.4,3.8,3.9*2E
$GPGSV,3,1,09,03,00,000,40,14,00,000,42,16,00,000,44,22,00,000,43*76
$GPGSV,3,2,09,23,00,000,39,26,00,000,45,27,00,000,41,31,00,000,44*7D
$GPGSV,3,3,09,32,00,000,41*44
$BDGSV,2,1,07,01,00,000,41,06,00,000,42,10,00,000,43,16,00,000,43*6E
$BDGSV,2,2,07,18,00,000,44,21,00,000,42,22,00,000,45*52
$B3CN0,0,0,0,0,0,0,0,0,0,0,0,0,0,0*4C
---00000009--- Acq_st=7 0  2000-1-7 2:11:51 
[00]  02(G03)  f 39  9  0     96.9  2045999.7  0.1  2 0 1238 2043 1209
[01]  13(G14)  f 43  7  0   1251.1  2045998.3  0.0  2 0 2016 2629 1550
[02]  15(G16)  f 44 22  0  -2012.9  2046002.5  0.0  2 0 1641 3386 1588
[03]  21(G22)  f 43  8  0    782.5  2045998.9 -0.1  2 0 1858 3511 1566
[04]  22(G23)  f 39  7  0  -4240.2  2046005.5 -0.2  2 0 1076 1683  477
[05]  25(G26)  f 45  9  0     67.3  2045999.9  0.0  2 0 2197 4005 2374
[06]  26(G27)  f 41  7  0  -4690.0  2046006.0  0.1  2 0 1194 2205  799
[08]  30(G31)  f 44  7  0    391.9  2045999.4  0.0  2 0 1615 2713 1568
[09]  31(G32)  f 40  7  0   2093.9  2045997.2 -0.1  2 0  660  514   53
[16]  37(B01) 1f 40 20  0  -1149.0  4092002.9 -0.3  2 0 1372 1762  650
[18]  39(B03)  7 18 10  0   -492.1  4092001.3  0.0  2 0  402  815  475
[21]  42(B06) 1f 42  8  0   -503.2  4092001.2 -0.0  2 0 1990 2369  888
[25]  46(B10) 1f 43  7  0  -1084.9  4092002.7 -0.0  2 0 2055 2581  924
[26]  52(B16) 1f 42 12  0   -540.2  4092001.3  0.0  2 0 1504 1617  161
[27]  54(B18) 1f 44  7  0   -971.4  4092002.5  0.0  2 0 2101 2931 1655
[28]  55(B19)  1  7  7  0   1364.1  4091995.0  0.8  1 0  729 1540  710
[29]  57(B21) 1f 42  8  0  -3022.4  4092007.8 -0.1  2 0 1432 2287 1137
[30]  58(B22) 1f 44  7  0   -377.0  4092000.9  0.0  2 0 2130 3067 1410
[32]  75(N-6)  7 47 17  0  -4493.0  1022002.8  0.1  2 0  1187 2164 1051
[33]  76(N-5)  7 38 15  0  -1127.2  1022000.7  0.2  2 0  2030 4013 2048
[34]  78(N-3)  7 26  7  0  -3819.3  1022002.4  0.4 10 0   541  625  447
[35]  82(N01)  1 27 17  0   1407.4  1021999.1  0.9  1 0   653 1006  615
[36]  83(N02)  1 30 16  0   -568.9  1022000.3  1.0  1 0  2184 3603 1903
[37]  84(N03)  1 33 15  0  -1125.6  1022001.0  1.0  1 0   341  957  795
[38]  85(N04)  1 33 18  0   2532.0  1021998.2  1.0  1 0  1523 1368  289
[40]  86(N05)  1 29 16  0  -4741.0  1022003.1  1.0  1 0   931  938  446
[48]  37(B01)  1 10 10  1  -1794.4 20460026.1 -0.0  1 0  261  512  610
---00000010--- Acq_st=7 0  2000-1-7 2:11:51 
[00]  02(G03)  f 40  7  0     97.8  2045999.8 -0.1  2 0 1249 1612 1254
[01]  13(G14)  f 42 10  0   1249.4  2045998.3  0.0  2 0 2439 3066 1427
[02]  15(G16)  f 44 22  0  -2013.2  2046002.6 -0.0  2 0 1844 3304 1217
[03]  21(G22)  f 43  8  0    780.5  2045998.9  0.0  2 0 1782 3421 1463
[04]  22(G23)  f 39  7  0  -4250.1  2046005.5  0.0  2 0 1083 1453  799
[05]  25(G26)  f 44  7  0     66.2  2045999.8  0.0  2 0 2063 3754 1586
[06]  26(G27)  f 41  7  0  -4689.8  2046006.0  0.1  2 0 1469 2128  845
[08]  30(G31)  f 43  7  0    388.3  2045999.4 -0.0  2 0 1716 3276 1688
[09]  31(G32)  f 39  7  0   2098.5  2045997.2  0.1  2 0 1290 1664  669
[16]  37(B01) 1f 41 18  0  -1155.0  4092003.0 -0.1  2 0 1045 1585  471
[21]  42(B06) 1f 42  7  0   -508.8  4092001.2 -0.0  2 0 1599 2206 1179
[25]  46(B10) 1f 43  7  0  -1087.3  4092002.7  0.0  2 0 2103 2901 1040
[26]  52(B16) 1f 43  7  0   -540.0  4092001.3 -0.0  2 0 2004 2523  867
[27]  54(B18) 1f 44  7  0   -973.7  4092002.5 -0.0  2 0 2209 3243 1738
[29]  57(B21) 1f 42  7  0  -3023.8  4092007.8  0.1  2 0 1085 2083 1213
[30]  58(B22) 1f 44  7  0   -376.9  4092000.9 -0.0  2 0 2189 3488 1629
[32]  75(N-6)  7 46 18  0  -4493.7  1022002.8  0.0  2 0  1269 2268  908
[33]  76(N-5)  7 49 19  0  -1128.3  1022000.7 -0.0  2 0  1959 4145 2114
[34]  78(N-3)  7 35 16  0  -3823.0  1022002.3 -0.0  2 0   186  493  115
[35]  82(N01)  7 40 19  0   1407.2  1021999.0  0.2  2 0   814  930  523
[36]  83(N02)  7 49 17  0   -567.4  1022000.3 -0.1  2 0  1770 3319 1578
[37]  84(N03)  7 40 16  0  -1126.3  1022000.7 -0.0  2 0   361  954  543
[38]  85(N04)  7 44 16  0   2533.1  1021998.2  0.1  2 0  1520 1642  683
[40]  86(N05)  7 37 17  0  -4744.4  1022003.0 -0.3  2 0   201  787  488
[53]  42(B06)  1  7  7  0   -292.4 20460005.4  0.1  1 0  727  328  120
[57]  46(B10)  1  7  7  0  -1069.1 20460016.0  0.0  1 0  309  683  333
[58]  52(B16)  1  7  7  0   -417.5 20460007.2  0.1  1 0  415  474  263
[59]  54(B18)  1  7  7  0   -679.7 20460016.1 -0.2  1 0  725  334  194
[61]  57(B21)  1  7  7  0  -2628.6 20460049.5 -0.2  1 0  463  276  287
[62]  58(B22)  1  7  7  0   -205.0 20460006.0  0.1  1 0   85  251  328
$GNGGA,021153.000,2944.9149,N,10633.0981,E,1,06,3.8,334.4,M,,,,0000*11
$GNRMC,021153.000,A,2944.9149,N,10633.0981,E,0.51,0.00,070180,,*1A
$GPGSA,A,3,,,,,,,,,,,,,5.4,3.8,3.9*32
$BDGSA,A,3,01,06,10,16,21,22,,,,,,,5.4,3.8,3.9*21
$GLGSA,A,3,,,,,,,,,,,,,5.4,3.8,3.9*2E
$GPGSV,3,1,09,03,00,000,40,14,00,000,42,16,00,000,44,22,00,000,43*76
$GPGSV,3,2,09,23,00,000,39,26,00,000,44,27,00,000,41,31,00,000,43*7B
$GPGSV,3,3,09,32,00,000,39*4B
$BDGSV,2,1,07,01,00,000,41,06,00,000,42,10,00,000,43,16,00,000,43*6E
$BDGSV,2,2,07,18,00,000,44,21,00,000,42,22,00,000,44*53
$B3CN0,0,0,0,0,0,0,0,0,0,0,0,0,0,0*4C
---00000011--- Acq_st=3 0  2000-1-7 2:11:53 
[00]  02(G03)  f 40  7  0    103.4  2045999.8 -0.1  2 0  982 1832 1469
[01]  13(G14)  f 43  7  0   1259.2  2045998.3  0.0  2 0 1457 2123 1073
[02]  15(G16)  f 44 22  0  -2007.4  2046002.5 -0.0  2 0 1749 3403 1994
[03]  21(G22)  f 43  7  0    788.0  2045998.9  0.0  2 0 1778 3062 1168
[04]  22(G23)  f 39  7  0  -4235.0  2046005.5 -0.0  2 0 1043 1371 1095
[05]  25(G26)  f 45 10  0     72.5  2045999.8 -0.0  2 0 2945 4018 1589
[06]  26(G27)  f 42  7  0  -4681.0  2046006.0  0.0  2 0 1317 2189  894
[08]  30(G31)  f 43  7  0    396.8  2045999.4  0.0  2 0 1790 2929 1307
[09]  31(G32)  f 40  7  0   2100.9  2045997.2 -0.0  2 0 1010 1305  747
[16]  37(B01) 1f 41 18  0  -1151.4  4092003.0  0.0  2 0  814 1259  613
[21]  42(B06) 1f 42  7  0   -496.7  4092001.2 -0.0  2 0 1706 1536  474
[25]  46(B10) 1f 43  7  0  -1081.8  4092002.7  0.0  2 0 1738 2386 1243
[26]  52(B16) 1f 43  7  0   -532.9  4092001.3 -0.0  2 0 2020 2560  989
[27]  54(B18) 1f 44  7  0   -967.4  4092002.4 -0.0  2 0 2381 2857 1321
[29]  57(B21) 1f 42  8  0  -3017.3  4092007.7 -0.1  2 0 1978 1788  495
[30]  58(B22) 1f 44  7  0   -370.1  4092000.9  0.1  2 0 2265 3060 1189
[32]  75(N-6)  7 46 19  0  -4486.0  1022002.8  0.0  2 0  1495 2199 1150
[33]  76(N-5)  7 49 15  0  -1120.1  1022000.7  0.1  2 0  2314 3939 1788
[34]  78(N-3)  7 36 17  0  -3812.8  1022002.3 -0.0  2 0   455  246  473
[35]  82(N01)  7 40 19  0   1412.1  1021999.0 -0.2  2 0   694 1132  645
[36]  83(N02)  7 49 18  0   -560.4  1022000.3  0.1  2 0  1822 3455 1770
[37]  84(N03)  7 39 15  0  -1118.7  1022000.7 -0.2  2 0   754 1155  443
[38]  85(N04)  7 44 14  0   2540.2  1021998.3  0.1  2 0  1236 1751  930
[40]  86(N05)  7 37 18  0  -4738.5  1022002.9  0.2  2 0   685  796  399
[48]  37(B01)  1 10 19  0   -894.4 20460021.1 -0.0  1 0  280  356  640
[53]  42(B06)  1  7  7  0    531.7 20460008.3 -0.2  1 0  308  227  274
[57]  46(B10)  1  7  7  0  -1244.2 20460014.3  0.1  1 0  276  553  516
[58]  52(B16)  1  7  7  0   -637.2 20460009.0  0.1  1 0  129  380  381
[59]  54(B18)  1  7  7  0   -761.0 20460015.0  0.1  1 0  252  284  736
[61]  57(B21)  1  7  7  0  -2602.0 20460048.0  0.0  1 0  794  394  339
[62]  58(B22)  1  7 10  0    -46.2 20460006.0 -0.3  1 0  264  453  275
$GNGGA,021154.000,2944.9132,N,10633.0969,E,1,06,3.8,331.1,M,,,,0000*1C
$GNRMC,021154.000,A,2944.9132,N,10633.0969,E,0.89,0.00,070180,,*12
$GPGSA,A,3,,,,,,,,,,,,,5.4,3.8,3.9*32
$BDGSA,A,3,01,06,10,16,21,22,,,,,,,5.4,3.8,3.9*21
$GLGSA,A,3,,,,,,,,,,,,,5.4,3.8,3.9*2E
$GPGSV,3,1,09,03,00,000,40,14,00,000,43,16,00,000,44,22,00,000,43*77
$GPGSV,3,2,09,23,00,000,39,26,00,000,45,27,00,000,42,31,00,000,43*79
$GPGSV,3,3,09,32,00,000,40*45
$BDGSV,3,1,12,01,40,126,41,06,56,149,42,10,66,268,43,16,65,153,43*6D
$BDGSV,3,2,12,18,00,000,44,21,19,312,42,22,49,257,44,02,45,218,00*6B
$BDGSV,3,3,12,03,54,172,00,04,23,110,00,05,26,244,00,07,75,354,00*6C
$B3CN0,0,0,0,0,0,0,0,0,0,0,0,0,0,0*4C
---00000012--- Acq_st=3 0  2000-1-7 2:11:54 
[00]  02(G03)  f 40  7  0    100.1  2045999.8  0.1  2 0  720 1190  382
[01]  13(G14)  f 42  7  0   1255.7  2045998.3  0.0  2 0 1447 2177  899
[02]  15(G16)  f 45 22  0  -2007.7  2046002.5  0.0  2 0 2363 3236 1937
[03]  21(G22)  f 43  8  0    783.6  2045998.9 -0.1  2 0 1427 2621 1155
[04]  22(G23)  f 40  7  0  -4237.7  2046005.4  0.1  2 0 1116 1762 1165
[05]  25(G26)  f 45  7  0     69.9  2045999.9 -0.0  2 0 3114 4808 2098
[06]  26(G27)  f 41  7  0  -4687.1  2046006.0  0.0  2 0 1406 1709  825
[08]  30(G31)  f 43  7  0    395.6  2045999.4 -0.0  2 0 1616 3319 1957
[09]  31(G32)  f 40  7  0   2103.5  2045997.2  0.2  2 0 1569 2098 1214
[16]  37(B01) 1f 41 21  0  -1148.6  4092002.9 -0.1  2 0 1144 1330  589
[21]  42(B06) 1f 42  7  0   -500.7  4092001.2 -0.0  2 0 1944 2073  946
[25]  46(B10) 1f 43  7  0  -1077.2  4092002.7 -0.0  2 0 1598 2531 1329
[26]  52(B16) 1f 43 10  0   -535.9  4092001.3 -0.0  2 0 1598 2529 1392
[27]  54(B18) 1f 44  7  0   -968.0  4092002.4  0.0  2 0 2319 3254 1555
[29]  57(B21) 1f 42  8  0  -3021.5  4092007.8 -0.0  2 0 2001 2344  960
[30]  58(B22) 1f 44  7  0   -370.5  4092000.9 -0.0  2 0 2677 3354 1093
[32]  75(N-6)  f 32  7  0  -4489.4  1022002.8 -0.1  5 0  1423 2413 1275
[33]  76(N-5)  f 32  7  0  -1124.1  1022000.7 -0.1  5 0  2139 3974 2213
[34]  78(N-3)  f 30  7  0  -3814.5  1022002.3  0.1  5 0    74  587  397
[35]  82(N01)  f 31  7  0   1409.7  1021999.1 -0.2  5 0   855 1051  150
[36]  83(N02)  f 32  7  0   -564.4  1022000.3  0.0  5 0  1871 3574 1805
[37]  84(N03)  f 31  7  0  -1120.3  1022000.7 -0.5  5 0   752  816  165
[38]  85(N04)  f 32 10  0   2537.1  1021998.3  0.0  5 0  1071 1379  560
[40]  86(N05)  f 31  7  0  -4739.8  1022003.0 -0.5  5 0   945 1367  647
[48]  37(B01)  1 10 10  1   -686.5 20460019.7 -0.1  1 0  193  436  678
[53]  42(B06)  1  7  7  0    245.4 20460008.4 -0.0  1 0  594  459  299
[57]  46(B10)  1  7  7  0  -1207.6 20460016.6 -0.0  1 0  891  764  622
[58]  52(B16)  1  7  7  0   -843.7 20460007.2  0.0  1 0  573  249  785
[59]  54(B18)  1  7  7  0   -331.6 20460016.1 -0.0  1 0 1062  480  486
[61]  57(B21)  1  7  7  0  -2385.6 20460048.8  0.1  1 0  255  153  139
[62]  58(B22)  1  7  7  0     24.0 20460004.0 -0.1  1 0  671  309  491
$GNGGA,021155.000,2944.9120,N,10633.0962,E,1,06,3.8,328.3,M,,,,0000*1F
$GNRMC,021155.000,A,2944.9120,N,10633.0962,E,0.22,0.00,070180,,*1A
$GPGSA,A,3,,,,,,,,,,,,,5.4,3.8,3.9*32
$BDGSA,A,3,01,06,10,16,21,22,,,,,,,5.4,3.8,3.9*21
$GLGSA,A,3,,,,,,,,,,,,,5.4,3.8,3.9*2E
$GPGSV,3,1,09,03,00,000,40,14,00,000,42,16,00,000,45,22,00,000,43*77
$GPGSV,3,2,09,23,00,000,40,26,00,000,45,27,00,000,41,31,00,000,43*74
$GPGSV,3,3,09,32,00,000,40*45
$BDGSV,3,1,12,01,40,126,41,06,56,149,42,10,66,268,43,16,65,153,43*6D
$BDGSV,3,2,12,18,00,000,44,21,19,312,42,22,49,257,44,02,45,218,00*6B
$BDGSV,3,3,12,03,54,172,00,04,23,110,00,05,26,244,00,07,75,354,00*6C
$B3CN0,0,0,0,0,0,0,0,0,0,0,0,0,0,0*4C
---00000013--- Acq_st=3 0  2000-1-7 2:11:55 
[00]  02(G03)  f 39  7  0     98.6  2045999.8  0.0  2 0  834 1212  580
[01]  13(G14)  f 43  7  0   1253.0  2045998.3 -0.1  2 0 1406 2047  743
[02]  15(G16)  f 45 23  0  -2009.2  2046002.5  0.0  2 0 2163 3495 1586
[03]  21(G22)  f 44  7  0    784.9  2045998.9  0.0  2 0 1753 3467 1713
[04]  22(G23)  f 39  7  0  -4239.2  2046005.4 -0.1  2 0  736 1371  970
[05]  25(G26)  f 46  7  0     69.2  2045999.9  0.0  2 0 3105 4777 1998
[06]  26(G27)  f 41 11  0  -4686.0  2046006.0  0.0  2 0 1529 2179  651
[08]  30(G31)  f 44  7  0    393.1  2045999.4  0.1  2 0 1704 2765 1456
[09]  31(G32)  f 40  7  0   2101.0  2045997.2 -0.1  2 0 1687 2136 1290
[16]  37(B01) 1f 41 10  0  -1151.8  4092002.9 -0.3  2 0 1108 1582  760
[17]  38(B02)  1 26 22  0   -971.2  4092004.7  0.0  1 0  428  277 1081
[18]  39(B03)  1 43 27  0  -1149.0  4092005.0  1.0  1 0 1252 2519 1178
[19]  40(B04)  1 10 22  1  -1142.7  4092003.1  0.2  1 0  333 1075 1739
[20]  43(B07)  1  7  7  0   -750.0  4092003.8  0.0  1 0  689  869 2092
[21]  42(B06) 1f 42  7  0   -501.0  4092001.2  0.0  2 0 1912 1953  541
[22]  45(B09)  1  7  7  0  -1250.0  4092005.3 -0.0  1 0  537  454 1519
[25]  46(B10) 1f 43  7  0  -1082.4  4092002.7 -0.1  2 0 1512 2209  829
[26]  52(B16) 1f 43  7  0   -537.7  4092001.3  0.0  2 0 2073 2604 1585
[27]  54(B18) 1f 43  7  0   -970.9  4092002.4 -0.0  2 0 2576 3286 1492
[29]  57(B21) 1f 42  8  0  -3021.4  4092007.8  0.0  2 0 1836 2248  744
[30]  58(B22) 1f 43  7  0   -374.7  4092000.8  0.0  2 0 2209 2745 1584
[32]  75(N-6)  f 45 10  0  -4488.8  1022002.8  0.1  2 0  1197 1983  988
[33]  76(N-5)  f 47  7  0  -1122.9  1022000.7  0.1  2 0  2229 4015 1993
[34]  78(N-3)  f 35  7  0  -3815.8  1022002.3  0.0  2 0   644  770  342
[35]  82(N01)  f 40  7  0   1407.9  1021999.0  0.2  2 0   862 1085  733
[36]  83(N02)  f 46  8  0   -564.7  1022000.3 -0.1  2 0  1934 3390 1548
[37]  84(N03)  f 38  7  0  -1121.5  1022000.7  0.2  2 0   920 1184  635
[38]  85(N04)  f 43  7  0   2538.5  1021998.3  0.1  2 0   964 1870 1037
[40]  86(N05)  f 37  7  0  -4740.6  1022002.9  0.0  2 0   210  889  473
[48]  37(B01)  1 10 10  1  -1027.4 20460017.6 -0.1  1 0  247  556  357
[53]  42(B06)  1  7  7  0    392.0 20460007.5  0.2  1 0  546  818  962
[57]  46(B10)  1  7  7  0  -1258.7 20460016.7  0.1  1 0  369  494  173
[58]  52(B16)  1  9  7  0   -529.2 20460008.0  0.1  1 0  367  360  167
[59]  54(B18)  1  7  7  0   -683.0 20460013.8  0.0  1 0  283  746  659
[61]  57(B21)  1  7  7  0  -2442.2 20460048.1  0.0  1 0  713  126  502
[62]  58(B22)  1  7  7  0    547.8 20460005.7  0.1  1 0  122   65  208
$GNGGA,021156.000,2944.9112,N,10633.0956,E,1,06,3.8,327.3,M,,,,0000*15
$GNRMC,021156.000,A,2944.9112,N,10633.0956,E,0.11,0.00,070180,,*1F
$GPGSA,A,3,,,,,,,,,,,,,5.4,3.8,3.9*32
$BDGSA,A,3,01,06,10,16,21,22,,,,,,,5.4,3.8,3.9*21
$GLGSA,A,3,,,,,,,,,,,,,5.4,3.8,3.9*2E
$GPGSV,3,1,09,03,00,000,39,14,00,000,43,16,00,000,45,22,00,000,44*7F
$GPGSV,3,2,09,23,00,000,39,26,00,000,46,27,00,000,41,31,00,000,44*7E
$GPGSV,3,3,09,32,00,000,40*45
$BDGSV,3,1,12,01,40,126,41,06,56,149,42,10,66,268,43,16,65,153,43*6D
$BDGSV,3,2,12,18,00,000,43,21,19,312,42,22,49,257,43,02,45,218,00*6B
$BDGSV,3,3,12,03,54,172,00,04,23,110,00,05,26,244,00,07,75,354,00*6C
$B3CN0,0,0,0,0,0,0,0,0,0,0,0,0,0,0*4C
---00000014--- Acq_st=3 0  2000-1-7 2:11:56 
[00]  02(G03)  f 40  7  0    101.2  2045999.8  0.1  2 0  999 1547 1183
[01]  13(G14)  f 42  7  0   1253.6  2045998.3  0.0  2 0  960 2049 1025
[02]  15(G16)  f 45 21  0  -2013.0  2046002.5  0.0  2 0 1289 2811 1642
[03]  21(G22)  f 44  7  0    784.8  2045998.9  0.1  2 0 1986 3302 1396
[04]  22(G23)  f 39  7  0  -4236.1  2046005.4  0.0  2 0 1236 1428  710
[05]  25(G26)  f 46  7  0     71.7  2045999.8  0.0  2 0 3092 4277 1939
[06]  26(G27)  f 41  8  0  -4686.7  2046006.0  0.0  2 0 1408 2180  812
[08]  30(G31)  f 45  8  0    394.1  2045999.4  0.0  2 0 2092 3093 1724
[09]  31(G32)  f 40  7  0   2099.5  2045997.2  0.1  2 0 1523 2086 1223
[16]  37(B01) 1f 42 10  0  -1154.9  4092003.0 -0.1  2 0 1586 1634  535
[17]  38(B02)  7 41 27  0  -1102.7  4092002.8  0.0  2 0  630 1158  755
[18]  39(B03)  7 42 29  0  -1147.9  4092002.8  0.2  2 0 1677 1379  260
[19]  40(B04)  7 10 10  1  -1100.8  4092002.7  0.3  2 0 1295  661  292
[20]  43(B07)  1 37  7  0   -847.5  4092002.5  0.9  1 0 1455 2582 1221
[21]  42(B06) 1f 42  7  0   -503.7  4092001.2  0.0  2 0 1665 2372 1394
[22]  45(B09)  1  7 10  0  -1085.9  4092002.8  0.1  1 0 2421 2372  607
[24]  55(B19)  1  7  7  0   2000.0  4091996.1  0.0  1 0  394  538  745
[25]  46(B10) 1f 44  7  0  -1082.2  4092002.7  0.0  2 0 1294 1799 1037
[26]  52(B16) 1f 43  7  0   -539.1  4092001.3  0.0  2 0 1436 2476 1252
[27]  54(B18) 1f 43 11  0   -969.9  4092002.4 -0.0  2 0 1794 2781 1632
[29]  57(B21) 1f 42 10  0  -3018.6  4092007.8 -0.1  2 0 1320 1818 1247
[30]  58(B22) 1f 44  7  0   -371.6  4092000.9 -0.1  2 0 2749 3274 1618
[32]  75(N-6)  f 45  7  0  -4488.7  1022002.8  0.0  2 0  1323 2449 1195
[33]  76(N-5)  f 46  7  0  -1122.4  1022000.7  0.0  2 0  2154 4056 1913
[34]  78(N-3)  f 35 10  0  -3817.5  1022002.3 -0.0  2 0   164  514  382
[35]  82(N01)  f 40  7  0   1408.7  1021999.1  0.1  2 0   755 1174  740
[36]  83(N02)  f 46  7  0   -564.1  1022000.3  0.1  2 0  1580 3210 1569
[37]  84(N03)  f 39  7  0  -1120.4  1022000.6 -0.3  2 0   753 1330  685
[38]  85(N04)  f 43  7  0   2539.0  1021998.3  0.0  2 0   726 1694 1188
[40]  86(N05)  f 37  7  0  -4742.2  1022003.0  0.2  2 0   626  853  462
[48]  37(B01)  1 17 10  1  -1100.3 20460026.8  0.0  1 0  174  182  287
$GNGGA,021157.000,2944.9104,N,10633.0952,E,1,06,3.8,326.2,M,,,,0000*17
$GNRMC,021157.000,A,2944.9104,N,10633.0952,E,0.21,0.00,220419,,*1C
$GPGSA,A,3,,,,,,,,,,,,,5.4,3.8,3.9*32
$BDGSA,A,3,01,06,10,16,21,22,,,,,,,5.4,3.8,3.9*21
$GLGSA,A,3,,,,,,,,,,,,,5.4,3.8,3.9*2E
$GPGSV,3,1,09,03,00,000,40,14,00,000,42,16,00,000,45,22,00,000,44*70
$GPGSV,3,2,09,23,00,000,39,26,00,000,46,27,00,000,41,31,00,000,45*7F
$GPGSV,3,3,09,32,00,000,40*45
$BDGSV,3,1,12,01,40,126,42,02,45,218,41,03,54,172,42,06,56,149,42*6D
$BDGSV,3,2,12,10,66,268,43,16,65,153,43,18,00,000,43,21,19,312,42*67
$BDGSV,3,3,12,22,49,257,44,04,23,110,00,05,26,244,00,07,75,354,00*67
$B3CN0,0,0,0,0,0,0,0,0,0,0,0,0,0,0*4C
---00000015--- Acq_st=3 0  2019-4-22 2:11:57 
[00]  02(G03)  f 40  9  0     98.8  2045999.9  0.1  2 0 1000 1713 1040
[01]  13(G14)  f 43  7  0   1255.1  2045998.3 -0.0  2 0 1298 2170 1250
[02]  15(G16)  f 44 21  0  -2010.8  2046002.6  0.0  2 0 2558 3208 1680
[03]  21(G22)  f 44  7  0    783.3  2045998.9 -0.0  2 0 1769 3086  850
[04]  22(G23)  f 40  7  0  -4243.2  2046005.4 -0.2  2 0 1149 1514  758
[05]  25(G26)  f 46  7  0     69.6  2045999.8  0.0  2 0 2805 4310 1726
[06]  26(G27)  f 40  7  0  -4683.2  2046006.0 -0.0  2 0 1174 1924  905
[08]  30(G31)  f 44  7  0    393.0  2045999.4  0.0  2 0 1755 2793 1352
[09]  31(G32)  f 40 10  0   2097.0  2045997.2  0.0  2 0  823 2214 1877
[16]  37(B01) 1f 41 17  0  -1152.2  4092002.9  0.1  2 0 1272 1486  832
[17]  38(B02)  7 40 27  0  -1099.9  4092002.8 -0.4  2 0 1323 1622  583
[18]  39(B03)  7 43 28  0  -1148.1  4092002.8  0.1  2 0 1769 1924  996
[19]  40(B04)  7 38 21  0  -1136.0  4092002.8  0.2  2 0  881  953  117
[20]  43(B07) 19 46  7  0   -849.8  4092002.0  1.0  1 0 1944 3156 1292
[21]  42(B06) 1f 42  7  0   -505.9  4092001.2 -0.0  2 0  954 1850 1137
[22]  45(B09)  1  7  7  0  -1085.7  4092002.5  0.3  1 0 1533 2867 1797
[24]  55(B19)  1  7  7  0   1863.3  4091996.4  0.2  1 0 1692 2805 1579
[25]  46(B10) 1f 43  7  0  -1085.3  4092002.7 -0.0  2 0 1903 2802 1120
[26]  52(B16) 1f 44  7  0   -537.7  4092001.3  0.0  2 0 1774 2740 1304
[27]  54(B18) 1f 44  7  0   -975.8  4092002.4 -0.0  2 0 2528 3595 1514
[29]  57(B21) 1f 42  7  0  -3019.4  4092007.8  0.0  2 0 2202 2155  661
[30]  58(B22) 1f 45  7  0   -373.3  4092000.9  0.0  2 0 2423 2952 1468
[32]  75(N-6)  f 45  9  0  -4489.5  1022002.8 -0.1  2 0  1350 2440 1083
[33]  76(N-5)  f 46 10  0  -1121.5  1022000.7 -0.0  2 0  2159 4329 1935
[34]  78(N-3)  f 36  7  0  -3815.6  1022002.4  0.1  2 0   334  423  154
[35]  82(N01)  f 40  7  0   1408.4  1021999.1  0.1  2 0   560 1440  604
[36]  83(N02)  f 45  7  0   -564.0  1022000.3 -0.0  2 0  2034 3569 1791
[37]  84(N03)  f 39  7  0  -1121.8  1022000.7 -0.3  2 0   885 1140  592
[38]  85(N04)  f 43  7  0   2537.1  1021998.3 -0.0  2 0  1191 1965  819
[40]  86(N05)  f 37  7  0  -4740.6  1022003.0 -0.4  2 0   454  798  322
[53]  42(B06)  1  7  7  0   -375.0 20460007.2  0.2  1 0  838   76  400
[57]  46(B10)  1  7  7  0   -927.6 20460013.9  0.0  1 0 1116  809  526
[58]  52(B16)  1  7  7  0   -761.5 20460007.9 -0.1  1 0  433  249  376
[59]  54(B18)  1  7  7  0   -895.9 20460015.0  0.1  1 0  554  437  381
[61]  57(B21)  1 11  7  0  -2699.2 20460049.4 -0.0  1 0  814  676  556
[62]  58(B22)  1  8  7  0    -91.1 20460004.4 -0.1  1 0  698  536  340
$GNGGA,021158.000,2944.9086,N,10633.0940,E,1,07,2.0,323.1,M,,,,0000*1E
$GNRMC,021158.000,A,2944.9086,N,10633.0940,E,0.53,0.00,220419,,*1E
$GPGSA,A,3,,,,,,,,,,,,,2.9,2.0,2.1*38
$BDGSA,A,3,01,06,07,10,16,21,22,,,,,,2.9,2.0,2.1*2C
$GLGSA,A,3,,,,,,,,,,,,,2.9,2.0,2.1*24
$GPGSV,3,1,09,03,00,000,40,14,00,000,43,16,00,000,44,22,00,000,44*70
$GPGSV,3,2,09,23,00,000,40,26,00,000,46,27,00,000,40,31,00,000,44*71
$GPGSV,3,3,09,32,00,000,40*45
$BDGSV,3,1,12,01,40,126,41,02,45,218,40,03,54,172,43,04,23,110,38*6F
$BDGSV,3,2,12,06,56,149,42,10,66,268,43,16,65,153,44,18,00,000,44*65
$BDGSV,3,3,12,21,19,312,42,22,49,257,45,05,26,244,00,07,75,354,00*6E
$B3CN0,0,0,0,0,0,0,0,0,0,0,0,0,0,0*4C
---00000016--- Acq_st=3 0  2019-4-22 2:11:58 
[00]  02(G03)  f 39  7  0    102.3  2045999.8 -0.1  2 0  442 1329 1037
[01]  13(G14)  f 43  7  0   1258.9  2045998.3 -0.0  2 0 1817 2805 1000
[02]  15(G16)  f 44 22  0  -2005.2  2046002.5  0.1  2 0 2098 3469 1562
[03]  21(G22)  f 43  7  0    788.4  2045998.9  0.0  2 0 1613 3069 1324
[04]  22(G23)  f 40  7  0  -4237.9  2046005.4  0.0  2 0 1134 1397  964
[05]  25(G26)  f 45  7  0     72.7  2045999.8 -0.0  2 0 2795 4322 2564
[06]  26(G27)  f 41  7  0  -4685.2  2046006.0  0.0  2 0 1280 2106 1340
[08]  30(G31)  f 44  9  0    394.3  2045999.4  0.0  2 0 2239 3361 1272
[09]  31(G32)  f 39  7  0   2097.0  2045997.2  0.0  2 0 1083 1582  504
[16]  37(B01) 1f 40 10  0  -1152.3  4092002.9 -0.5  2 0 1299 1660  632
[17]  38(B02)  f 40 22  0  -1094.8  4092002.7  0.4  2 0  964 1473  755
[18]  39(B03)  f 43 27  0  -1143.1  4092002.9 -0.3  2 0 1350 1710  532
[19]  40(B04)  f 39 25  0  -1137.1  4092002.7 -0.1  2 0 1255  724  346
[20]  43(B07) 1f 35  7  0   -845.4  4092002.1  0.3  2 0 1269 2479 1458
[21]  42(B06) 1f 42  7  0   -502.0  4092001.2  0.0  2 0 1333 1970  465
[22]  45(B09)  7 30  7  0  -1082.6  4092002.8  0.1  5 0 1876 2950 1717
[24]  55(B19)  7 28  7  0   1867.5  4091994.9  0.1 10 0 1528 1671  538
[25]  46(B10) 1f 43  7  0  -1082.5  4092002.7  0.0  2 0 2062 2674  935
[26]  52(B16) 1f 44  7  0   -535.1  4092001.3  0.1  2 0 2098 2626 1025
[27]  54(B18) 1f 44  7  0   -970.4  4092002.4 -0.0  2 0 2422 3293 1445
[28]  65(B29)  1  7  7  0  -3717.6  4092008.8 -0.0  1 0  209   90   87
[29]  57(B21) 1f 42  7  0  -3020.2  4092007.8 -0.1  2 0 1845 1848 1044
[30]  58(B22) 1f 44  7  0   -371.7  4092000.9  0.0  2 0 2595 3442 1778
[32]  75(N-6)  f 45  7  0  -4485.7  1022002.8  0.0  2 0  1252 2391 1041
[33]  76(N-5)  f 46  7  0  -1117.8  1022000.7 -0.0  2 0  2342 3935 1776
[34]  78(N-3)  f 35  7  0  -3812.2  1022002.4 -0.1  2 0   497  963  140
[35]  82(N01)  f 40  7  0   1410.9  1021999.1 -0.3  2 0   486  901  695
[36]  83(N02)  f 46  8  0   -561.7  1022000.3 -0.0  2 0  2269 3744 1742
[37]  84(N03)  f 39  7  0  -1115.7  1022000.6 -0.2  2 0   807 1387  905
[38]  85(N04)  f 43  7  0   2540.3  1021998.4  0.0  2 0   884 2144 1350
[40]  86(N05)  f 37  7  0  -4738.6  1022003.0 -0.0  2 0   248  989  616
[48]  37(B01)  1 10 10  1   -819.7 20460016.5  0.1  1 0  469  522  631
[53]  42(B06)  1  7  9  0   -507.0 20460006.0  0.0  1 0  203  525  150
[57]  46(B10)  1  7  7  0  -1850.6 20460015.9  0.1  1 0  342  657  961
[58]  52(B16)  1  7  7  0   -572.3 20460009.3 -0.2  1 0  274  360  222
[59]  54(B18)  1  7  7  0   -947.5 20460015.4  0.0  1 0  884  877  547
[61]  57(B21)  1  9  7  0  -3205.7 20460046.9 -0.0  1 0  178  339  256
[62]  58(B22)  1  7  7  0   -233.4 20460005.5 -0.1  1 0  354  690  493
$GNGGA,021159.000,2944.9058,N,10633.0927,E,1,07,2.0,317.3,M,,,,0000*18
$GNRMC,021159.000,A,2944.9058,N,10633.0927,E,0.21,0.00,220419,,*18
$GPGSA,A,3,,,,,,,,,,,,,2.9,2.0,2.1*38
$BDGSA,A,3,01,06,07,10,16,21,22,,,,,,2.9,2.0,2.1*2C
$GLGSA,A,3,,,,,,,,,,,,,2.9,2.0,2.1*24
$GPGSV,3,1,09,03,00,000,39,14,00,000,43,16,00,000,44,22,00,000,43*79
$GPGSV,3,2,09,23,00,000,40,26,00,000,45,27,00,000,41,31,00,000,44*73
$GPGSV,3,3,09,32,00,000,39*4B
$BDGSV,3,1,12,01,40,126,40,02,45,218,40,03,54,172,43,04,23,110,40*61
$BDGSV,3,2,12,07,75,354,35,06,56,149,42,09,85,190,30,19,31,188,28*6A
$BDGSV,3,3,12,10,66,268,43,16,65,153,44,18,00,000,44,21,19,312,42*66
$B3CN0,0,0,0,0,0,0,0,0,0,0,0,0,0,0*4C
---00000017--- Acq_st=7 0  2019-4-22 2:11:59 
[00]  02(G03)  f 40 10  0     96.9  2045999.7 -0.1  2 0 1120 1960 1018
[01]  13(G14)  f 43  7  0   1255.9  2045998.3 -0.0  2 0 1786 2450  679
[02]  15(G16)  f 44 22  0  -2008.9  2046002.5 -0.1  2 0 2354 3555 1506
[03]  21(G22)  f 44  7  0    783.5  2045998.9 -0.0  2 0 1654 2561 1060
[04]  22(G23)  f 40  7  0  -4240.6  2046005.5 -0.0  2 0  935 1477  734
[05]  25(G26)  f 45  8  0     68.3  2045999.9  0.1  2 0 2590 4328 2061
[06]  26(G27)  f 41  7  0  -4688.7  2046006.0  0.0  2 0 1224 1601  881
[08]  30(G31)  f 44  7  0    391.6  2045999.4  0.0  2 0 1944 3149 1629
[09]  31(G32)  f 40  8  0   2099.7  2045997.2  0.0  2 0 1065 2198  853
[16]  37(B01) 1f 40 10  0  -1155.1  4092002.9 -0.1  2 0 1377 1574  535
[17]  38(B02)  f 40 24  0  -1101.0  4092002.7 -0.3  2 0 1062  950  216
[18]  39(B03)  f 42 28  0  -1147.2  4092002.9 -0.3  2 0 1692 1854 1107
[19]  40(B04)  f 38 18  0  -1137.0  4092002.8 -0.9  2 0 1279 1155  374
[20]  43(B07) 1f 43  7  0   -845.9  4092002.1 -0.0  2 0 1522 2305 1181
[21]  42(B06) 1f 42  7  0   -508.9  4092001.2  0.1  2 0 1868 2416  997
[22]  45(B09)  7 44  7  0  -1083.2  4092002.8  0.1  2 0 1637 2433  964
[24]  55(B19)  7 42  7  0   1865.0  4091994.9  0.0  2 0 2432 2413  874
[25]  46(B10) 1f 43  7  0  -1084.5  4092002.7  0.0  2 0 1729 2148  876
[26]  52(B16) 1f 44 10  0   -540.0  4092001.3  0.0  2 0 2180 2635 1100
[27]  54(B18) 1f 44  7  0   -972.6  4092002.4  0.0  2 0 2962 3690 1605
[28]  65(B29)  1  7  8  0  -3094.2  4092009.3 -0.1  1 0  606  737  278
[29]  57(B21) 1f 42  7  0  -3023.7  4092007.8 -0.0  2 0 1698 1813  515
[30]  58(B22) 1f 45  7  0   -373.3  4092000.9 -0.0  2 0 2036 2918 1243
[32]  75(N-6)  f 45  7  0  -4488.9  1022002.8 -0.0  2 0  1584 2669 1236
[33]  76(N-5)  f 46  7  0  -1122.5  1022000.7  0.0  2 0  2193 3919 1833
[34]  78(N-3)  f 35  7  0  -3818.1  1022002.4  0.1  2 0   359  478  345
[35]  82(N01)  f 40  7  0   1406.5  1021999.1  0.0  2 0   410 1079  692
[36]  83(N02)  f 45  7  0   -565.6  1022000.3  0.0  2 0  2188 3448 1648
[37]  84(N03)  f 39  7  0  -1122.8  1022000.7 -0.7  2 0   758 1166  274
[38]  85(N04)  f 44  7  0   2537.0  1021998.3 -0.0  2 0   853 1770 1152
[40]  86(N05)  f 37  7  0  -4743.4  1022003.0 -0.1  2 0   508  945  568
[41]  79(N-2)  1 17 16  0  -4297.3  1022004.0  0.0  1 0   379  121  480
[48]  37(B01)  1 13 14  0   -152.8 20460019.4 -0.1  1 0  200  300  177
[49]  38(B02)  1 10 10  1   -947.7 20460020.9  0.0  1 0  138   97  502
[50]  39(B03)  1 19 25  0  -1130.8 20460013.7 -0.0  1 0  198  181  606
[51]  40(B04)  1 18 18  0  -1270.0 20460022.9  0.0  1 0  399  439  808
[53]  42(B06)  1 11  7  0    -58.4 20460005.6 -0.1  1 0  545  707  718
[57]  46(B10)  1  7  7  0  -1539.4 20460015.6 -0.1  1 0  912  467  495
[58]  52(B16)  1  7  7  0   -445.3 20460007.5 -0.1  1 0  319  711  987
[59]  54(B18)  1  9  7  0  -1162.9 20460015.8 -0.0  1 0  592  572  835
[61]  57(B21)  1  7  7  0  -3181.5 20460048.0 -0.1  1 0  923  307  381
[62]  58(B22)  1  7  7  0   -130.8 20460004.0 -0.0  1 0  767  201  408
$GNGGA,021200.000,2944.9052,N,10633.0926,E,1,10,1.3,316.4,M,,,,0000*1C
$GNRMC,021200.000,A,2944.9052,N,10633.0926,E,0.48,0.00,220419,,*13
$GPGSA,A,3,,,,,,,,,,,,,2.2,1.3,1.7*36
$BDGSA,A,3,01,02,03,04,06,07,10,16,21,22,,,2.2,1.3,1.7*27
$GLGSA,A,3,,,,,,,,,,,,,2.2,1.3,1.7*2A
$GPGSV,3,1,09,03,00,000,40,14,00,000,43,16,00,000,44,22,00,000,44*70
$GPGSV,3,2,09,23,00,000,40,26,00,000,45,27,00,000,41,31,00,000,44*73
$GPGSV,3,3,09,32,00,000,40*45
$BDGSV,3,1,12,01,40,126,40,02,45,218,40,03,54,172,42,04,23,110,39*6E
$BDGSV,3,2,12,07,75,354,43,06,56,149,42,09,85,190,44,19,31,188,42*64
$BDGSV,3,3,12,10,66,268,43,16,65,153,44,18,00,000,44,21,19,312,42*66
$B3CN0,0,0,0,0,0,0,0,0,0,0,0,0,0,0*4C
---00000018--- Acq_st=7 0  2019-4-22 2:12:0 
[00]  02(G03)  f 40  7  0     98.7  2045999.8 -0.0  2 0 1323 1822  587
[01]  13(G14)  f 43  7  0   1258.7  2045998.3 -0.1  2 0 1367 2782 1603
[02]  15(G16)  f 44 21  0  -2005.8  2046002.5  0.1  2 0 2525 4034 2146
[03]  21(G22)  f 43  7  0    785.8  2045998.9 -0.0  2 0 1708 3044 1718
[04]  22(G23)  f 40  7  0  -4235.0  2046005.4 -0.1  2 0 1074 2246 1169
[05]  25(G26)  f 45  7  0     71.9  2045999.8  0.0  2 0 2958 4383 1768
[06]  26(G27)  f 40  7  0  -4684.3  2046006.0  0.1  2 0 1523 2647 1297
[08]  30(G31)  f 44  7  0    394.4  2045999.4 -0.0  2 0 2123 2619 1413
[09]  31(G32)  f 40  7  0   2099.8  2045997.2  0.1  2 0 1318 1826  746
[16]  37(B01) 1f 41 10  0  -1151.3  4092003.0 -0.5  2 0 1257 1550  575
[17]  38(B02) 1f 40 24  0  -1099.7  4092002.7 -0.5  2 0 1339 1610  572
[18]  39(B03) 1f 43 29  0  -1144.2  4092002.8  0.0  2 0 1597 2120  827
[19]  40(B04) 1f 40 19  0  -1134.6  4092002.9  0.6  2 0 1550 1141  279
[20]  43(B07) 1f 44  7  0   -845.8  4092002.1  0.0  2 0 1796 2543 1418
[21]  42(B06) 1f 42  7  0   -502.3  4092001.2 -0.0  2 0 1547 1819  765
[22]  45(B09)  7 43  7  0  -1080.4  4092002.7  0.0  2 0 1737 2712 1454
[24]  55(B19)  7 42  7  0   1868.1  4091995.0 -0.0  2 0 1567 1438  341
[25]  46(B10) 1f 44  7  0  -1082.3  4092002.7 -0.0  2 0 1841 2591 1051
[26]  52(B16) 1f 44  9  0   -532.5  4092001.3 -0.0  2 0 1481 1923  689
[27]  54(B18) 1f 44  7  0   -969.5  4092002.4 -0.1  2 0 2312 2679  887
[28]  65(B29)  1  7  7  0  -2381.4  4092009.1 -0.1  1 0  257  564  598
[29]  57(B21) 1f 41 11  0  -3019.1  4092007.8 -0.0  2 0 1781 2106  696
[30]  58(B22) 1f 44  7  0   -369.1  4092000.8  0.0  2 0 1979 3192 1326
[32]  75(N-6)  f 45  7  0  -4486.8  1022002.8  0.1  2 0  1080 2498 1219
[33]  76(N-5)  f 47  7  0  -1117.9  1022000.7 -0.0  2 0  2127 3947 1900
[34]  78(N-3)  f 35  7  0  -3811.9  1022002.5 -0.0  2 0   253  406  128
[35]  82(N01)  f 40  7  0   1408.7  1021999.1  0.0  2 0   460 1142  665
[36]  83(N02)  f 46  7  0   -562.9  1022000.3 -0.0  2 0  1844 3500 1624
[37]  84(N03)  f 38  7  0  -1117.0  1022000.7  0.5  2 0   845  921  391
[38]  85(N04)  f 43  7  0   2541.0  1021998.3 -0.0  2 0   753 1753  613
[40]  86(N05)  f 37  7  0  -4742.3  1022003.1  0.0  2 0   331  705  287
[41]  79(N-2)  1 15 16  0  -4227.2  1022004.3  0.0  1 0   308  375  354
[48]  37(B01)  1 10 10  0     14.6 20460018.6  0.1  1 0  372  230  168
[49]  38(B02)  1 10 13  0   -683.3 20460020.2 -0.2  1 0  212  694  357
[50]  39(B03)  1 19 10  1  -1490.9 20460020.2  0.0  1 0  294   29  347
[51]  40(B04)  1 22 17  1  -1297.7 20460016.9  0.0  1 0  845  591  423
[52]  43(B07)  1  7  7  0   -306.7 20460012.1  0.0  1 0  441  563  982
[53]  42(B06)  1  7  7  0   -211.7 20460007.0  0.0  1 0  527  684  604
[57]  46(B10)  1  7  7  0  -1930.4 20460016.7  0.0  1 0  229  390  381
[58]  52(B16)  1  7  8  0   -345.2 20460005.9  0.1  1 0  778  706  246
[59]  54(B18)  1  7  7  0   -813.0 20460016.0  0.1  1 0  968  658  430
[61]  57(B21)  1  7  7  0  -3161.5 20460049.0 -0.1  1 0  361  270  266
[62]  58(B22)  1  7  7  0   -443.1 20460007.0  0.1  1 0  507  345  229
$GNGGA,021201.000,2944.9050,N,10633.0926,E,1,10,1.3,316.3,M,,,,0000*18
$GNRMC,021201.000,A,2944.9050,N,10633.0926,E,0.28,0.00,220419,,*16
$GPGSA,A,3,,,,,,,,,,,,,2.2,1.3,1.7*36
$BDGSA,A,3,01,02,03,04,06,07,10,16,21,22,,,2.2,1.3,1.7*27
$GLGSA,A,3,,,,,,,,,,,,,2.2,1.3,1.7*2A
$GPGSV,3,1,09,03,00,000,40,14,00,000,43,16,00,000,44,22,00,000,43*77
$GPGSV,3,2,09,23,00,000,40,26,00,000,45,27,00,000,40,31,00,000,44*72
$GPGSV,3,3,09,32,00,000,40*45
$BDGSV,3,1,12,01,40,126,41,02,45,218,40,03,54,172,43,04,23,110,40*60
$BDGSV,3,2,12,07,75,354,44,06,56,149,42,09,85,190,43,19,31,188,42*64
$BDGSV,3,3,12,10,66,268,44,16,65,153,44,18,00,000,44,21,19,312,41*62
$B3CN0,0,0,0,0,0,0,0,0,0,0,0,0,0,0*4C
---00000019--- Acq_st=7 0  2019-4-22 2:12:1 
[00]  02(G03)  f 39  7  0     97.6  2045999.8  0.0  2 0  439  962  687
[01]  13(G14)  f 43  7  0   1254.1  2045998.3  0.0  2 0 1220 2105  984
[02]  15(G16)  f 44 22  0  -2011.5  2046002.5 -0.1  2 0 1948 3369 1515
[03]  21(G22)  f 43  8  0    779.7  2045998.9 -0.0  2 0 1799 2126  888
[04]  22(G23)  f 38  7  0  -4239.9  2046005.4 -0.0  2 0 1159 1527  637
[05]  25(G26)  f 45 11  0     70.5  2045999.8  0.0  2 0 2684 4030 1597
[06]  26(G27)  f 40  7  0  -4690.4  2046006.0  0.0  2 0 1036 1283  573
[08]  30(G31)  f 44  7  0    391.7  2045999.4 -0.0  2 0 2358 3543 1764
[09]  31(G32)  f 40  7  0   2100.8  2045997.2 -0.0  2 0 1241 1830 1192
[16]  37(B01) 1f 41 19  0  -1155.9  4092002.9  0.5  2 0  810 1490  364
[17]  38(B02) 1f 40 25  0  -1105.9  4092002.7  0.1  2 0 1223 1588  834
[18]  39(B03) 1f 42 28  0  -1151.9  4092002.9 -0.0  2 0 1213 1349  655
[19]  40(B04) 1f 40 10  0  -1137.1  4092002.8  0.3  2 0 1406 1683  829
[20]  43(B07) 1f 43  7  0   -847.5  4092002.1  0.0  2 0 1711 2049  586
[21]  42(B06) 1f 41  7  0   -504.9  4092001.2  0.0  2 0  973 1466  919
[22]  45(B09)  7 43 10  0  -1082.5  4092002.7  0.0  2 0 2256 2782 1281
[24]  55(B19)  7 42  7  0   1861.4  4091995.0  0.0  2 0 1628 2061  810
[25]  46(B10) 1f 43  7  0  -1085.3  4092002.7  0.0  2 0 1920 2383  848
[26]  52(B16) 1f 44  9  0   -539.0  4092001.3 -0.0  2 0 2257 2498  971
[27]  54(B18) 1f 44  7  0   -973.7  4092002.4 -0.0  2 0 2238 3268 1431
[28]  65(B29)  1  7  7  0  -3128.9  4092009.1 -0.1  1 0  334  276  431
[29]  57(B21) 1f 42 11  0  -3020.0  4092007.8  0.0  2 0 1819 2353 1110
[30]  58(B22) 1f 44  7  0   -372.3  4092000.8  0.0  2 0 2352 2843 1124
[32]  75(N-6)  f 45  7  0  -4489.7  1022002.8 -0.0  2 0  1175 2413 1294
[33]  76(N-5)  f 47  7  0  -1120.5  1022000.7 -0.0  2 0  2541 4174 1818
[34]  78(N-3)  f 35  7  0  -3816.4  1022002.4 -0.1  2 0   310  293  364
[35]  82(N01)  f 39  7  0   1404.2  1021999.1  0.0  2 0   884 1166  546
[36]  83(N02)  f 46 13  0   -566.2  1022000.3 -0.0  2 0  1993 3593 1505
[37]  84(N03)  f 39  7  0  -1120.0  1022000.7 -0.3  2 0   693 1160  219
[38]  85(N04)  f 44  7  0   2537.1  1021998.3  0.0  2 0   686 1757  826
[40]  86(N05)  f 36  7  0  -4746.9  1022003.0 -0.0  2 0   661  564  220
[41]  79(N-2)  1 11 17  0  -4252.0  1022003.1 -0.0  1 0   416  317  304
[48]  37(B01)  1 10 10  0   -370.8 20460022.0  0.2  1 0  398  153  473
[49]  38(B02)  1 14 10  0   -554.5 20460016.6 -0.1  1 0  945  520  211
[50]  39(B03)  1 18 21  0  -1364.9 20460017.0  0.1  1 0  642  684  451
[51]  40(B04)  1 19 20  1   -996.3 20460022.7 -0.2  1 0  608  224  467
[52]  43(B07)  1  7 10  0    111.6 20460012.0  0.0  1 0  178  538  500
$GNGGA,021202.000,2944.9049,N,10633.0925,E,1,10,1.3,316.5,M,,,,0000*16
$GNRMC,021202.000,A,2944.9049,N,10633.0925,E,0.34,0.00,220419,,*13
$GPGSA,A,3,,,,,,,,,,,,,2.2,1.3,1.7*36
$BDGSA,A,3,01,02,03,04,06,07,10,16,21,22,,,2.2,1.3,1.7*27
$GLGSA,A,3,,,,,,,,,,,,,2.2,1.3,1.7*2A
$GPGSV,3,1,09,03,00,000,39,14,00,000,43,16,00,000,44,22,00,000,43*79
$GPGSV,3,2,09,23,00,000,38,26,00,000,45,27,00,000,40,31,00,000,44*7D
$GPGSV,3,3,09,32,00,000,40*45
$BDGSV,3,1,12,01,40,126,41,02,45,218,40,03,54,172,42,04,23,110,40*61
$BDGSV,3,2,12,07,75,354,43,06,56,149,41,09,85,190,43,19,31,188,42*60
$BDGSV,3,3,12,10,66,268,43,16,65,153,44,18,00,000,44,21,19,312,42*66
$B3CN0,0,0,0,0,0,0,0,0,0,0,0,0,0,0*4C
---00000020--- Acq_st=3 0  2019-4-22 2:12:2 
[00]  02(G03)  f 39  7  0    100.6  2045999.8  0.1  2 0 1061 2122 1287
[01]  13(G14)  f 42  7  0   1258.0  2045998.3  0.0  2 0 1386 2207 1367
[02]  15(G16)  f 44 23  0  -2004.8  2046002.5  0.1  2 0 2268 3369 1544
[03]  21(G22)  f 43  7  0    786.4  2045998.9 -0.0  2 0 2118 3246 1176
[04]  22(G23)  f 39  7  0  -4235.8  2046005.4  0.0  2 0  700 1786  887
[05]  25(G26)  f 45  7  0     74.3  2045999.8  0.0  2 0 2559 4375 2189
[06]  26(G27)  f 41 10  0  -4687.0  2046006.1 -0.0  2 0  705 2344 1678
[08]  30(G31)  f 44  7  0    393.5  2045999.4 -0.0  2 0 2051 3028 1295
[09]  31(G32)  f 40  7  0   2105.3  2045997.2 -0.2  2 0  920 1878  709
[16]  37(B01) 1f 41 10  0  -1156.2  4092002.8 -0.3  2 0  909 1347  642
[17]  38(B02) 1f 40 23  0  -1096.8  4092002.8 -0.2  2 0 1303 1218  619
[18]  39(B03) 1f 43 28  0  -1143.1  4092002.9  0.3  2 0 1872 1934  809
[19]  40(B04) 1f 41 18  0  -1134.0  4092002.9 -0.7  2 0 1171 1299  817
[20]  43(B07) 1f 43  7  0   -845.2  4092002.1 -0.1  2 0 2106 2326  791
[21]  42(B06) 1f 42  7  0   -504.4  4092001.2  0.0  2 0 1289 1990 1072
[22]  45(B09)  7 43  7  0  -1077.5  4092002.7 -0.0  2 0 1798 2348  446
[24]  55(B19)  7 42  7  0   1869.9  4091994.9  0.1  2 0 1383 1640  602
[25]  46(B10) 1f 43  7  0  -1081.0  4092002.7 -0.0  2 0 1858 2489 1025
[26]  52(B16) 1f 44  8  0   -535.6  4092001.3  0.1  2 0 2073 2538 1201
[27]  54(B18) 1f 44  7  0   -969.1  4092002.4  0.0  2 0 2305 3017 1211
[29]  57(B21) 1f 42  7  0  -3021.1  4092007.8  0.0  2 0 1659 2029 1248
[30]  58(B22) 1f 44  7  0   -369.4  4092000.8 -0.0  2 0 2451 3093 1028
[32]  75(N-6) 8f 46  7  0  -4484.9  1022002.8  0.0  2 0  1558 2430 1215
[33]  76(N-5) 8f 47  7  0  -1116.1  1022000.7  0.0  2 0  2447 4133 2044
[34]  78(N-3) 8f 35  8  0  -3816.1  1022002.5 -0.0  2 0   588  760  408
[35]  82(N01) 8f 40  7  0   1408.0  1021999.0 -0.1  2 0   717  850   81
[36]  83(N02) 8f 46  8  0   -562.6  1022000.3  0.0  2 0  2411 4186 1934
[37]  84(N03) 8f 39  7  0  -1115.9  1022000.7  0.2  2 0   590 1221  768
[38]  85(N04) 8f 44  7  0   2541.8  1021998.4 -0.0  2 0   909 2081 1082
[40]  86(N05) 8f 36  7  0  -4740.7  1022003.0  0.1  2 0   442  529   86
[41]  79(N-2)  1 15 17  0  -4108.6  1022002.9 -0.1  1 0   170   59  169
[49]  38(B02)  f 19 10  0   -661.2 20460011.4 -0.0  2 0   48  154  528
[50]  39(B03)  1 14 23  1  -1265.9 20460022.9  0.1  1 0  540  764  253
[51]  40(B04)  1 23 26  0  -1036.0 20460021.2  0.0  1 0  202  397  275
[52]  43(B07)  1  7  7  0    339.3 20460013.1 -0.1  1 0  345  136  212
[53]  42(B06)  1  7  7  0   -436.1 20460007.0 -0.0  1 0  742 1153  680
[57]  46(B10)  1  7  7  0   -941.7 20460015.7 -0.1  1 0  544  496  822
[58]  52(B16)  1  7  7  0   -451.7 20460009.0 -0.0  1 0  231  423  332
[59]  54(B18)  1  7  7  0   -781.7 20460015.4 -0.1  1 0  555  441  810
[61]  57(B21)  1  7  7  0  -2170.9 20460047.0  0.2  1 0  724  253  205
[62]  58(B22)  1  7  7  0   -498.1 20460005.1 -0.0  1 0  309  590  682
$GNGGA,021203.000,2944.9049,N,10633.0925,E,1,10,1.3,316.6,M,,,,0000*14
$GNRMC,021203.000,A,2944.9049,N,10633.0925,E,0.32,0.00,220419,,*14
$GPGSA,A,3,,,,,,,,,,,,,2.2,1.3,1.7*36
$BDGSA,A,3,01,02,03,04,06,07,10,16,21,22,,,2.2,1.3,1.7*27
$GLGSA,A,3,,,,,,,,,,,,,2.2,1.3,1.7*2A
$GPGSV,3,1,09,03,00,000,39,14,00,000,42,16,00,000,44,22,00,000,43*78
$GPGSV,3,2,09,23,00,000,39,26,00,000,45,27,00,000,41,31,00,000,44*7D
$GPGSV,3,3,09,32,00,000,40*45
$BDGSV,3,1,12,01,40,126,41,02,45,218,40,03,54,172,43,04,23,110,41*61
$BDGSV,3,2,12,07,75,354,43,06,56,149,42,09,85,190,43,19,31,188,42*63
$BDGSV,3,3,12,10,66,268,43,16,65,153,44,18,00,000,44,21,19,312,42*66
$B3CN0,0,19,0,0,0,0,0,0,0,0,0,0,0,0*74
---00000021--- Acq_st=3 0  2019-4-22 2:12:3 
[00]  02(G03)  f 39  7  0    105.5  2045999.8 -0.1  2 0 1118 1744  890
[01]  13(G14)  f 42  7  0   1256.4  2045998.3  0.0  2 0 1142 2285  919
[02]  15(G16)  f 44 23  0  -2004.2  2046002.5 -0.0  2 0 2509 3745 1138
[03]  21(G22)  f 44  7  0    787.0  2045998.9  0.0  2 0 1425 2675 1316
[04]  22(G23)  f 40  7  0  -4238.8  2046005.5 -0.1  2 0 1050 1384  282
[05]  25(G26)  f 45  7  0     71.0  2045999.8 -0.0  2 0 2748 4835 2851
[06]  26(G27)  f 40  9  0  -4685.4  2046006.1  0.0  2 0 1268 2239 1609
[08]  30(G31)  f 44  7  0    394.4  2045999.4  0.1  2 0 2317 3457 2038
[09]  31(G32)  f 39  7  0   2100.6  2045997.2 -0.1  2 0 1220 2156  878
[16]  37(B01) 1f 40 10  0  -1152.0  4092002.8 -0.2  2 0  692 1292  355
[17]  38(B02) 1f 41 25  0  -1101.5  4092002.8 -0.1  2 0  989 1210  624
[18]  39(B03) 1f 42 27  0  -1144.5  4092002.8 -0.1  2 0 1655 1463  506
[19]  40(B04) 1f 40 17  0  -1136.1  4092002.9 -0.7  2 0 1217 1400  549
[20]  43(B07) 1f 43  9  0   -844.2  4092002.1  0.0  2 0 1649 2454 1200
[21]  42(B06) 1f 42  7  0   -499.1  4092001.2 -0.1  2 0 2078 2114 1268
[22]  45(B09) 1f 43  7  0  -1079.0  4092002.7  0.0  2 0 2027 2556 1040
[24]  55(B19) 1f 42  7  0   1869.2  4091995.0 -0.0  2 0 2199 2390 1061
[25]  46(B10) 1f 43  8  0  -1081.6  4092002.7 -0.0  2 0 1594 2246  940
[26]  52(B16) 1f 44  7  0   -535.8  4092001.3 -0.0  2 0 1931 2378  932
[27]  54(B18) 1f 44  7  0   -969.4  4092002.4 -0.1  2 0 2448 2980 1142
[29]  57(B21) 1f 42 10  0  -3017.6  4092007.8 -0.1  2 0 1568 2155 1064
[30]  58(B22) 1f 44  9  0   -369.6  4092000.9  0.0  2 0 2505 2945 1326
[32]  75(N-6) 8f 45  9  0  -4484.3  1022002.8  0.1  2 0  1227 2218  978
[33]  76(N-5) 8f 47  7  0  -1115.3  1022000.7  0.0  2 0  1983 4332 2221
[34]  78(N-3) 8f 35  7  0  -3815.9  1022002.4  0.0  2 0   446  418  284
[35]  82(N01) 8f 40  7  0   1409.0  1021999.1  0.1  2 0   557 1283  642
[36]  83(N02) 8f 46  7  0   -562.7  1022000.3 -0.0  2 0  2436 3725 1687
[37]  84(N03) 8f 39  7  0  -1116.4  1022000.7  0.4  2 0   960 1344  511
[38]  85(N04) 8f 44  7  0   2541.7  1021998.4 -0.1  2 0   952 1616  717
[40]  86(N05) 8f 37  7  0  -4742.6  1022003.1  0.2  2 0   399  880  505
[48]  37(B01)  1 16 16  0   -612.1 20460019.8  0.2  1 0  472  342  179
[49]  38(B02)  f 22 17  0  -1261.8 20460018.7 -0.1  2 0  193   63  480
[52]  43(B07)  1  7  7  0   -161.8 20460012.6 -0.1  1 0  387  260  509
[53]  42(B06)  1  7  7  0     83.8 20460007.8 -0.1  1 0   62  190  385
[57]  46(B10)  1  7  7  0   -968.6 20460016.4  0.0  1 0  231  516  207
[58]  52(B16)  1  7  7  0   -210.4 20460009.4  0.1  1 0  504  213  347
[59]  54(B18)  1  7  7  0   -749.6 20460015.5 -0.1  1 0  346  181  108
[61]  57(B21)  1  7  7  0  -1880.7 20460048.0  0.1  1 0  458  348  239
[62]  58(B22)  1  7  7  0   -797.5 20460006.0 -0.1  1 0  516  350  563
$GNGGA,021204.000,2944.9050,N,10633.0925,E,1,12,1.1,317.3,M,,,,0000*1F
$GNRMC,021204.000,A,2944.9050,N,10633.0925,E,0.45,0.00,220419,,*1B
$GPGSA,A,3,,,,,,,,,,,,,1.8,1.1,1.4*3E
$BDGSA,A,3,01,02,03,04,06,07,09,10,16,19,21,22,1.8,1.1,1.4*2E
$GLGSA,A,3,,,,,,,,,,,,,1.8,1.1,1.4*22
$GPGSV,3,1,09,03,00,000,39,14,00,000,42,16,00,000,44,22,00,000,44*7F
$GPGSV,3,2,09,23,00,000,40,26,00,000,45,27,00,000,40,31,00,000,44*72
$GPGSV,3,3,09,32,00,000,40*45
$BDGSV,3,1,12,01,40,126,40,02,45,218,41,03,54,172,42,04,23,110,40*61
$BDGSV,3,2,12,07,75,354,43,06,56,149,42,09,85,190,43,19,31,188,42*63
$BDGSV,3,3,12,10,66,268,43,16,65,153,44,18,00,000,44,21,19,312,42*66
$B3CN0,0,22,0,0,0,0,0,0,0,0,0,0,0,0*7C
---00000022--- Acq_st=3 0  2019-4-22 2:12:4 
[00]  02(G03)  f 41  7  0    102.8  2045999.8  0.0  2 0  179 1047  453
[01]  13(G14)  f 43  9  0   1260.7  2045998.3  0.0  2 0 1958 2791 1497
[02]  15(G16)  f 44 22  0  -2003.4  2046002.5 -0.0  2 0 1796 2942 1376
[03]  21(G22)  f 43  8  0    789.2  2045998.9 -0.0  2 0 1171 2365  655
[04]  22(G23)  f 39  7  0  -4240.9  2046005.4  0.0  2 0 1060 1192  241
[05]  25(G26)  f 45  7  0     73.2  2045999.8 -0.0  2 0 3309 4318 1346
[06]  26(G27)  f 41  7  0  -4684.9  2046006.0  0.0  2 0 1302 2212 1132
[08]  30(G31)  f 44  7  0    394.3  2045999.4 -0.0  2 0 2467 3436 1564
[09]  31(G32)  f 40  7  0   2100.1  2045997.2  0.0  2 0  990 1694  777
[16]  37(B01) 1f 41 36  0  -1151.5  4092003.0 -0.3  2 0 1360 1452  992
[17]  38(B02) 1f 39 27  0  -1099.9  4092002.8  0.0  2 0 1401 1621  916
[18]  39(B03) 1f 43 28  0  -1145.2  4092002.8 -0.1  2 0 1544 2055  632
[19]  40(B04) 1f 40 17  0  -1135.2  4092002.9 -0.1  2 0 1139 1698 1029
[20]  43(B07) 1f 43  7  0   -845.5  4092002.1 -0.0  2 0 1274 2246 1465
[21]  42(B06) 1f 42  7  0   -501.1  4092001.2  0.0  2 0 1449 1694  625
[22]  45(B09) 1f 43  7  0  -1078.1  4092002.7 -0.0  2 0 1926 2423 1232
[24]  55(B19) 1f 42  7  0   1869.7  4091995.0  0.1  2 0 2253 2138  599
[25]  46(B10) 1f 43  7  0  -1083.7  4092002.7 -0.0  2 0 1640 2335  947
[26]  52(B16) 1f 44 14  0   -533.9  4092001.3 -0.1  2 0 1891 2528 1026
[27]  54(B18) 1f 44  7  0   -970.5  4092002.4  0.1  2 0 2424 3294 1562
[28]  41(B05)  1 10 29  1  -1000.2  4092002.5 -0.1  1 0  426  564  403
[29]  57(B21) 1f 42  7  0  -3016.4  4092007.8  0.1  2 0 1618 2065  521
[30]  58(B22) 1f 44  9  0   -367.8  4092000.8 -0.0  2 0 2276 2691  821
[32]  75(N-6) 8f 45  7  0  -4483.4  1022002.8 -0.1  2 0  1222 2352 1029
[33]  76(N-5) 8f 47  7  0  -1114.3  1022000.7  0.0  2 0  2169 4008 1977
[34]  78(N-3) 8f 35  7  0  -3809.7  1022002.3  0.1  2 0   475  897  489
[35]  82(N01) 8f 40  7  0   1409.9  1021999.0 -0.0  2 0   270  553  767
[36]  83(N02) 8f 46  7  0   -561.5  1022000.3 -0.0  2 0  2128 3793 1944
[37]  84(N03) 8f 39  7  0  -1113.6  1022000.7 -0.6  2 0   376  722  378
[38]  85(N04) 8f 44  9  0   2541.4  1021998.3 -0.0  2 0   960 1674 1148
[40]  86(N05) 8f 36  7  0  -4742.3  1022003.0 -0.0  2 0   209  909  624
[48]  37(B01)  f 18 36  1   -272.9 20460003.6  0.2  2 0  322  319  465
[49]  38(B02)  f 36 10  0  -1288.7 20460020.8 -0.1  2 0  720  539  592
[50]  39(B03)  1 21 20  0   -872.3 20460020.9 -0.1  1 0  435  582  214
[51]  40(B04)  1 25 14  1   -994.2 20460021.5  0.1  1 0  186  602  524
[53]  42(B06)  1  7  7  0    185.3 20460005.6  0.0  1 0  440  734  627
[54]  45(B09)  1  7  7  0   -971.9 20460015.6  0.1  1 0  553  250  561
[56]  55(B19)  1  7  8  0    662.5 20459968.7 -0.0  1 0  836  751  692
[57]  46(B10)  1  7  7  0  -1142.6 20460017.2 -0.0  1 0  403  532  671
[58]  52(B16)  1  7  7  0   -322.1 20460008.8 -0.1  1 0  357   84  151
[59]  54(B18)  1  7  7  0  -1196.5 20460015.9  0.0  1 0  287 1019  748
[61]  57(B21)  1  7  7  0  -2010.0 20460047.8  0.1  1 0  224  711  546
[62]  58(B22)  1  7  7  0   -501.8 20460006.8 -0.1  1 0  311  546  457
$GNGGA,021205.000,2944.9052,N,10633.0923,E,1,12,1.1,320.1,M,,,,0000*1C
$GNRMC,021205.000,A,2944.9052,N,10633.0923,E,0.12,0.00,220419,,*1C
$GPGSA,A,3,,,,,,,,,,,,,1.8,1.1,1.4*3E
$BDGSA,A,3,01,02,03,04,06,07,09,10,16,19,21,22,1.8,1.1,1.4*2E
$GLGSA,A,3,,,,,,,,,,,,,1.8,1.1,1.4*22
$GPGSV,3,1,09,03,00,000,41,14,00,000,43,16,00,000,44,22,00,000,43*76
$GPGSV,3,2,09,23,00,000,39,26,00,000,45,27,00,000,41,31,00,000,44*7D
$GPGSV,3,3,09,32,00,000,40*45
$BDGSV,3,1,12,01,40,126,41,02,45,218,40,03,54,172,43,04,23,110,40*60
$BDGSV,3,2,12,07,75,354,43,06,56,149,42,09,85,190,43,19,31,188,42*63
$BDGSV,3,3,12,10,66,268,43,16,65,153,44,18,00,000,44,21,19,312,42*66
$B3CN0,18,36,0,0,0,0,0,0,0,0,0,0,0,0*40
---00000023--- Acq_st=3 0  2019-4-22 2:12:5 
[00]  02(G03)  f 40  7  0    105.7  2045999.7 -0.0  2 0 1344 1697  947
[01]  13(G14)  f 43  7  0   1264.1  2045998.3 -0.0  2 0 1944 2298  905
[02]  15(G16)  f 44 22  0  -2002.0  2046002.5  0.1  2 0 2023 2899 1166
[03]  21(G22)  f 43  7  0    789.1  2045998.9  0.0  2 0 1979 3221 1489
[04]  22(G23)  f 40  7  0  -4233.6  2046005.5 -0.2  2 0 1037 1933 1062
[05]  25(G26)  f 45  7  0     76.0  2045999.9 -0.0  2 0 2606 4150 1667
[06]  26(G27)  f 41  7  0  -4685.3  2046006.0  0.0  2 0 1345 2135  473
[08]  30(G31)  f 44  8  0    395.4  2045999.4  0.0  2 0 2248 3258 1551
[09]  31(G32)  f 40  7  0   2100.9  2045997.2 -0.0  2 0 1016 1423  726
[16]  37(B01) 1f 40 10  0  -1150.4  4092002.9  0.1  2 0 1262 1588  904
[17]  38(B02) 1f 39 24  0  -1095.7  4092002.8  0.4  2 0  862 1233  880
[18]  39(B03) 1f 43 29  0  -1143.3  4092002.8  0.4  2 0 1441 2070 1360
[19]  40(B04) 1f 39 13  0  -1135.4  4092002.8  0.5  2 0  932 1144  679
[20]  43(B07) 1f 43 10  0   -846.2  4092002.1 -0.0  2 0 1863 2743 1183
[21]  42(B06) 1f 42  9  0   -502.8  4092001.2  0.1  2 0 1180 1563  830
