SD initialized success
Create debug.log Failed! 3
bbram_blkflag = 1
rtcflag = 0
BBRAM Block OK: 01 EPHflag: c660a084 0026836d, rtc 00
Hot-start nowtime:day = 22,minute = 31,seconds = 34.00
Start Channel by LuYu
$GNGGA,000000.000,,,,,0,00,,,M,,,,0000*2B
$GNRMC,000000.000,A,,,,,,,060180,,*29
$GPGSA,A,1,,,,,,,,,,,,,,,*1E
$BDGSA,A,1,,,,,,,,,,,,,,,*0F
$GLGSA,A,1,,,,,,,,,,,,,,,*02
$B3CN0,0,0,0,0,0,0,0,0,0,0,0,0,0,0*4C
---00000001--- Acq_st=3 0  2019-4-22 2:31:35 
[00]  02(G03)  1 15  7  0    670.2  2045999.6  0.2  1 0 1037 1731  489
$GNGGA,000000.000,,,,,0,00,,,M,,,,0000*2B
$GNRMC,000000.000,A,,,,,,,060180,,*29
$GPGSA,A,1,,,,,,,,,,,,,,,*1E
$BDGSA,A,1,,,,,,,,,,,,,,,*0F
$GLGSA,A,1,,,,,,,,,,,,,,,*02
$B3CN0,0,0,0,0,0,0,0,0,0,0,0,0,0,0*4C
---00000002--- Acq_st=3 0  2019-4-22 2:31:36 
[00]  02(G03)  7 18  7  0    658.9  2045999.1  0.9 10 0 1083 1506 1120
[01]  13(G14)  1 35  7  0   1743.3  2045998.2  0.2  1 0 1189 1772  581
[02]  15(G16)  1 26  7  0  -1289.9  2046002.7  0.1  1 0 1712 3690 2241
[03]  21(G22)  1  7  7  0   1000.0  2046001.3 -0.0  1 0 1103 2440 2259
[04]  22(G23)  1  7  7  0  -4000.0  2046007.6 -0.0  1 0  306 1684 3012
[05]  25(G26)  1  7  7  0    500.0  2046002.2  0.0  1 0   82 1565 4062
$GNGGA,000000.000,,,,,0,00,,,M,,,,0000*2B
$GNRMC,000000.000,A,,,,,,,060180,,*29
$GPGSA,A,1,,,,,,,,,,,,,,,*1E
$BDGSA,A,1,,,,,,,,,,,,,,,*0F
$GLGSA,A,1,,,,,,,,,,,,,,,*02
$GPGSV,1,1,01,03,00,000,18*42
$B3CN0,0,0,0,0,0,0,0,0,0,0,0,0,0,0*4C
---00000003--- Acq_st=3 0  2019-4-22 2:31:37 
[00]  02(G03)  7 40  7  0    659.7  2045999.0 -0.3  2 0 1256 1526  686
[01]  13(G14)  7 24  7  0   1746.0  2045997.7  0.8 10 0 1286 1734  633
[02]  15(G16)  7 19  7  0  -1285.8  2046001.6  0.9 10 0 1893 3045  785
[03]  21(G22)  1 29  7  0   1095.8  2045998.4  0.8  1 0 1881 2273 1172
[04]  22(G23)  1 33  7  0  -3946.7  2046005.1  0.7  1 0 2264 2832  887
[05]  25(G26)  1 25  7  0    552.8  2045999.3  0.5  1 0 2594 3213 1295
[06]  26(G27)  1 22  7  0  -4445.6  2046007.7  0.3  1 0 1238 2868 1739
[08]  30(G31)  1 25  7  0    533.7  2046000.1  0.2  1 0 2553 2764 1024
[09]  31(G32)  1  7  7  0   2391.0  2045996.7  0.1  1 0  956 2274 1246
[16]  37(B01)  1 10 36  1  -1000.0  4092002.8 -0.0  1 0  478 1057 1493
[17]  38(B02)  1 16 29  1  -1000.0  4092001.9  0.2  1 0  492  574  774
[18]  39(B03)  1 10 34  1  -1000.0  4092001.3  0.1  1 0  118 1073 1738
[19]  40(B04)  1 10 10  0  -1000.0  4092002.5 -0.0  1 0  251  320  607
$GNGGA,000000.000,,,,,0,00,,,M,,,,0000*2B
$GNRMC,000000.000,A,,,,,,,060180,,*29
$GPGSA,A,1,,,,,,,,,,,,,,,*1E
$BDGSA,A,1,,,,,,,,,,,,,,,*0F
$GLGSA,A,1,,,,,,,,,,,,,,,*02
$GPGSV,1,1,03,03,00,000,40,14,00,000,24,16,00,000,19*41
$B3CN0,0,0,0,0,0,0,0,0,0,0,0,0,0,0*4C
---00000004--- Acq_st=3 0  2019-4-22 2:31:38 
[00]  02(G03)  7 39 12  0    665.2  2045999.1 -0.1  2 0  727 1965 1384
[01]  13(G14)  7 40  7  0   1752.6  2045997.6  0.2  2 0  983 1633  786
[02]  15(G16)  7 45  7  0  -1276.9  2046001.6 -0.1  2 0 1546 3138 1742
[03]  21(G22)  7 32  7  0   1100.4  2045998.5  0.4  5 0 1213 1786  786
[04]  22(G23)  7 32  7  0  -3942.1  2046005.0  0.5  5 0 1918 2266  863
[05]  25(G26)  7 28  7  0    561.3  2045999.2  0.6 10 0 2596 3754 1499
[06]  26(G27)  7 26  7  0  -4438.4  2046005.6  0.6 10 0 1953 2264  929
[08]  30(G31)  7 16  7  0    537.9  2045999.2  0.9 10 0 2047 3107  882
[09]  31(G32)  7 10  7  0   2397.6  2045996.8  1.0 10 0 1199 2063 1138
[16]  37(B01)  1 10 10  1  -1114.7  4092003.0  0.4  1 0 1216 1491  847
[17]  38(B02)  1 10 10  1   -685.8  4092004.2 -0.2  1 0  318   97  516
[18]  39(B03)  1 21 26  1  -1134.5  4092003.3  0.1  1 0  697  837 1378
[19]  40(B04)  1 17 16  0   -954.9  4092003.9  0.0  1 0  229  132  319
[20]  41(B05)  1 10 28  1   -914.7  4092002.4  0.0  1 0  308  227  267
[21]  42(B06)  1  7  7  0   -297.8  4092003.7  0.0  1 0  261 1166 1978
[22]  43(B07)  1  7  7  0   -779.8  4092004.3 -0.1  1 0  347  461 2312
[24]  45(B09)  1  7  7  0   -750.0  4092003.8  0.0  1 0   90  667 1692
[25]  46(B10)  1  7  7  0  -1000.0  4092003.0  0.1  1 0  176  333  542
$GNGGA,000000.000,,,,,0,00,,,M,,,,0000*2B
$GNRMC,000000.000,A,,,,,,,060180,,*29
$GPGSA,A,1,,,,,,,,,,,,,,,*1E
$BDGSA,A,1,,,,,,,,,,,,,,,*0F
$GLGSA,A,1,,,,,,,,,,,,,,,*02
$GPGSV,2,1,08,03,00,000,39,14,00,000,40,16,00,000,45,22,00,000,32*7D
$GPGSV,2,2,08,23,00,000,32,26,00,000,28,27,00,000,26,31,00,000,16*7B
$B3CN0,0,0,0,0,0,0,0,0,0,0,0,0,0,0*4C
---00000005--- Acq_st=3 0  2019-4-22 2:31:39 
[00]  02(G03)  7 40  7  0    667.8  2045999.0  0.1  2 0 1618 1860  993
[01]  13(G14)  7 39  7  0   1748.2  2045997.6  0.1  2 0  874 1924 1420
[02]  15(G16)  7 44  7  0  -1282.6  2046001.6  0.1  2 0 1584 2981 1370
[03]  21(G22)  7 42  9  0   1098.3  2045998.5 -0.1  2 0 1399 2568 1160
[04]  22(G23)  7 44  7  0  -3942.3  2046005.0 -0.0  2 0 1935 2879 1482
[05]  25(G26)  7 45  7  0    559.7  2045999.2 -0.0  2 0 3129 4362 1869
[06]  26(G27)  7 42  9  0  -4439.4  2046005.6 -0.1  2 0 1821 2686 1382
[08]  30(G31)  7 44  7  0    537.8  2045999.2  0.0  2 0 1836 2766 1314
[09]  31(G32)  7 40  7  0   2396.9  2045996.8 -0.2  2 0 1590 1802  290
[16]  37(B01)  f 39 36  0  -1113.8  4092002.8 -0.2  2 0 1651 1290  371
[17]  38(B02)  1 22 10  0   -572.5  4092004.2  0.3  1 0  632  533  188
[18]  39(B03)  7 10 10  0  -1361.5  4092003.9  0.1  2 0  280 1228 1874
[19]  40(B04)  1 10 36  1   -391.7  4092004.6 -0.1  1 0  781  645  520
[20]  41(B05)  1 10 10  0   -476.8  4092001.7  0.0  1 0  284  459  397
[21]  42(B06)  7 19  7  0   -296.9  4092000.7  0.2 10 0 1689 1599  631
[22]  43(B07)  7  8  7  0   -792.2  4092001.9  0.1 10 0 2280 2888 1448
[24]  45(B09)  1  7  7  0   -878.0  4092002.9  0.2  1 0 1411 2170 1243
[25]  46(B10)  1  7  7  0  -1495.9  4092005.7  0.1  1 0  506 1067 1218
[26]  52(B16)  1  7  7  0   -250.0  4092003.2 -0.1  1 0  411 1472 2883
[27]  54(B18)  1  7  7  0  -1000.0  4092003.4  0.0  1 0  757 2858 2606
[28]  55(B19)  1  7  7  0   2000.0  4091997.2  0.1  1 0  265 1219 1782
$GNGGA,000000.000,,,,,0,00,,,M,,,,0000*2B
$GNRMC,000000.000,A,,,,,,,060180,,*29
$GPGSA,A,1,,,,,,,,,,,,,,,*1E
$BDGSA,A,1,,,,,,,,,,,,,,,*0F
$GLGSA,A,1,,,,,,,,,,,,,,,*02
$GPGSV,3,1,09,03,00,000,40,14,00,000,39,16,00,000,44,22,00,000,42*7B
$GPGSV,3,2,09,23,00,000,44,26,00,000,45,27,00,000,42,31,00,000,44*74
$GPGSV,3,3,09,32,00,000,40*45
$BDGSV,1,1,02,01,00,000,39,06,00,000,18*6E
$B3CN0,0,0,0,0,0,0,0,0,0,0,0,0,0,0*4C
---00000006--- Acq_st=3 0  2019-4-22 2:31:40 
[00]  02(G03)  7 40 11  0    676.1  2045999.1 -0.0  2 0 1161 1833 1078
[01]  13(G14)  7 40  7  0   1757.9  2045997.6  0.0  2 0 1168 1737  796
[02]  15(G16)  7 43  7  0  -1272.3  2046001.6 -0.0  2 0 1697 2871 2012
[03]  21(G22)  7 42  7  0   1110.4  2045998.5  0.0  2 0 1447 2204 1109
[04]  22(G23)  7 44  8  0  -3934.9  2046005.0  0.0  2 0 2028 2373  573
[05]  25(G26)  7 45  7  0    567.4  2045999.2  0.1  2 0 3225 4506 2127
[06]  26(G27)  7 43  7  0  -4429.7  2046005.7 -0.0  2 0 2117 2655 1419
[08]  30(G31)  7 43  7  0    543.2  2045999.2 -0.1  2 0 2140 2860  922
[09]  31(G32)  7 40 10  0   2404.6  2045996.8  0.1  2 0  974 1837  983
[16]  37(B01)  f 38 10  0  -1108.4  4092002.7 -0.3  2 0 1394 1509  810
[17]  38(B02)  1 21 10  0   -590.2  4092002.2  0.2  1 0  979  576  335
[18]  39(B03)  7 19 10  0  -1347.8  4092003.6  0.0  2 0  756 2056 1438
[19]  40(B04)  1 10 10  1   -588.9  4092003.6 -0.0  1 0  961 1148  380
[20]  41(B05)  1 10 25  0   -998.0  4092004.6  0.1  1 0  281  420  750
[21]  42(B06)  7 41  7  0   -284.6  4092000.6  0.1  2 0 2190 1925  647
[22]  43(B07)  7 44  7  0   -782.5  4092001.9 -0.0  2 0 2135 2659 1025
[24]  45(B09)  7 35  7  0   -870.2  4092002.1 -0.0  5 0 2034 2603  953
[25]  46(B10)  1 11  7  0  -1483.2  4092002.3  0.9  1 0 1524 1382  179
[26]  52(B16)  1  7  7  0   -312.3  4092000.7  0.2  1 0 2067 2689 1158
[27]  54(B18)  1  7  7  0   -933.9  4092002.4  0.1  1 0 1490 2585 1178
[28]  55(B19)  1  7  7  0   2032.9  4091994.6  0.1  1 0  982 1276  564
[29]  57(B21)  1  7  7  0  -2511.3  4092005.0  0.2  1 0  565    3  395
[30]  58(B22)  1 15  7  0   -248.9  4091998.2  0.1  1 0 1196 1921  862
[48]  37(B01)  1 21 10  1   -964.0 20460016.8  0.0  1 0  194  783  558
$GNGGA,000000.000,,,,,0,00,,,M,,,,0000*2B
$GNRMC,000000.000,A,,,,,,,060180,,*29
$GPGSA,A,1,,,,,,,,,,,,,,,*1E
$BDGSA,A,1,,,,,,,,,,,,,,,*0F
$GLGSA,A,1,,,,,,,,,,,,,,,*02
$GPGSV,3,1,09,03,00,000,40,14,00,000,40,16,00,000,43,22,00,000,42*72
$GPGSV,3,2,09,23,00,000,44,26,00,000,45,27,00,000,43,31,00,000,43*72
$GPGSV,3,3,09,32,00,000,40*45
$BDGSV,2,1,05,01,00,000,39,03,00,000,18,06,00,000,41,07,00,000,44*6B
$BDGSV,2,2,05,09,00,000,34*53
$B3CN0,0,0,0,0,0,0,0,0,0,0,0,0,0,0*4C
---00000007--- Acq_st=3 0  2019-4-22 2:31:41 
[00]  02(G03)  7 40  7  0    668.9  2045999.1  0.1  2 0  925 1354  865
[01]  13(G14)  7 40  7  0   1755.9  2045997.7 -0.0  2 0 1240 1657  876
[02]  15(G16)  7 44  7  0  -1273.5  2046001.6  0.1  2 0 2592 3035 1276
[03]  21(G22)  7 41  7  0   1110.3  2045998.5 -0.0  2 0 1813 2542  532
[04]  22(G23)  7 43  7  0  -3934.9  2046005.0 -0.1  2 0 1381 2534 1062
[05]  25(G26)  7 45  7  0    568.5  2045999.2 -0.1  2 0 2207 3941 2427
[06]  26(G27)  7 43  7  0  -4431.7  2046005.7  0.0  2 0 2011 2380 1114
[08]  30(G31)  7 43  7  0    542.8  2045999.2  0.0  2 0 1373 2551  890
[09]  31(G32)  7 40  7  0   2403.5  2045996.8  0.0  2 0 1074 1592  765
[16]  37(B01)  f 40 17  0  -1107.2  4092002.6  0.1  2 0 1407 1377  237
[17]  38(B02)  1 23 10  1   -568.5  4092003.9  0.3  1 0  473  522  354
[18]  39(B03)  7 17 10  0  -1346.4  4092003.3  0.1  2 0 1821 1606  751
[19]  40(B04)  1 10 36  1   -248.3  4092003.1  0.1  1 0  145  431  192
[20]  41(B05)  7 37 24  0  -1063.7  4092002.9 -0.7  2 0  289  930  488
[21]  42(B06)  7 41  7  0   -288.2  4092000.6 -0.0  2 0 1506 1916  342
[22]  43(B07)  7 43  7  0   -786.4  4092001.9 -0.0  2 0 1177 1544  557
[24]  45(B09)  7 43  7  0   -866.8  4092002.1  0.1  2 0 1686 2188 1224
[25]  46(B10)  1  8  7  0  -1481.3  4092002.5  0.9  1 0  855 1678 1112
[26]  52(B16)  7 36  7  0   -311.3  4092000.7  0.0  2 0 2407 3204 1608
[27]  54(B18)  7 30  7  0   -933.2  4092002.4 -0.0  5 0 1930 2987 1417
[28]  55(B19)  7 29  7  0   2037.2  4091994.6  0.1 10 0 1168 1762  805
[29]  57(B21)  1 10  7  0  -2458.0  4092005.2 -0.0  1 0  162  199  371
[30]  58(B22)  1  7 13  0   -249.4  4091999.4  0.9  1 0 1215 2335 1299
[48]  37(B01)  1 10 17  1  -1519.3 20460020.5 -0.0  1 0  679  629  440
$GNGGA,000000.000,,,,,0,00,,,M,,,,0000*2B
$GNRMC,000000.000,A,,,,,,,060180,,*29
$GPGSA,A,1,,,,,,,,,,,,,,,*1E
$BDGSA,A,1,,,,,,,,,,,,,,,*0F
$GLGSA,A,1,,,,,,,,,,,,,,,*02
$GPGSV,3,1,09,03,00,000,40,14,00,000,40,16,00,000,44,22,00,000,41*76
$GPGSV,3,2,09,23,00,000,43,26,00,000,45,27,00,000,43,31,00,000,43*75
$GPGSV,3,3,09,32,00,000,40*45
$BDGSV,3,1,09,01,00,000,40,03,00,000,18,05,00,000,37,06,00,000,41*6E
$BDGSV,3,2,09,07,00,000,43,09,00,000,43,16,00,000,35,18,00,000,30*65
$BDGSV,3,3,09,19,00,000,28*53
$B3CN0,0,0,0,0,0,0,0,0,0,0,0,0,0,0*4C
---00000008--- Acq_st=3 0  2019-4-22 2:31:42 
[00]  02(G03)  7 40 10  0    670.7  2045999.1 -0.1  2 0 1244 1866 1247
[01]  13(G14)  7 40  7  0   1753.3  2045997.6  0.0  2 0 1181 1493 1011
[02]  15(G16)  7 44  7  0  -1276.8  2046001.6 -0.0  2 0 1779 3057 1779
[03]  21(G22)  7 42  7  0   1101.4  2045998.5  0.0  2 0 1440 1804  829
[04]  22(G23)  7 44  7  0  -3937.6  2046005.0 -0.1  2 0 2260 3366 1410
[05]  25(G26)  7 45  7  0    563.0  2045999.2 -0.0  2 0 2945 4091 1671
[06]  26(G27)  7 43  7  0  -4438.4  2046005.7  0.1  2 0 2360 3007 1545
[08]  30(G31)  7 43  7  0    541.3  2045999.2  0.1  2 0 1618 2429 1207
[09]  31(G32)  7 40  7  0   2402.3  2045996.9 -0.1  2 0  853 1230  339
[16]  37(B01) 1f 40 18  0  -1119.3  4092002.8 -0.1  2 0 1449 1846  770
[20]  41(B05)  f 39 27  0  -1066.8  4092002.8  0.1  2 0  489 1089  729
[21]  42(B06)  7 41  7  0   -290.3  4092000.6  0.1  2 0 2107 1850  383
[22]  43(B07)  7 43  7  0   -788.0  4092001.9 -0.0  2 0 1793 2535 1191
[24]  45(B09)  7 43  7  0   -874.4  4092002.2  0.0  2 0 1929 2320 1148
[25]  46(B10)  1 12  7  0  -1491.5  4092002.4  0.9  1 0  654 1505  660
[26]  52(B16)  7 43  7  0   -318.1  4092000.7  0.0  2 0 2123 2759  834
[27]  54(B18)  7 45  7  0   -937.1  4092002.4  0.1  2 0 1999 2950 1513
[28]  55(B19)  7 42  9  0   2037.0  4091994.6  0.0  2 0 1431 1813  881
[29]  57(B21)  1 10  9  0  -2210.9  4092005.2 -0.1  1 0  440  515  499
[30]  58(B22)  1  7 10  0   -254.1  4091999.4  0.9  1 0 1506 2699 1209
[32]  75(N-6)  1 44 17  0  -3749.4  1022002.9  0.7  1 0  1196 1896 1014
[33]  76(N-5)  1 33 18  0    -19.7  1022001.0  0.6  1 0  2272 3177 1398
[34]  78(N-3)  1 25 15  0  -3183.4  1022003.2  0.2  1 0   463 1014  828
[35]  79(N-2)  1 19 15  0  -4881.2  1022003.6  0.1  1 0   597 1077  600
[36]  83(N02)  1 11  7  0   -250.0  1022002.6  0.0  1 0   837 2272 2856
[37]  84(N03)  1  7  7  0   -250.0  1022002.3  0.1  1 0   132  563 1495
[38]  85(N04)  1 20 13  0   2984.1  1022000.1 -0.0  1 0   194 1284  866
[40]  86(N05)  1  7  7  0 -18237.3  1022004.8  0.0  1 0   178  421 1338
[48]  37(B01)  1 10 14  0  -1948.9 20460018.2 -0.1  1 0  644  143  159
$GNGGA,023143.451,2944.9075,N,10633.0928,E,1,10,1.0,330.0,M,,,,0000*12
$GNRMC,023143.451,A,2944.9075,N,10633.0928,E,0.02,0.00,070180,,*12
$GPGSA,A,3,03,14,16,22,23,26,27,31,32,,,,2.3,1.0,2.1*33
$BDGSA,A,3,01,,,,,,,,,,,,2.3,1.0,2.1*21
$GLGSA,A,3,,,,,,,,,,,,,2.3,1.0,2.1*2D
$GPGSV,3,1,09,03,00,000,39,14,00,000,40,16,00,000,44,22,00,000,42*7B
$GPGSV,3,2,09,23,00,000,44,26,00,000,45,27,00,000,42,31,00,000,43*73
$GPGSV,3,3,09,32,00,000,40*45
$BDGSV,2,1,08,01,00,000,41,05,00,000,39,06,00,000,41,07,00,000,43*6B
$BDGSV,2,2,08,09,00,000,43,16,00,000,43,18,00,000,45,19,00,000,42*68
$B3CN0,0,0,0,0,0,0,0,0,0,0,0,0,0,0*4C
---00000009--- Acq_st=7 0  2000-1-7 2:31:43 
[00]  02(G03)  f 40 14  0    664.4  2045999.1  0.1  2 0 1337 2069 1070
[01]  13(G14)  f 40 12  0   1750.8  2045997.6  0.0  2 0 1460 1914  506
[02]  15(G16)  f 43  7  0  -1276.9  2046001.6 -0.1  2 0 2044 3741 1750
[03]  21(G22)  f 42  7  0   1100.0  2045998.5 -0.1  2 0 1204 2308 1196
[04]  22(G23)  f 44  7  0  -3940.8  2046005.0  0.0  2 0 2263 3167 1289
[05]  25(G26)  f 45  7  0    560.9  2045999.2  0.1  2 0 2370 3777 1958
[06]  26(G27)  f 43  7  0  -4440.8  2046005.7 -0.0  2 0 1884 2577 1250
[08]  30(G31)  f 43  7  0    537.2  2045999.2 -0.0  2 0 2075 3252 1547
[09]  31(G32)  f 40  7  0   2399.5  2045996.8  0.0  2 0 1176 1639  723
[16]  37(B01) 1f 41 10  0  -1116.0  4092002.8 -0.0  2 0 1250 1690  709
[20]  41(B05)  f 38 25  0  -1068.7  4092003.0  0.4  2 0  835 1142 1064
[21]  42(B06)  7 42  7  0   -296.2  4092000.6  0.0  2 0 1659 1539  462
[22]  43(B07)  7 43  7  0   -792.0  4092001.9  0.0  2 0 1813 2682 1442
[24]  45(B09)  7 43  7  0   -870.8  4092002.2 -0.0  2 0 1648 2401 1479
[26]  52(B16)  7 44  7  0   -319.1  4092000.7  0.1  2 0 2202 2553 1072
[27]  54(B18)  7 44  7  0   -935.2  4092002.3 -0.0  2 0 2357 3507 1374
[28]  55(B19)  7 42 12  0   2034.3  4091994.6  0.0  2 0 1456 1832 1427
[29]  57(B21)  1  7  7  0  -1822.4  4092005.3  0.1  1 0  391  568  234
[30]  58(B22)  1  7  7  0   -254.7  4091999.3  0.9  1 0 1178 2156 1271
[32]  75(N-6)  7 31  7  0  -3749.5  1022002.3  0.4  5 0   805 1188  465
[33]  76(N-5)  7 29  7  0    -18.2  1021999.9  0.6  5 0  2146 3017 1164
[34]  78(N-3)  7 19  7  0  -3187.1  1022001.8  0.9 10 0   608  705  132
[35]  79(N-2)  7  7  7  0  -4886.5  1022003.1  0.9 10 0   498  897  522
[36]  83(N02)  1 34 18  0   -330.4  1022000.3  1.0  1 0  2172 3172 1291
[37]  84(N03)  1 29 11  0   -159.7  1022000.1  1.0  1 0  1293 1632  520
[38]  85(N04)  1 33 25  0   3006.6  1021997.5  1.0  1 0  1073 1184  474
[40]  86(N05)  1 25 14  0  -4820.4  1022003.4  0.9  1 0   854 1307  506
[48]  37(B01)  f 10 22  0  -1992.4 20460033.6 -0.1  2 0  241  281  370
[52]  41(B05)  1 21 23  1   -785.9 20460014.1  0.0  1 0  808  679  253
---00000010--- Acq_st=7 0  2000-1-7 2:31:43 
[00]  02(G03)  f 40  7  0    672.1  2045999.1 -0.0  2 0  952 1798 1239
[01]  13(G14)  f 40  7  0   1760.8  2045997.6 -0.0  2 0 1072 1231  920
[02]  15(G16)  f 43  7  0  -1270.0  2046001.6 -0.0  2 0 2252 3430 1736
[03]  21(G22)  f 42  7  0   1116.3  2045998.5  0.0  2 0 1378 2041 1110
[04]  22(G23)  f 44  7  0  -3928.8  2046005.0  0.0  2 0 2206 3618 1831
[05]  25(G26)  f 45  7  0    571.9  2045999.2 -0.0  2 0 2725 4509 1249
[06]  26(G27)  f 43  7  0  -4425.6  2046005.7  0.0  2 0 2068 2814 1278
[08]  30(G31)  f 43  7  0    548.0  2045999.2  0.1  2 0 1888 2897 1592
[09]  31(G32)  f 40  7  0   2408.7  2045996.8 -0.0  2 0 1491 1341  567
[16]  37(B01) 1f 40 10  0  -1104.3  4092002.7  0.5  2 0  622  937  190
[20]  41(B05)  f 38 13  0  -1055.9  4092002.6  0.6  2 0  994 1135  590
[21]  42(B06)  7 41  7  0   -285.4  4092000.6 -0.1  2 0 1737 1948  565
[22]  43(B07)  7 43  8  0   -781.8  4092001.9  0.1  2 0 1728 1918  628
[24]  45(B09)  7 43  7  0   -862.2  4092002.1  0.0  2 0 1564 2093  745
[26]  52(B16)  7 44 12  0   -309.6  4092000.7 -0.0  2 0 1989 3012 1511
[27]  54(B18)  7 44  7  0   -926.6  4092002.3 -0.0  2 0 2066 2974 1618
[28]  55(B19)  7 42  9  0   2041.0  4091994.5 -0.1  2 0 1295 1643  790
[32]  75(N-6)  7 43 17  0  -3737.3  1022002.3 -0.0  2 0   936 1743  827
[33]  76(N-5)  7 48 17  0     -6.0  1021999.9  0.0  2 0  2317 3475 1577
[34]  78(N-3)  7 38 16  0  -3175.8  1022001.9  0.5  2 0   569 1099  645
[35]  79(N-2)  7 41 19  0  -4871.6  1022003.1  0.2  2 0   405  996  490
[36]  83(N02)  7 49 17  0   -316.7  1022000.1 -0.0  2 0  2324 3168 1368
[37]  84(N03)  7 42 15  0   -144.9  1022000.1 -0.3  2 0   627 1268  725
[38]  85(N04)  7 42 23  0   3019.1  1021998.0 -0.1  2 0   598 1292  516
[40]  86(N05)  7 36 15  0  -4807.9  1022002.9  0.4  2 0   797 1330  544
[48]  37(B01)  f 10 18  1  -2403.2 20460038.7  0.0  2 0  501  630  735
[52]  41(B05)  1 19 24  1   -232.1 20460014.6 -0.0  1 0  571  563  384
Refix G03: 2,  95522.923901, 671
Refix G08: 2,  95522.917450, -4815
Refix G14: 2,  95522.924641, 1755
Refix G16: 2,  95522.933107, -1274
Refix G22: 2,  95522.921497, 1104
Refix G23: 2,  95522.925048, -3937
Refix G26: 2,  95522.931088, 564
Refix G27: 2,  95522.925120, -4435
Refix G31: 2,  95522.924810, 539
Refix G32: 2,  95522.919153, 2400
$GNGGA,023145.000,2944.9069,N,10633.0937,E,1,10,0.9,327.4,M,,,,0000*1D
$GNRMC,023145.000,A,2944.9069,N,10633.0937,E,0.32,0.00,070180,,*14
$GPGSA,A,3,03,14,16,22,23,26,27,31,32,,,,1.5,0.9,1.2*3E
$BDGSA,A,3,01,,,,,,,,,,,,1.5,0.9,1.2*2C
$GLGSA,A,3,,,,,,,,,,,,,1.5,0.9,1.2*20
$GPGSV,3,1,09,03,00,000,40,14,00,000,40,16,00,000,43,22,00,000,42*72
$GPGSV,3,2,09,23,00,000,44,26,00,000,45,27,00,000,43,31,00,000,43*72
$GPGSV,3,3,09,32,00,000,40*45
$BDGSV,2,1,08,01,00,000,39,05,00,000,38,06,00,000,41,07,00,000,43*65
$BDGSV,2,2,08,09,00,000,43,16,00,000,44,18,00,000,44,19,00,000,42*6E
$B3CN0,0,0,0,0,0,0,0,0,0,0,0,0,0,0*4C
---00000011--- Acq_st=3 0  2000-1-7 2:31:45 
[00]  02(G03)  f 40  7  0    671.5  2045999.0 -0.1  2 0  784 1226  746
[01]  13(G14)  f 41  7  0   1756.3  2045997.7 -0.1  2 0 1209 1818  979
[02]  15(G16)  f 43  7  0  -1271.3  2046001.6  0.0  2 0 2327 3433 1647
[03]  21(G22)  f 42  7  0   1106.8  2045998.5  0.0  2 0 1948 2288  607
[04]  22(G23)  f 44  7  0  -3934.7  2046005.0 -0.0  2 0 1537 2807 1091
[05]  25(G26)  f 45  7  0    568.2  2045999.2 -0.0  2 0 2262 4065 1926
[06]  26(G27)  f 42  7  0  -4431.9  2046005.7  0.0  2 0 1424 2254 1254
[08]  30(G31)  f 44  7  0    544.1  2045999.2 -0.0  2 0 2080 2464 1099
[09]  31(G32)  f 40  7  0   2399.1  2045996.8 -0.0  2 0 1002 1503 1033
[16]  37(B01) 1f 40 10  0  -1108.4  4092002.8 -0.2  2 0 1220 1784  941
[20]  41(B05) 1f 37 28  0  -1070.4  4092002.7 -0.9  2 0 1011 1287  369
[21]  42(B06) 1f 41  7  0   -286.4  4092000.6 -0.0  2 0 1497 1794  918
[22]  43(B07) 1f 43  7  0   -781.7  4092002.0 -0.1  2 0 1647 2511 1269
[24]  45(B09) 1f 43  7  0   -869.0  4092002.2  0.0  2 0 1509 2014  716
[26]  52(B16) 1f 43  7  0   -312.4  4092000.7  0.0  2 0 2349 3118 1555
[27]  54(B18) 1f 44  7  0   -930.0  4092002.3  0.0  2 0 2805 3507 1425
[28]  55(B19) 1f 42  7  0   2038.4  4091994.5 -0.1  2 0 1442 2178  975
[32]  75(N-6)  7 44 19  0  -3741.2  1022002.3  0.0  2 0   892 1544  630
[33]  76(N-5)  7 48 19  0     -9.2  1021999.9 -0.1  2 0  2500 3603 1412
[34]  78(N-3)  7 39 14  0  -3179.8  1022002.0 -0.2  2 0   615  650  402
[35]  79(N-2)  7 41 14  0  -4876.7  1022003.0 -0.1  2 0   608 1209  612
[36]  83(N02)  7 48 15  0   -320.4  1022000.1  0.0  2 0  1835 3302 1624
[37]  84(N03)  7 42 15  0   -148.1  1022000.1  0.0  2 0   932 1250  415
[38]  85(N04)  7 42 25  0   3015.3  1021998.1  0.2  2 0  1159 1655  599
[40]  86(N05)  7 43 17  0  -4811.3  1022003.0 -0.0  2 0  1533 1890  509
[48]  37(B01)  f 10 13  0  -2174.0 20460033.6 -0.0  2 0  313  113  119
[52]  41(B05)  1 23 24  1     61.5 20460015.6 -0.1  1 0  110  413  267
Refix G03: 2,  95523.923900, 673
Refix G08: 2,  95523.917453, -4812
Refix G14: 2,  95523.924640, 1758
Refix G16: 2,  95523.933107, -1272
Refix G22: 2,  95523.921496, 1107
Refix G23: 2,  95523.925051, -3935
Refix G26: 2,  95523.931088, 566
Refix G27: 2,  95523.925123, -4432
Refix G31: 2,  95523.924809, 541
Refix G32: 2,  95523.919151, 2403
$GNGGA,023146.000,2944.9070,N,10633.0937,E,1,15,0.8,327.5,M,,,,0000*13
$GNRMC,023146.000,A,2944.9070,N,10633.0937,E,0.24,0.00,070180,,*18
$GPGSA,A,3,03,14,16,22,23,26,27,31,32,,,,0.9,0.8,0.5*34
$BDGSA,A,3,01,06,07,09,16,19,,,,,,,0.9,0.8,0.5*21
$GLGSA,A,3,,,,,,,,,,,,,0.9,0.8,0.5*2A
$GPGSV,3,1,10,03,29,249,40,14,30,138,41,16,76,280,43,22,23,227,42*7B
$GPGSV,3,2,10,23,37,315,44,26,61,023,45,27,32,168,42,31,35,069,44*7E
$GPGSV,3,3,10,32,13,142,40,08,08,190,00*70
$BDGSV,3,1,12,01,40,126,40,05,00,000,37,06,53,156,41,07,72,357,43*6F
$BDGSV,3,2,12,09,81,195,43,16,61,162,43,18,00,000,44,19,23,185,42*68
$BDGSV,3,3,12,03,54,172,00,04,23,110,00,10,65,278,00,22,45,245,00*65
$B3CN0,0,0,0,0,0,0,0,0,0,0,0,0,0,0*4C
---00000012--- Acq_st=3 0  2000-1-7 2:31:46 
[00]  02(G03)  f 40  7  0    683.2  2045999.1  0.1  2 0   98 1039  813
[01]  13(G14)  f 41  7  0   1764.7  2045997.6 -0.1  2 0  878 1674  762
[02]  15(G16)  f 44  7  0  -1264.1  2046001.6  0.0  2 0 1928 2862 1168
[03]  21(G22)  f 42  7  0   1114.1  2045998.5 -0.0  2 0 1436 2227 1211
[04]  22(G23)  f 44  8  0  -3928.0  2046005.0  0.0  2 0 2030 2627 2365
[05]  25(G26)  f 45  7  0    572.6  2045999.2  0.0  2 0 1902 3228 1590
[06]  26(G27)  f 43  7  0  -4426.2  2046005.7 -0.0  2 0 1525 2150  866
[08]  30(G31)  f 44  7  0    548.2  2045999.2  0.1  2 0 1701 2732 1187
[09]  31(G32)  f 41  7  0   2406.7  2045996.8  0.2  2 0  937 1545  798
[16]  37(B01) 1f 41 18  0  -1102.8  4092002.7 -0.4  2 0 1141 1922  934
[20]  41(B05) 1f 38 22  0  -1058.1  4092002.7 -0.3  2 0  530 1020  539
[21]  42(B06) 1f 41  7  0   -282.5  4092000.6  0.0  2 0 1422 1621  659
[22]  43(B07) 1f 43 10  0   -778.3  4092001.9  0.0  2 0 1895 2146  729
[24]  45(B09) 1f 42  7  0   -863.8  4092002.1  0.0  2 0 2039 2617 1209
[26]  52(B16) 1f 43  7  0   -308.9  4092000.7  0.0  2 0 2287 2832 1289
[27]  54(B18) 1f 44  7  0   -927.6  4092002.3 -0.0  2 0 2204 2788  801
[28]  55(B19) 1f 42 10  0   2043.9  4091994.5 -0.0  2 0 1792 2072  927
[32]  75(N-6)  f 32  7  0  -3736.5  1022002.3 -0.1  5 0   962 1577 1073
[33]  76(N-5)  f 32  7  0     -5.4  1021999.9 -0.0  5 0  2067 3367 1285
[34]  78(N-3)  f 31  7  0  -3172.5  1022002.0  0.9  5 0   566 1008  547
[35]  79(N-2)  f 32  7  0  -4872.2  1022003.1  0.2  5 0   656 1136  636
[36]  83(N02)  7 48 17  0   -314.7  1022000.2 -0.1  2 0  2094 3325 1807
[37]  84(N03)  7 42 14  0   -143.4  1022000.0  0.1  2 0   886 1215  935
[38]  85(N04)  7 42 25  0   3021.3  1021998.0  0.3  2 0   845 1489  788
[40]  86(N05)  7 43 16  0  -4804.8  1022003.0  0.1  2 0   864 1414  563
[48]  37(B01)  f 10 10  1  -2563.4 20460039.8 -0.0  2 0   43  264  479
[52]  41(B05)  1 26 22  1    337.4 20460022.3  0.0  1 0 1334  827  613
[53]  42(B06)  1  7  8  0    -83.5 20460002.8 -0.1  1 0  501  580  106
[54]  43(B07)  1  7  7  0   -695.7 20460009.7 -0.0  1 0  657  389  510
[56]  45(B09)  1  7  7  0   -904.8 20460012.7  0.1  1 0 1091  725  527
[58]  52(B16)  1  7  7  0   -491.8 20460005.3  0.1  1 0  358  185  143
[59]  54(B18)  1  7  7  0  -1009.3 20460015.5  0.1  1 0  462  144  220
[60]  55(B19)  1 13 11  0   1515.3 20459969.6 -0.0  1 0  121  133  129
Refix G03: 2,  95524.923900, 673
Refix G08: 2,  95524.917456, -4812
Refix G14: 2,  95524.924638, 1759
Refix G16: 2,  95524.933108, -1271
Refix G22: 2,  95524.921495, 1107
Refix G23: 2,  95524.925053, -3935
Refix G26: 2,  95524.931087, 567
Refix G27: 2,  95524.925125, -4431
Refix G31: 2,  95524.924809, 542
Refix G32: 2,  95524.919150, 2404
$GNGGA,023147.000,2944.9069,N,10633.0937,E,1,15,0.8,327.6,M,,,,0000*19
$GNRMC,023147.000,A,2944.9069,N,10633.0937,E,0.16,0.00,070180,,*10
$GPGSA,A,3,03,14,16,22,23,26,27,31,32,,,,0.9,0.8,0.5*34
$BDGSA,A,3,01,06,07,09,16,19,,,,,,,0.9,0.8,0.5*21
$GLGSA,A,3,,,,,,,,,,,,,0.9,0.8,0.5*2A
$GPGSV,3,1,10,03,29,249,40,14,30,138,41,16,76,280,44,22,23,227,42*7C
$GPGSV,3,2,10,23,37,315,44,26,61,023,45,27,32,168,43,31,35,069,44*7F
$GPGSV,3,3,10,32,13,142,41,08,08,190,00*71
$BDGSV,3,1,12,01,40,126,41,05,00,000,38,06,53,156,41,07,72,357,43*61
$BDGSV,3,2,12,09,81,195,42,16,61,162,43,18,00,000,44,19,23,185,42*69
$BDGSV,3,3,12,03,54,172,00,04,23,110,00,10,65,278,00,22,45,245,00*65
$B3CN0,0,0,0,0,0,0,0,0,0,0,0,0,0,0*4C
---00000013--- Acq_st=3 0  2000-1-7 2:31:47 
[00]  02(G03)  f 40  7  0    666.0  2045999.1  0.1  2 0  697 1682  405
[01]  13(G14)  f 41  7  0   1753.9  2045997.6  0.0  2 0 1453 1769  179
[02]  15(G16)  f 44  7  0  -1277.8  2046001.6 -0.0  2 0 1352 2747  930
[03]  21(G22)  f 42  7  0   1099.9  2045998.5 -0.0  2 0 1274 2466 1011
[04]  22(G23)  f 44  7  0  -3938.5  2046005.0 -0.0  2 0 2590 3468 1505
[05]  25(G26)  f 45  7  0    560.8  2045999.2  0.0  2 0 2426 4340 2241
[06]  26(G27)  f 43  8  0  -4442.0  2046005.7  0.0  2 0 1820 2826 1478
[08]  30(G31)  f 44  7  0    535.2  2045999.2 -0.1  2 0 2155 2673  846
[09]  31(G32)  f 40  7  0   2399.6  2045996.8 -0.1  2 0 1101 1445  721
[16]  37(B01) 1f 41 16  0  -1114.0  4092002.8 -0.3  2 0 1753 2015  717
[17]  38(B02)  9 39 22  0  -1067.9  4092005.1  0.9  1 0  935 1570  956
[18]  39(B03)  1 20 28  1  -1083.6  4092002.0  0.2  1 0  465  709  705
[19]  40(B04)  1 13 19  0  -1189.2  4092005.0  0.0  1 0  308  212 1559
[20]  41(B05) 1f 38 28  0  -1064.9  4092002.7 -0.9  2 0  919 1285  596
[21]  42(B06) 1f 41  7  0   -294.5  4092000.6 -0.0  2 0 1437 2163 1007
[22]  43(B07) 1f 43  8  0   -791.2  4092001.9  0.0  2 0 1995 2691 1207
[24]  45(B09) 1f 43  7  0   -876.3  4092002.2 -0.0  2 0 2174 2540 1163
[25]  46(B10)  1  7  7  0   -750.0  4092002.9  0.1  1 0  234  355  598
[26]  52(B16) 1f 43  7  0   -318.6  4092000.7 -0.0  2 0 1882 2924 1318
[27]  54(B18) 1f 44  7  0   -938.9  4092002.3 -0.0  2 0 2471 2977 1329
[28]  55(B19) 1f 41  7  0   2031.9  4091994.6 -0.0  2 0 1234 1700  719
[32]  75(N-6)  f 43  7  0  -3747.5  1022002.4 -0.1  2 0  1129 1607  997
[33]  76(N-5)  f 46  7  0    -14.5  1022000.0  0.0  2 0  1891 2850 1569
[34]  78(N-3)  f 38  8  0  -3186.3  1022002.0 -0.0  2 0   305  722  470
[35]  79(N-2)  f 41  7  0  -4884.3  1022003.1 -0.0  2 0   479  987  481
[36]  83(N02)  7 48 17  0   -326.8  1022000.2 -0.1  2 0  2161 3931 1958
[37]  84(N03)  7 41 13  0   -155.5  1022000.1 -0.1  2 0   958 1377  551
[38]  85(N04)  7 42 24  0   3009.4  1021998.1 -0.1  2 0  1019 1423  446
[40]  86(N05)  7 43 17  0  -4817.8  1022003.0 -0.0  2 0  1005 1647 1000
[53]  42(B06)  1  7  7  0   -488.7 20460003.7  0.2  1 0  883  526  677
[54]  43(B07)  1  7  7  0   -789.0 20460008.3  0.1  1 0   65  366  162
[56]  45(B09)  1  7  7  0  -1561.5 20460013.3  0.1  1 0  847  805  646
[58]  52(B16)  1  7  7  0   -205.6 20460004.7 -0.1  1 0  337  350  448
[59]  54(B18)  1  7  7  0  -1257.4 20460016.0 -0.1  1 0  444  382  662
[60]  55(B19)  1  9  7  0   1033.2 20459968.5 -0.1  1 0  458  422  365
Refix G03: 2,  95525.923899, 662
Refix G08: 2,  95525.917459, -4824
Refix G14: 2,  95525.924637, 1746
Refix G16: 2,  95525.933109, -1284
Refix G22: 2,  95525.921494, 1095
Refix G23: 2,  95525.925055, -3945
Refix G26: 2,  95525.931087, 555
Refix G27: 2,  95525.925128, -4445
Refix G31: 2,  95525.924809, 530
Refix G32: 2,  95525.919148, 2392
$GNGGA,023148.000,2944.9068,N,10633.0936,E,1,15,0.8,327.7,M,,,,0000*17
$GNRMC,023148.000,A,2944.9068,N,10633.0936,E,0.56,0.00,070180,,*1B
$GPGSA,A,3,03,14,16,22,23,26,27,31,32,,,,0.9,0.8,0.5*34
$BDGSA,A,3,01,06,07,09,16,19,,,,,,,0.9,0.8,0.5*21
$GLGSA,A,3,,,,,,,,,,,,,0.9,0.8,0.5*2A
$GPGSV,3,1,10,03,29,249,40,14,30,138,41,16,76,280,44,22,23,227,42*7C
$GPGSV,3,2,10,23,37,315,44,26,61,023,45,27,32,168,43,31,35,069,44*7F
$GPGSV,3,3,10,32,13,142,40,08,08,190,00*70
$BDGSV,3,1,12,01,40,126,41,05,00,000,38,06,53,156,41,07,72,357,43*61
$BDGSV,3,2,12,09,81,195,43,16,61,162,43,18,00,000,44,19,23,185,41*6B
$BDGSV,3,3,12,03,54,172,00,04,23,110,00,10,65,278,00,22,45,245,00*65
$B3CN0,0,0,0,0,0,0,0,0,0,0,0,0,0,0*4C
---00000014--- Acq_st=3 0  2000-1-7 2:31:48 
[00]  02(G03)  f 40  7  0    666.9  2045999.1  0.1  2 0 1050 1266  620
[01]  13(G14)  f 41  7  0   1751.9  2045997.7 -0.0  2 0 1462 1843  532
[02]  15(G16)  f 44  7  0  -1277.1  2046001.6  0.0  2 0 1489 3069 1702
[03]  21(G22)  f 42  7  0   1097.1  2045998.5  0.0  2 0 1621 2527 1228
[04]  22(G23)  f 43  8  0  -3941.8  2046005.1 -0.0  2 0 2328 3474 1649
[05]  25(G26)  f 45 12  0    560.5  2045999.2  0.0  2 0 3198 5273 2291
[06]  26(G27)  f 44  7  0  -4437.2  2046005.7  0.0  2 0 1486 2165  905
[08]  30(G31)  f 43  7  0    533.7  2045999.2 -0.0  2 0 1583 2947 1444
[09]  31(G32)  f 39  7  0   2396.0  2045996.8 -0.0  2 0  645 1605 1037
[16]  37(B01) 1f 40 10  0  -1120.5  4092002.7  0.1  2 0 1242 1599  403
[17]  38(B02) 1f 38 18  0  -1072.9  4092002.5  0.8  2 0 1513 1324  767
[18]  39(B03)  7 10 32  1  -1005.1  4092002.7 -0.1  2 0  726  278  237
[19]  40(B04)  7 10 10  0  -1109.6  4092002.9  0.9  2 0  898 1233  552
[20]  41(B05) 1f 36 25  0  -1075.0  4092002.6 -0.8  2 0  631  479   81
[21]  42(B06) 1f 41  7  0   -299.1  4092000.6 -0.0  2 0 1956 2478 1055
[22]  43(B07) 1f 43  7  0   -789.2  4092002.0 -0.0  2 0 1700 2488 1166
[24]  45(B09) 1f 43  7  0   -876.6  4092002.2  0.1  2 0 1643 1617  515
[25]  46(B10)  1  7  7  0   -994.3  4092005.2  0.3  1 0  444 1802 1881
[26]  52(B16) 1f 44  7  0   -322.9  4092000.7 -0.0  2 0 2194 2938 1221
[27]  54(B18) 1f 44  7  0   -942.1  4092002.4 -0.0  2 0 2414 2946 1381
[28]  55(B19) 1f 41 10  0   2031.6  4091994.6 -0.0  2 0 1367 1911 1045
[29]  57(B21)  1  7  7  0  -2250.0  4092006.1 -0.0  1 0  322  360  739
[30]  58(B22)  1  7  7  0     -0.0  4092000.0  0.0  1 0 2147 2721 1130
[32]  75(N-6)  f 42  9  0  -3747.5  1022002.4  0.0  2 0   512 1058  560
[33]  76(N-5)  f 46  7  0    -15.3  1021999.9 -0.0  2 0  1900 3523 1725
[34]  78(N-3)  f 39  7  0  -3184.0  1022001.9 -0.3  2 0   717  866  304
[35]  79(N-2)  f 40 11  0  -4886.3  1022003.1 -0.0  2 0   801 1306  555
[36]  83(N02)  f 32  7  0   -330.5  1022000.2  0.0  5 0  1825 3135 1598
[37]  84(N03)  f 32  7  0   -156.2  1022000.1  0.2  5 0  1355 1540  518
[38]  85(N04)  f 32 16  0   3007.2  1021998.0  0.2  5 0   668 1416 1082
[40]  86(N05)  f 32  7  0  -4821.0  1022003.0  0.0  5 0   725 1272  484
[48]  37(B01)  1 22 10  1  -1022.5 20460018.0  0.0  1 0  517  586  326
[52]  41(B05)  1 25 25  1   -871.2 20460018.8 -0.1  1 0  189  378  585
[53]  42(B06)  1  7  7  0  -1254.2 20460003.0  0.1  1 0  777 1289  749
[54]  43(B07)  7 20  7  0   -651.3 20460010.7  0.1 10 0  730  620  393
[56]  45(B09)  1  7  8  0   -991.3 20460013.0  0.1  1 0  476  602  315
[58]  52(B16)  1  8  7  0    198.8 20460007.0  0.0  1 0  395  189  497
[59]  54(B18)  1  7  7  0   -813.7 20460015.2  0.0  1 0  544  528  630
[60]  55(B19)  1  9  7  0    972.5 20459969.9  0.1  1 0  229  771  767
Refix G03: 2,  95526.923899, 671
Refix G08: 2,  95526.917462, -4816
Refix G14: 2,  95526.924636, 1756
Refix G16: 2,  95526.933110, -1273
Refix G22: 2,  95526.921494, 1104
Refix G23: 2,  95526.925058, -3937
Refix G26: 2,  95526.931087, 564
Refix G27: 2,  95526.925131, -4435
Refix G31: 2,  95526.924808, 539
Refix G32: 2,  95526.919147, 2401
$GNGGA,023149.000,2944.9067,N,10633.0936,E,1,15,0.8,328.2,M,,,,0000*13
$GNRMC,023149.000,A,2944.9067,N,10633.0936,E,0.16,0.00,220419,,*13
$GPGSA,A,3,03,14,16,22,23,26,27,31,32,,,,0.9,0.8,0.5*34
$BDGSA,A,3,01,06,07,09,16,19,,,,,,,0.9,0.8,0.5*21
$GLGSA,A,3,,,,,,,,,,,,,0.9,0.8,0.5*2A
$GPGSV,3,1,10,03,29,249,40,14,30,138,41,16,76,280,44,22,23,227,42*7C
$GPGSV,3,2,10,23,37,315,43,26,61,023,45,27,32,168,44,31,35,069,43*78
$GPGSV,3,3,10,32,13,142,39,08,08,190,00*7E
$BDGSV,3,1,12,01,40,126,40,02,00,000,38,05,00,000,37,06,53,156,41*62
$BDGSV,3,2,12,07,72,357,43,09,81,195,43,16,61,162,44,18,00,000,44*68
$BDGSV,3,3,12,19,23,185,41,03,54,172,00,04,23,110,00,10,65,278,00*67
$B3CN0,0,0,0,0,0,0,20,0,0,0,0,0,0,0*7E
---00000015--- Acq_st=3 0  2019-4-22 2:31:49 
[00]  02(G03)  f 40  8  0    667.6  2045999.1  0.1  2 0 1104 1089  574
[01]  13(G14)  f 40  7  0   1750.2  2045997.6  0.0  2 0  782 1772 1168
[02]  15(G16)  f 44  7  0  -1278.2  2046001.6 -0.0  2 0 1723 2798 1243
[03]  21(G22)  f 42  7  0   1100.6  2045998.5  0.1  2 0 1128 2054  708
[04]  22(G23)  f 44  7  0  -3941.9  2046005.1  0.0  2 0 1779 3113 1717
[05]  25(G26)  f 45  7  0    560.7  2045999.2  0.0  2 0 2859 4326 2305
[06]  26(G27)  f 43  7  0  -4440.9  2046005.7 -0.1  2 0 1643 2591  899
[08]  30(G31)  f 43  8  0    533.2  2045999.3  0.0  2 0 1403 2303 1269
[09]  31(G32)  f 40  7  0   2398.7  2045996.8 -0.1  2 0 1477 1783  753
[16]  37(B01) 1f 41 16  0  -1114.5  4092002.8 -0.7  2 0 1332 1537  893
[17]  38(B02) 1f 39 24  0  -1069.9  4092002.7 -0.7  2 0  939  731   72
[18]  39(B03)  7 16 32  1  -1003.8  4092002.7  0.2  2 0  353  334  228
[19]  40(B04)  7 40 24  0  -1102.8  4092002.7  0.2  2 0 1029 1228  148
[20]  41(B05) 1f 37 26  0  -1070.8  4092002.8 -0.5  2 0  647  802  401
[21]  42(B06) 1f 41  7  0   -294.5  4092000.6 -0.0  2 0 1874 2015  849
[22]  43(B07) 1f 44  7  0   -792.5  4092002.0 -0.0  2 0 1962 2611 1228
[24]  45(B09) 1f 43  7  0   -875.7  4092002.2 -0.0  2 0 1879 2305  987
[25]  46(B10)  7 34  7  0   -993.8  4092002.6  0.1  5 0 1367 2275  755
[26]  52(B16) 1f 44  7  0   -323.0  4092000.7  0.0  2 0 2558 3085 1223
[27]  54(B18) 1f 44  7  0   -938.6  4092002.3 -0.0  2 0 2090 2734 1259
[28]  55(B19) 1f 42  7  0   2026.6  4091994.6  0.0  2 0 1763 2066  546
[29]  57(B21)  1  7 11  0  -2445.8  4092008.7 -0.0  1 0  551 1101 1436
[30]  58(B22)  1 28 10  0    245.1  4091999.1  0.4  1 0 2064 3905 2083
[32]  75(N-6)  f 43  7  0  -3746.9  1022002.4 -0.0  2 0  1069 1762  880
[33]  76(N-5)  f 46  7  0    -14.4  1022000.0 -0.1  2 0  2255 3704 1757
[34]  78(N-3)  f 39  7  0  -3184.3  1022002.0 -0.2  2 0    99  583  677
[35]  79(N-2)  f 40  7  0  -4885.4  1022003.1  0.2  2 0   566  979  334
[36]  83(N02)  f 46  7  0   -328.1  1022000.2  0.0  2 0  2155 3536 1991
[37]  84(N03)  f 41  7  0   -155.2  1022000.0  0.0  2 0   612 1124  789
[38]  85(N04)  f 41 15  0   3008.5  1021998.0  0.0  2 0   494 1275  823
[40]  86(N05)  f 43  7  0  -4819.4  1022003.0  0.0  2 0   667 2105 1303
[48]  37(B01)  1 21 16  1  -1238.9 20460018.5  0.1  1 0  457  330  405
[49]  38(B02)  1 10 10  1  -1440.7 20460018.7  0.0  1 0 1012  272  208
[52]  41(B05)  1 23 23  1  -1335.9 20460021.5 -0.1  1 0  554  798  197
[53]  42(B06)  1  7  7  0   -556.2 20460004.3 -0.1  1 0  919  839  541
[54]  43(B07)  7 27  9  0   -651.7 20460008.0 -0.0 10 0  110  752  888
[56]  45(B09)  1  7  7  0   -771.8 20460014.9 -0.0  1 0  168  460  433
[58]  52(B16)  1  8 10  0    259.3 20460006.0 -0.1  1 0  468  933  425
[59]  54(B18)  1  7  7  0  -1037.4 20460014.3  0.1  1 0  823 1159  964
[60]  55(B19)  1  7  7  0   1597.2 20459967.4 -0.0  1 0  256  211  721
Refix G03: 2,  95527.923898, 673
Refix G08: 2,  95527.917465, -4814
Refix G14: 2,  95527.924635, 1759
Refix G16: 2,  95527.933111, -1269
Refix G22: 2,  95527.921493, 1106
Refix G23: 2,  95527.925060, -3934
Refix G26: 2,  95527.931086, 568
Refix G27: 2,  95527.925134, -4432
Refix G31: 2,  95527.924808, 542
Refix G32: 2,  95527.919145, 2403
$GNGGA,023150.000,2944.9067,N,10633.0936,E,1,15,0.8,328.1,M,,,,0000*18
$GNRMC,023150.000,A,2944.9067,N,10633.0936,E,0.25,0.00,220419,,*1B
$GPGSA,A,3,03,14,16,22,23,26,27,31,32,,,,0.9,0.8,0.5*34
$BDGSA,A,3,01,06,07,09,16,19,,,,,,,0.9,0.8,0.5*21
$GLGSA,A,3,,,,,,,,,,,,,0.9,0.8,0.5*2A
$GPGSV,3,1,10,03,29,249,40,14,30,138,40,16,76,280,44,22,23,227,42*7D
$GPGSV,3,2,10,23,37,315,44,26,61,023,45,27,32,168,43,31,35,069,43*78
$GPGSV,3,3,10,32,13,142,40,08,08,190,00*70
$BDGSV,3,1,12,01,40,126,41,02,00,000,39,04,23,110,40,05,00,000,37*64
$BDGSV,3,2,12,06,53,156,41,07,72,357,44,09,81,195,43,10,65,278,34*6C
$BDGSV,3,3,12,16,61,162,44,18,00,000,44,19,23,185,42,03,54,172,00*62
$B3CN0,0,0,0,0,0,0,27,0,0,0,0,0,0,0*79
---00000016--- Acq_st=3 0  2019-4-22 2:31:50 
[00]  02(G03)  f 40  7  0    678.9  2045999.1 -0.1  2 0 1440 1808  700
[01]  13(G14)  f 39  7  0   1761.8  2045997.7  0.1  2 0 1328 1879  655
[02]  15(G16)  f 43  7  0  -1270.1  2046001.6 -0.0  2 0 1531 2269 1175
[03]  21(G22)  f 42  8  0   1105.4  2045998.5  0.0  2 0 1486 1967  793
[04]  22(G23)  f 44 11  0  -3932.0  2046005.1 -0.0  2 0 1995 3452 1179
[05]  25(G26)  f 45  7  0    569.7  2045999.2 -0.0  2 0 2604 4199 1925
[06]  26(G27)  f 43  7  0  -4431.6  2046005.7 -0.0  2 0 1878 2678 1378
[08]  30(G31)  f 43  9  0    545.7  2045999.2 -0.1  2 0 1314 2157  817
[09]  31(G32)  f 39  7  0   2405.3  2045996.8 -0.0  2 0 1110 1659 1199
[16]  37(B01) 1f 41 16  0  -1111.4  4092002.8  0.4  2 0 1420 1707  350
[17]  38(B02) 1f 38 29  0  -1065.1  4092002.5 -0.8  2 0  926 1204  440
[18]  39(B03)  7 10 33  1  -1005.1  4092002.6  0.2  2 0   60  301  169
[19]  40(B04)  f 40 16  0  -1092.1  4092002.7 -0.1  2 0 1487 1680  377
[20]  41(B05) 1f 37 28  0  -1070.2  4092002.8 -0.4  2 0  796 1117  289
[21]  42(B06) 1f 42  7  0   -286.0  4092000.6  0.1  2 0 1503 1917  810
[22]  43(B07) 1f 44  7  0   -784.1  4092001.9  0.1  2 0 1362 1948  990
[24]  45(B09) 1f 43  7  0   -868.6  4092002.1 -0.1  2 0 2444 2742 1006
[25]  46(B10)  7 44  7  0   -983.8  4092002.5 -0.0  2 0 1607 2201  687
[26]  52(B16) 1f 44  7  0   -315.3  4092000.7 -0.0  2 0 2163 2865 1203
[27]  54(B18) 1f 44  7  0   -930.0  4092002.3  0.0  2 0 1784 2711 1296
[28]  55(B19) 1f 42  7  0   2038.6  4091994.5  0.1  2 0 1824 1905  881
[29]  57(B21)  7 28  7  0  -2441.8  4092006.4  0.1 10 0  388 1111  531
[30]  58(B22)  7 27  7  0    255.7  4091999.3  0.6 10 0 1702 3259 1656
[32]  75(N-6)  f 42  7  0  -3737.8  1022002.3  0.0  2 0  1286 1789  818
[33]  76(N-5)  f 46 11  0     -5.8  1022000.0  0.1  2 0  2203 3515 1735
[34]  78(N-3)  f 39  7  0  -3175.0  1022002.0  0.8  2 0   302  865  692
[35]  79(N-2)  f 40  7  0  -4876.6  1022003.1 -0.5  2 0   432  993  834
[36]  83(N02)  f 46  7  0   -320.2  1022000.2  0.0  2 0  2135 3438 1691
[37]  84(N03)  f 41  7  0   -145.3  1022000.1 -0.0  2 0   759 1213  588
[38]  85(N04)  f 41 16  0   3016.1  1021998.1 -0.0  2 0  1264 1757  674
[40]  86(N05)  f 43  7  0  -4811.8  1022003.0  0.0  2 0  1156 1960  814
[48]  37(B01)  1 10 14  0  -1451.1 20460019.2  0.1  1 0  580  193  158
[49]  38(B02)  1 14 21  1  -2102.6 20460024.3 -0.1  1 0  525  732  342
[52]  41(B05)  1 20 22  1  -2036.6 20460022.0 -0.0  1 0  507  763  460
[54]  43(B07)  7 27  8  0   -645.0 20460010.0 -0.0 10 0  335  400  880
Refix G03: 2,  95528.923898, 673
Refix G08: 2,  95528.917468, -4815
Refix G14: 2,  95528.924634, 1757
Refix G16: 2,  95528.933111, -1271
Refix G22: 2,  95528.921492, 1105
Refix G23: 2,  95528.925063, -3935
Refix G26: 2,  95528.931086, 566
Refix G27: 2,  95528.925137, -4434
Refix G31: 2,  95528.924808, 540
Refix G32: 2,  95528.919144, 2402
$GNGGA,023151.000,2944.9067,N,10633.0937,E,1,16,0.7,328.0,M,,,,0000*15
$GNRMC,023151.000,A,2944.9067,N,10633.0937,E,0.20,0.00,220419,,*1E
$GPGSA,A,3,03,14,16,22,23,26,27,31,32,,,,0.9,0.7,0.5*3B
$BDGSA,A,3,01,04,06,07,09,16,19,,,,,,0.9,0.7,0.5*2A
$GLGSA,A,3,,,,,,,,,,,,,0.9,0.7,0.5*25
$GPGSV,3,1,10,03,29,249,40,14,30,138,39,16,76,280,43,22,23,227,42*74
$GPGSV,3,2,10,23,37,315,44,26,61,023,45,27,32,168,43,31,35,069,43*78
$GPGSV,3,3,10,32,13,142,39,08,08,190,00*7E
$BDGSV,3,1,12,01,40,126,41,02,00,000,38,04,23,110,40,05,00,000,37*65
$BDGSV,3,2,12,06,53,156,42,07,72,357,44,09,81,195,43,10,65,278,44*68
$BDGSV,3,3,12,16,61,162,44,18,00,000,44,19,23,185,42,21,00,000,28*6D
$B3CN0,0,0,0,0,0,0,27,0,0,0,0,0,0,0*79
---00000017--- Acq_st=7 0  2019-4-22 2:31:51 
[00]  02(G03)  f 39  7  0    670.6  2045999.1  0.1  2 0  976 1700  994
[01]  13(G14)  f 40  7  0   1754.0  2045997.7  0.0  2 0  541 1214  592
[02]  15(G16)  f 43  7  0  -1276.9  2046001.6  0.0  2 0 1250 3184 1871
[03]  21(G22)  f 41  7  0   1103.1  2045998.5 -0.1  2 0 1957 2834 1334
[04]  22(G23)  f 44  7  0  -3938.0  2046005.1  0.0  2 0 2060 3093 1403
[05]  25(G26)  f 45  7  0    562.5  2045999.2  0.0  2 0 2647 4738 2289
[06]  26(G27)  f 43  9  0  -4438.1  2046005.8  0.0  2 0 1699 2665 1204
[08]  30(G31)  f 44  7  0    532.5  2045999.2  0.0  2 0 1623 2641 1392
[09]  31(G32)  f 39  7  0   2402.4  2045996.8  0.1  2 0 1266 1649  598
[16]  37(B01) 1f 40 18  0  -1114.5  4092002.8 -0.0  2 0 1316 1650  958
[17]  38(B02) 1f 38 21  0  -1070.6  4092002.6 -0.5  2 0 1339 1316  616
[18]  39(B03)  7 18 33  1  -1005.0  4092002.6  0.0  2 0  151  235  332
[19]  40(B04) 1f 40 20  0  -1103.0  4092002.8 -0.2  2 0  653 1074  681
[20]  41(B05) 1f 37 20  0  -1072.7  4092002.7  0.2  2 0 1121  884  613
[21]  42(B06) 1f 42  7  0   -294.4  4092000.7 -0.1  2 0 1718 2262  958
[22]  43(B07) 1f 43  9  0   -786.3  4092001.9 -0.1  2 0 2216 2600  900
[24]  45(B09) 1f 43  7  0   -874.8  4092002.2 -0.0  2 0 2193 2402  958
[25]  46(B10) 1f 43  7  0   -990.7  4092002.5 -0.1  2 0 1472 2761 1309
[26]  52(B16) 1f 44  7  0   -318.7  4092000.7 -0.0  2 0 2642 3253 1161
[27]  54(B18) 1f 44  7  0   -938.7  4092002.3 -0.0  2 0 2230 2902  967
[28]  55(B19) 1f 42  7  0   2030.9  4091994.6 -0.0  2 0 1869 2079  563
[29]  57(B21) 1f 41  7  0  -2450.4  4092006.4 -0.1  2 0  977 1526  885
[30]  58(B22) 1f 45  7  0    251.5  4091999.3 -0.0  2 0 2065 3392 1665
[32]  75(N-6)  f 42  7  0  -3743.1  1022002.3 -0.0  2 0  1182 1935  660
[33]  76(N-5)  f 46  7  0    -11.1  1022000.0 -0.1  2 0  2112 3513 1550
[34]  78(N-3)  f 38  7  0  -3179.0  1022002.0 -0.1  2 0   449  783  309
[35]  79(N-2)  f 40  7  0  -4882.0  1022003.1  0.2  2 0   748 1087  532
[36]  83(N02)  f 45  7  0   -326.6  1022000.2  0.0  2 0  2033 3413 1391
[37]  84(N03)  f 41  7  0   -152.4  1022000.0  0.0  2 0   770 1283  411
[38]  85(N04)  f 42 13  0   3010.9  1021998.0  0.0  2 0   742 1346  404
[40]  86(N05)  f 42  7  0  -4817.6  1022003.0 -0.1  2 0   680 1760  829
[48]  37(B01)  1 19 10  0  -1539.1 20460020.3  0.1  1 0  455  375  490
[49]  38(B02)  1 10 10  1  -2334.0 20460021.0 -0.0  1 0  310  216  274
[51]  40(B04)  1 25 20  1   -843.9 20460020.3  0.1  1 0  367  391  259
[52]  41(B05)  1 23 22  1  -2784.3 20460014.5 -0.1  1 0 1012  325  266
[53]  42(B06)  1  7  7  0   -192.2 20460003.9 -0.2  1 0  292  596  277
[54]  43(B07)  7 27  7  0   -651.7 20460009.3  0.0 10 0  787 1299  911
[56]  45(B09)  1  7  7  0   -491.8 20460012.7 -0.0  1 0  373  469  403
[58]  52(B16)  1  7  7  0   -158.1 20460004.1 -0.1  1 0  131  104  263
[59]  54(B18)  1  7  7  0   -541.0 20460013.7 -0.0  1 0  408  456  274
[60]  55(B19)  1  7  7  0   1601.7 20459968.3  0.1  1 0  333  275   75
Refix G03: 2,  95529.923897, 665
Refix G08: 2,  95529.917471, -4823
Refix G14: 2,  95529.924633, 1749
Refix G16: 2,  95529.933112, -1279
Refix G22: 2,  95529.921492, 1097
Refix G23: 2,  95529.925065, -3942
Refix G26: 2,  95529.931085, 558
Refix G27: 2,  95529.925139, -4442
Refix G31: 2,  95529.924807, 532
Refix G32: 2,  95529.919142, 2394
$GNGGA,023152.000,2944.9066,N,10633.0940,E,1,18,0.7,327.8,M,,,,0000*1E
$GNRMC,023152.000,A,2944.9066,N,10633.0940,E,0.56,0.00,220419,,*1D
$GPGSA,A,3,03,14,16,22,23,26,27,31,32,,,,0.8,0.7,0.4*3B
$BDGSA,A,3,01,04,06,07,09,10,16,19,22,,,,0.8,0.7,0.4*2B
$GLGSA,A,3,,,,,,,,,,,,,0.8,0.7,0.4*25
$GPGSV,3,1,10,03,29,249,39,14,30,138,40,16,76,280,43,22,23,227,41*77
$GPGSV,3,2,10,23,37,315,44,26,61,023,45,27,32,168,43,31,35,069,44*7F
$GPGSV,3,3,10,32,13,142,39,08,08,190,00*7E
$BDGSV,3,1,12,01,40,126,40,02,45,218,38,03,54,172,18,04,23,110,40*60
$BDGSV,3,2,12,05,00,000,36,06,53,156,42,07,72,357,43,09,81,195,43*60
$BDGSV,3,3,12,10,65,278,43,16,61,162,44,18,00,000,44,19,23,185,42*6C
$B3CN0,0,0,0,0,0,0,27,0,0,0,0,0,0,0*79
---00000018--- Acq_st=7 0  2019-4-22 2:31:52 
[00]  02(G03)  f 39 12  0    671.8  2045999.1 -0.0  2 0  924 1806 1363
[01]  13(G14)  f 41  7  0   1748.6  2045997.7  0.0  2 0 1012 1704  729
[02]  15(G16)  f 44  7  0  -1274.3  2046001.6  0.0  2 0 1567 3084 1952
[03]  21(G22)  f 42  9  0   1104.4  2045998.5  0.0  2 0 1210 2263  874
[04]  22(G23)  f 44  7  0  -3939.3  2046005.1  0.1  2 0 2228 3520 1359
[05]  25(G26)  f 45  7  0    564.2  2045999.2 -0.0  2 0 2522 4379 1990
[06]  26(G27)  f 43  7  0  -4434.0  2046005.7  0.1  2 0  942 2054 1250
[08]  30(G31)  f 43  7  0    538.7  2045999.2 -0.0  2 0 1608 2418 1143
[09]  31(G32)  f 39  7  0   2395.2  2045996.8 -0.0  2 0  899 1638  997
[16]  37(B01) 1f 41 10  0  -1111.2  4092002.7 -0.7  2 0 1160 1274  633
[17]  38(B02) 1f 38 26  0  -1071.9  4092002.7 -0.3  2 0  631 1132  468
[18]  39(B03)  7 14 34  1  -1008.5  4092002.6  0.1  2 0  396  508  274
[19]  40(B04) 1f 40 10  0  -1100.4  4092002.8  0.6  2 0  549  732  140
[20]  41(B05) 1f 37 24  0  -1071.7  4092002.7 -0.8  2 0  942 1106  396
[21]  42(B06) 1f 41  7  0   -291.2  4092000.6 -0.1  2 0 1239 1786  433
[22]  43(B07) 1f 43  7  0   -789.8  4092001.9 -0.1  2 0 1759 2093  800
[24]  45(B09) 1f 43  7  0   -876.3  4092002.2  0.0  2 0 1800 2182 1288
[25]  46(B10) 1f 43  7  0   -991.9  4092002.5  0.0  2 0 1588 2536 1270
[26]  52(B16) 1f 44 13  0   -319.3  4092000.7 -0.0  2 0 1827 2411  667
[27]  54(B18) 1f 44  7  0   -939.3  4092002.3 -0.0  2 0 1924 2789 1258
[28]  55(B19) 1f 42  7  0   2027.6  4091994.5 -0.1  2 0 1454 2030  539
[29]  57(B21) 1f 41  7  0  -2438.9  4092006.3  0.0  2 0  650 1056  447
[30]  58(B22) 1f 44  7  0    251.6  4091999.3  0.0  2 0 2326 3630 1658
[32]  75(N-6)  f 42  7  0  -3743.6  1022002.3  0.1  2 0  1228 1413  584
[33]  76(N-5)  f 47  8  0    -11.0  1022000.0  0.0  2 0  1680 3408 1643
[34]  78(N-3)  f 38  7  0  -3180.1  1022002.0 -0.5  2 0   600  690  310
[35]  79(N-2)  f 40  7  0  -4885.4  1022003.1  0.0  2 0   744 1169  703
[36]  83(N02)  f 46  7  0   -327.5  1022000.2  0.0  2 0  1808 3441 1397
[37]  84(N03)  f 41  7  0   -150.5  1022000.1  0.0  2 0   425  909  435
[38]  85(N04)  f 42  9  0   3010.8  1021998.1  0.1  2 0   833 1133  688
[40]  86(N05)  f 43  7  0  -4819.2  1022003.1 -0.1  2 0   922 1647 1007
[49]  38(B02)  1 10 18  1  -1721.8 20460024.4  0.1  1 0  186  427  174
[51]  40(B04)  1 18 23  1   -666.0 20460020.1  0.0  1 0  516  291  436
[53]  42(B06)  1  7  7  0    446.8 20460004.9 -0.0  1 0  868  750  469
[54]  43(B07)  7 27  7  0   -654.0 20460010.5  0.0 10 0  448  175  165
[56]  45(B09)  1  7 12  0  -1046.3 20460012.6 -0.2  1 0  489  200  128
[57]  46(B10)  1  7  7  0   -737.9 20460012.9 -0.1  1 0  823  437   31
[58]  52(B16)  1  7  7  0   -344.6 20460005.2 -0.2  1 0  279  500  869
[59]  54(B18)  1  7  7  0    -68.2 20460014.2 -0.0  1 0  428  472  915
[60]  55(B19)  1  7  7  0   1604.7 20459969.1  0.0  1 0  247  374  459
[61]  57(B21)  1  7  7  0  -1945.7 20460038.3 -0.1  1 0  158  157  241
[62]  58(B22)  1  7  7  0    315.8 20459998.3  0.1  1 0  331  492  798
Refix G03: 2,  95530.923897, 673
Refix G08: 2,  95530.917474, -4817
Refix G14: 2,  95530.924632, 1757
Refix G16: 2,  95530.933113, -1270
Refix G22: 2,  95530.921491, 1105
Refix G23: 2,  95530.925068, -3935
Refix G26: 2,  95530.931085, 566
Refix G27: 2,  95530.925142, -4434
Refix G31: 2,  95530.924807, 539
Refix G32: 2,  95530.919141, 2400
$GNGGA,023153.000,2944.9064,N,10633.0941,E,1,18,0.7,328.0,M,,,,0000*1B
$GNRMC,023153.000,A,2944.9064,N,10633.0941,E,0.25,0.00,220419,,*1B
$GPGSA,A,3,03,14,16,22,23,26,27,31,32,,,,0.8,0.7,0.4*3B
$BDGSA,A,3,01,04,06,07,09,10,16,19,22,,,,0.8,0.7,0.4*2B
$GLGSA,A,3,,,,,,,,,,,,,0.8,0.7,0.4*25
$GPGSV,3,1,10,03,29,249,39,14,30,138,41,16,76,280,44,22,23,227,42*72
$GPGSV,3,2,10,23,37,315,44,26,61,023,45,27,32,168,43,31,35,069,43*78
$GPGSV,3,3,10,32,13,142,39,08,08,190,00*7E
$BDGSV,3,1,12,01,40,126,41,02,45,218,38,04,23,110,40,05,00,000,37*6F
$BDGSV,3,2,12,06,53,156,41,07,72,357,43,09,81,195,43,10,65,278,43*6B
$BDGSV,3,3,12,16,61,162,44,18,00,000,44,19,23,185,42,21,00,000,41*62
$B3CN0,0,0,0,0,0,0,27,0,0,0,0,0,0,0*79
---00000019--- Acq_st=7 0  2019-4-22 2:31:53 
[00]  02(G03)  f 41  8  0    670.5  2045999.0 -0.0  2 0  815 1865 1307
[01]  13(G14)  f 41  7  0   1756.5  2045997.6 -0.0  2 0 1906 2902 1477
[02]  15(G16)  f 44  7  0  -1271.1  2046001.6  0.0  2 0 1936 3302 1768
[03]  21(G22)  f 41  7  0   1103.0  2045998.5  0.0  2 0 1128 2179 1273
[04]  22(G23)  f 44  7  0  -3937.3  2046005.0 -0.0  2 0 1797 3130 1748
[05]  25(G26)  f 45  7  0    565.5  2045999.2 -0.0  2 0 2721 4529 2301
[06]  26(G27)  f 43  7  0  -4435.7  2046005.7 -0.1  2 0 1274 2522 1347
[08]  30(G31)  f 44  7  0    537.2  2045999.3  0.0  2 0  914 2417 1215
[09]  31(G32)  f 39  7  0   2397.0  2045996.8  0.0  2 0 1052 1581 1309
[16]  37(B01) 1f 40 17  0  -1113.6  4092002.6  0.3  2 0 1119 1359  116
[17]  38(B02) 1f 40 22  0  -1073.6  4092002.7  0.3  2 0  770  738   54
[18]  39(B03)  7 21 33  1  -1009.1  4092002.6  0.0  2 0  206  119  440
[19]  40(B04) 1f 40 25  0  -1098.2  4092002.8  0.1  2 0  855 1000  871
[20]  41(B05) 1f 37 27  0  -1076.4  4092002.7  0.1  2 0 1111 1273  706
[21]  42(B06) 1f 41  7  0   -292.2  4092000.6  0.0  2 0 1676 1601  790
[22]  43(B07) 1f 43  7  0   -790.2  4092002.0 -0.0  2 0 1910 2745 1082
[24]  45(B09) 1f 43  7  0   -874.7  4092002.1 -0.0  2 0 2028 2204  842
[25]  46(B10) 1f 43  7  0   -990.6  4092002.5 -0.0  2 0 2150 2506  942
[26]  52(B16) 1f 44  7  0   -316.9  4092000.7  0.0  2 0 2076 2636 1188
[27]  54(B18) 1f 44  7  0   -938.7  4092002.4 -0.0  2 0 2285 3084 1294
[28]  55(B19) 1f 42  9  0   2026.1  4091994.6 -0.0  2 0 1420 1420  648
[29]  57(B21) 1f 41  8  0  -2449.1  4092006.3  0.0  2 0 1215 1130  468
[30]  58(B22) 1f 44  7  0    252.2  4091999.2  0.0  2 0 2553 3188 1350
[32]  75(N-6)  f 42  7  0  -3742.4  1022002.3  0.0  2 0   675 1144  585
[33]  76(N-5)  f 47  7  0     -9.2  1022000.0  0.0  2 0  1989 3571 1990
[34]  78(N-3)  f 38  7  0  -3178.3  1022002.0 -0.1  2 0   436  448  119
[35]  79(N-2)  f 40  7  0  -4884.4  1022003.1  0.1  2 0   303  840  812
[36]  83(N02)  f 46  8  0   -326.9  1022000.2 -0.1  2 0  2101 3665 1905
[37]  84(N03)  f 41  7  0   -150.8  1022000.1  0.2  2 0   639 1293  719
[38]  85(N04)  f 42 12  0   3011.4  1021998.0  0.0  2 0  1134 1447  711
[40]  86(N05)  f 43  7  0  -4816.7  1022003.1  0.0  2 0  1210 2020  917
[48]  37(B01)  1 10 10  1  -1183.5 20460023.9  0.2  1 0  240  748  580
[51]  40(B04)  1 16 23  0   -719.1 20460017.7 -0.0  1 0  636  471  266
[52]  41(B05)  1 25 26  1   -655.8 20460019.1  0.1  1 0  559  162  689
[53]  42(B06)  1  7  8  0    729.8 20460001.9  0.1  1 0  390  415  250
[54]  43(B07)  7 26 11  0   -658.5 20460008.6 -0.0 10 0  533  304  358
[56]  45(B09)  1  7  7  0   -746.5 20460013.0 -0.1  1 0  743  111  512
[57]  46(B10)  1  7  7  0    232.9 20460014.2 -0.1  1 0  372  632  551
[58]  52(B16)  1  7  7  0    -31.5 20460004.9 -0.1  1 0  638 1076  858
[59]  54(B18)  1  7  7  0     95.1 20460016.1 -0.0  1 0  720  235  188
[60]  55(B19)  1  7  7  0   1995.8 20459968.5  0.1  1 0  361  565  518
[61]  57(B21)  1  8  8  0  -2346.3 20460038.6  0.1  1 0  509  526  117
[62]  58(B22)  1 11  7  0   1191.6 20459996.2 -0.0  1 0   71  248  146
Refix G03: 2,  95531.923896, 668
Refix G08: 2,  95531.917477, -4821
Refix G14: 2,  95531.924630, 1752
Refix G16: 2,  95531.933114, -1276
Refix G22: 2,  95531.921490, 1100
Refix G23: 2,  95531.925070, -3941
Refix G26: 2,  95531.931085, 561
Refix G27: 2,  95531.925145, -4439
Refix G31: 2,  95531.924806, 534
Refix G32: 2,  95531.919139, 2396
$GNGGA,023154.000,2944.9063,N,10633.0940,E,1,18,0.7,328.0,M,,,,0000*1A
$GNRMC,023154.000,A,2944.9063,N,10633.0940,E,0.10,0.00,220419,,*1C
$GPGSA,A,3,03,14,16,22,23,26,27,31,32,,,,0.8,0.7,0.4*3B
$BDGSA,A,3,01,04,06,07,09,10,16,19,22,,,,0.8,0.7,0.4*2B
$GLGSA,A,3,,,,,,,,,,,,,0.8,0.7,0.4*25
$GPGSV,3,1,10,03,29,249,41,14,30,138,41,16,76,280,44,22,23,227,41*7E
$GPGSV,3,2,10,23,37,315,44,26,61,023,45,27,32,168,43,31,35,069,44*7F
$GPGSV,3,3,10,32,13,142,39,08,08,190,00*7E
$BDGSV,3,1,12,01,40,126,40,02,45,218,40,03,54,172,21,04,23,110,40*65
$BDGSV,3,2,12,05,00,000,37,06,53,156,41,07,72,357,43,09,81,195,43*62
$BDGSV,3,3,12,10,65,278,43,16,61,162,44,18,00,000,44,19,23,185,42*6C
$B3CN0,0,0,0,0,0,0,26,0,0,0,0,0,0,0*78
---00000020--- Acq_st=3 0  2019-4-22 2:31:54 
[00]  02(G03)  f 40  7  0    667.1  2045999.1  0.0  2 0  663 1444  613
[01]  13(G14)  f 40  7  0   1756.1  2045997.7  0.1  2 0 1472 1933 1144
[02]  15(G16)  f 43  7  0  -1273.7  2046001.6  0.0  2 0 1679 3099 1904
[03]  21(G22)  f 42  7  0   1103.9  2045998.5 -0.0  2 0 1356 2245 1104
[04]  22(G23)  f 44  7  0  -3938.8  2046005.0 -0.1  2 0 1858 3038 1359
[05]  25(G26)  f 45  7  0    561.7  2045999.2 -0.0  2 0 2537 3955 2023
[06]  26(G27)  f 42 11  0  -4437.3  2046005.7 -0.0  2 0 1660 2394 1391
[08]  30(G31)  f 44  7  0    533.6  2045999.2  0.0  2 0 1498 2687 1042
[09]  31(G32)  f 40  7  0   2397.2  2045996.8 -0.2  2 0  954 1104  654
[10]  07(G08)  1  7  7  0  -4500.0  2046005.2  0.0  1 0  343  314   59
[16]  37(B01) 1f 41 22  0  -1117.6  4092002.8 -0.3  2 0 1009 1478  876
[17]  38(B02) 1f 40 20  0  -1071.2  4092002.6  0.5  2 0 1098 1542  492
[18]  39(B03)  7 10 32  1  -1011.1  4092002.5 -0.0  2 0  762  507  332
[19]  40(B04) 1f 40 24  0  -1102.8  4092002.8 -0.5  2 0  970 1802 1062
[20]  41(B05) 1f 37 19  0  -1071.9  4092002.6 -0.8  2 0 1467 1738  592
[21]  42(B06) 1f 42  7  0   -294.6  4092000.6 -0.0  2 0 1356 1728  413
[22]  43(B07) 1f 43  7  0   -795.4  4092002.0 -0.0  2 0 2028 2263  937
[24]  45(B09) 1f 43  7  0   -874.5  4092002.2 -0.1  2 0 1885 2124  688
[25]  46(B10) 1f 43  7  0   -994.8  4092002.5 -0.0  2 0 1451 2018  925
[26]  52(B16) 1f 44  8  0   -320.9  4092000.7 -0.0  2 0 2090 2708 1023
[27]  54(B18) 1f 44  7  0   -942.4  4092002.3  0.0  2 0 2485 3104 1392
[28]  55(B19) 1f 42  7  0   2031.6  4091994.6  0.0  2 0 1905 2074  632
[29]  57(B21) 1f 40  7  0  -2448.5  4092006.3  0.1  2 0  916 1692  954
[30]  58(B22) 1f 44 10  0    248.5  4091999.3 -0.0  2 0 2328 3359 1446
[32]  75(N-6)  f 43  7  0  -3745.8  1022002.4  0.1  2 0  1256 1743  841
[33]  76(N-5)  f 47  7  0    -12.6  1022000.0 -0.0  2 0  1989 3656 1546
[34]  78(N-3)  f 39  7  0  -3184.4  1022002.0  0.6  2 0   472  953  750
[35]  79(N-2)  f 40  9  0  -4886.5  1022003.0 -0.1  2 0   319  988  591
[36]  83(N02)  f 46  7  0   -329.9  1022000.2  0.0  2 0  1972 3591 1843
[37]  84(N03)  f 41  7  0   -150.7  1022000.1 -0.0  2 0   275  833  387
[38]  85(N04)  f 42 15  0   3007.7  1021998.0 -0.1  2 0   521 1587 1089
[40]  86(N05)  f 43  7  0  -4821.5  1022003.1 -0.1  2 0   896 1647  908
[48]  37(B01)  1 10 10  0  -1284.5 20460017.7 -0.1  1 0  442  544  330
[49]  38(B02)  1 16 10  1  -1080.9 20460022.2  0.1  1 0  602  124  477
[51]  40(B04)  1 25 22  0  -1355.2 20460023.5  0.0  1 0  221  570  474
[52]  41(B05)  1 23 24  0   -635.1 20460022.7 -0.0  1 0  509  599 1382
[53]  42(B06)  1  7  7  0    544.0 20460004.1 -0.1  1 0   55  491  667
[54]  43(B07)  7 26  7  0   -658.3 20460009.0 -0.0 10 0  117  238  571
[56]  45(B09)  1  7  7  0  -1149.2 20460013.9 -0.0  1 0   82  234  465
[57]  46(B10)  1  7  7  0    700.3 20460014.6 -0.0  1 0  299  407  226
[58]  52(B16)  1  8  7  0   -323.1 20460005.1  0.1  1 0  507  314  302
[59]  54(B18)  1  7  7  0    100.8 20460015.1  0.0  1 0  224  410  725
[60]  55(B19)  1  7  7  0   2143.1 20459968.8 -0.2  1 0  592  554  291
[61]  57(B21)  1  7 11  0  -2259.6 20460040.0  0.1  1 0  631  619  617
[62]  58(B22)  1  7  7  0    981.6 20459996.2  0.0  1 0  320  549  613
Refix G03: 2,  95532.923896, 669
Refix G08: 2,  95532.917480, -4821
Refix G14: 2,  95532.924629, 1754
Refix G16: 2,  95532.933114, -1273
Refix G22: 2,  95532.921489, 1101
Refix G23: 2,  95532.925073, -3939
Refix G26: 2,  95532.931084, 563
Refix G27: 2,  95532.925148, -4437
Refix G31: 2,  95532.924806, 535
Refix G32: 2,  95532.919137, 2397
$GNGGA,023155.000,2944.9062,N,10633.0938,E,1,18,0.7,328.1,M,,,,0000*14
$GNRMC,023155.000,A,2944.9062,N,10633.0938,E,0.15,0.00,220419,,*16
$GPGSA,A,3,03,14,16,22,23,26,27,31,32,,,,0.8,0.7,0.4*3B
$BDGSA,A,3,01,04,06,07,09,10,16,19,22,,,,0.8,0.7,0.4*2B
$GLGSA,A,3,,,,,,,,,,,,,0.8,0.7,0.4*25
$GPGSV,3,1,10,03,29,249,40,14,30,138,40,16,76,280,43,22,23,227,42*7A
$GPGSV,3,2,10,23,37,315,44,26,61,023,45,27,32,168,42,31,35,069,44*7E
$GPGSV,3,3,10,32,13,142,40,08,08,190,00*70
$BDGSV,3,1,12,01,40,126,41,02,45,218,40,04,23,110,40,05,00,000,37*60
$BDGSV,3,2,12,06,53,156,42,07,72,357,43,09,81,195,43,10,65,278,43*68
$BDGSV,3,3,12,16,61,162,44,18,00,000,44,19,23,185,42,21,00,000,40*63
$B3CN0,0,0,0,0,0,0,26,0,0,0,0,0,0,0*78
---00000021--- Acq_st=3 0  2019-4-22 2:31:55 
[00]  02(G03)  f 40  7  0    676.5  2045999.1  0.1  2 0 1052 1744  772
[01]  13(G14)  f 40  7  0   1758.1  2045997.7 -0.1  2 0 1149 1733  872
[02]  15(G16)  f 44  7  0  -1269.3  2046001.6 -0.0  2 0 2227 3460 1467
[03]  21(G22)  f 42  7  0   1104.0  2045998.5 -0.0  2 0 1322 1669  716
[04]  22(G23)  f 44  7  0  -3935.4  2046005.1  0.0  2 0 1534 2551 1118
[05]  25(G26)  f 45  7  0    567.4  2045999.2 -0.0  2 0 2579 4011 2130
[06]  26(G27)  f 42  7  0  -4435.8  2046005.6  0.0  2 0 1475 2889 1435
[08]  30(G31)  f 44  7  0    539.4  2045999.2 -0.0  2 0 1504 2821 1481
[09]  31(G32)  f 40  7  0   2402.4  2045996.8  0.1  2 0  845 1289  743
[10]  07(G08)  1  7  7  0  -4590.8  2046005.1  0.0  1 0  579  347   74
[16]  37(B01) 1f 41 10  0  -1109.4  4092002.8  0.3  2 0 1308 1183  572
[17]  38(B02) 1f 39 27  0  -1067.0  4092002.6  0.7  2 0  954  984  478
[18]  39(B03)  7 22 34  1   -991.5  4092002.7  0.0  2 0  301   99  243
[19]  40(B04) 1f 40 17  0  -1100.9  4092002.8 -0.3  2 0 1097 1389  484
[20]  41(B05) 1f 37 27  0  -1071.0  4092002.8 -0.5  2 0 1027 1239  631
[21]  42(B06) 1f 41  7  0   -291.5  4092000.6  0.1  2 0 1548 2004 1026
[22]  43(B07) 1f 43  7  0   -787.0  4092002.0 -0.0  2 0 2120 2744 1407
[24]  45(B09) 1f 43  7  0   -870.0  4092002.2  0.0  2 0 2064 2749 1192
[25]  46(B10) 1f 43  7  0   -987.5  4092002.5 -0.0  2 0 1027 2153 1090
[26]  52(B16) 1f 44  8  0   -316.1  4092000.7  0.0  2 0 1809 2465  960
[27]  54(B18) 1f 44  7  0   -935.6  4092002.3  0.1  2 0 2398 3262 1616
[28]  55(B19) 1f 42  8  0   2030.5  4091994.6  0.1  2 0 1513 2005 1165
[29]  57(B21) 1f 40  7  0  -2442.3  4092006.3 -0.0  2 0  941 1181  717
[30]  58(B22) 1f 44  7  0    255.9  4091999.2  0.0  2 0 2437 3359 1227
[32]  75(N-6)  f 43  7  0  -3738.5  1022002.4 -0.0  2 0   809 1693  786
[33]  76(N-5)  f 47  7  0     -5.9  1022000.0 -0.0  2 0  2215 3319 1439
[34]  78(N-3)  f 38  7  0  -3177.6  1022002.0  0.2  2 0   516  871  281
[35]  79(N-2)  f 40  7  0  -4883.6  1022003.1  0.5  2 0   270  813  438
[36]  83(N02)  f 46  7  0   -324.6  1022000.2  0.0  2 0  2457 3439 1535
[37]  84(N03)  f 41  7  0   -147.5  1022000.1 -0.0  2 0   664  991  520
[38]  85(N04)  f 42 12  0   3013.9  1021998.0  0.0  2 0   617 1245  634
[40]  86(N05)  f 43  7  0  -4815.2  1022003.1  0.0  2 0  1429 2324 1273
[48]  37(B01)  7 10 14  0  -1334.0 20460023.2  0.0  2 0  405  742  283
[49]  38(B02)  1 10 10  1   -628.7 20460023.2  0.0  1 0  504  390  286
[52]  41(B05)  1 27 24  1   -844.4 20460019.3  0.0  1 0  271  133  488
[54]  43(B07)  7 23  7  0   -733.3 20460010.0 -0.1 10 0  322  265  559
[57]  46(B10)  1  7  7  0   1023.0 20460016.0 -0.1  1 0  737  404  293
[61]  57(B21)  1  7  7  0  -2163.2 20460042.2  0.0  1 0  275  564  514
[62]  58(B22)  1  7  7  0   1707.0 20459997.8  0.0  1 0  496  689  432
Refix G03: 2,  95533.923895, 676
Refix G08: 2,  95533.917483, -4815
Refix G14: 2,  95533.924628, 1761
Refix G16: 2,  95533.933115, -1266
Refix G22: 2,  95533.921489, 1107
Refix G23: 2,  95533.925075, -3933
Refix G26: 2,  95533.931084, 570
Refix G27: 2,  95533.925151, -4430
Refix G31: 2,  95533.924806, 542
Refix G32: 2,  95533.919136, 2404
$GNGGA,023156.000,2944.9061,N,10633.0938,E,1,18,0.7,328.0,M,,,,0000*15
$GNRMC,023156.000,A,2944.9061,N,10633.0938,E,0.14,0.00,220419,,*17
$GPGSA,A,3,03,14,16,22,23,26,27,31,32,,,,0.8,0.7,0.4*3B
