SD initialized success
Create debug.log Failed! 3
bbram_blkflag = 1
rtcflag = 0
BBRAM Block OK: 01 EPHflag: 00000000 0036837f, rtc 00
Hot-start nowtime:day = 22,minute = 14,seconds = 31.00
Start Channel by LuYu
$GNGGA,000000.000,,,,,0,00,,,M,,,,0000*2B
$GNRMC,000000.000,A,,,,,,,060180,,*29
$GPGSA,A,1,,,,,,,,,,,,,,,*1E
$BDGSA,A,1,,,,,,,,,,,,,,,*0F
$GLGSA,A,1,,,,,,,,,,,,,,,*02
$B3CN0,0,0,0,0,0,0,0,0,0,0,0,0,0,0*4C
---00000001--- Acq_st=3 0  2019-4-22 2:14:32 
[00]  02(G03)  1  9  7  0    189.7  2046000.1 -0.1  1 0 1031 1242  492
$GNGGA,000000.000,,,,,0,00,,,M,,,,0000*2B
$GNRMC,000000.000,A,,,,,,,060180,,*29
$GPGSA,A,1,,,,,,,,,,,,,,,*1E
$BDGSA,A,1,,,,,,,,,,,,,,,*0F
$GLGSA,A,1,,,,,,,,,,,,,,,*02
$B3CN0,0,0,0,0,0,0,0,0,0,0,0,0,0,0*4C
---00000002--- Acq_st=3 0  2019-4-22 2:14:33 
[00]  02(G03)  7 18  7  0    199.6  2045999.6  0.2 10 0  470 1264  427
[01]  13(G14)  1 25  7  0   1342.6  2045998.2  0.2  1 0 1724 2036  901
[02]  15(G16)  1 18 18  0  -1895.8  2046003.3  0.2  1 0 1105 2680 1202
[03]  21(G22)  1  7  7  0    750.0  2046000.4 -0.1  1 0 1719 2560  984
[04]  22(G23)  1  7  7  0  -4250.0  2046006.6  0.1  1 0 1070  562 1353
[05]  25(G26)  1  7  7  0     -0.0  2046002.3  0.0  1 0  559 1823 4216
$GNGGA,000000.000,,,,,0,00,,,M,,,,0000*2B
$GNRMC,000000.000,A,,,,,,,060180,,*29
$GPGSA,A,1,,,,,,,,,,,,,,,*1E
$BDGSA,A,1,,,,,,,,,,,,,,,*0F
$GLGSA,A,1,,,,,,,,,,,,,,,*02
$GPGSV,1,1,01,03,00,000,16*4C
$B3CN0,0,0,0,0,0,0,0,0,0,0,0,0,0,0*4C
---00000003--- Acq_st=3 0  2019-4-22 2:14:34 
[00]  02(G03)  7 40 11  0    204.4  2045999.7 -0.1  2 0 1734 2076  718
[01]  13(G14)  7 24  7  0   1344.5  2045998.2  0.8 10 0 1853 2386  959
[02]  15(G16)  7 18  7  0  -1890.2  2046002.4  0.8 10 0 2204 2742 1304
[03]  21(G22)  1 27 10  0    850.3  2045998.5  0.7  1 0 1298 2098  807
[04]  22(G23)  1 27  7  0  -4190.5  2046005.9  0.8  1 0 1810 2120  888
[05]  25(G26)  1 26  7  0    157.8  2045999.8  0.3  1 0 3650 4398 2009
[06]  26(G27)  1 26  7  0  -4648.7  2046006.3  0.5  1 0 1523 1914  874
[08]  30(G31)  1 19  7  0    430.4  2046000.4  0.1  1 0 2572 3325 1229
[09]  31(G32)  1 15  7  0   2165.1  2046000.6  0.1  1 0  856 1127 1144
[16]  37(B01)  1 33 10  0  -1250.0  4092004.4 -0.0  1 0  789 1768  799
[17]  38(B02)  1 16 10  0  -1250.0  4092004.4  0.1  1 0  297  472  940
[18]  39(B03)  1 20 10  1   -750.0  4092001.9  0.1  1 0  638  483  761
[19]  40(B04)  1 10 10  0  -1250.0  4092003.4  0.1  1 0  158  344  444
$GNGGA,000000.000,,,,,0,00,,,M,,,,0000*2B
$GNRMC,000000.000,A,,,,,,,060180,,*29
$GPGSA,A,1,,,,,,,,,,,,,,,*1E
$BDGSA,A,1,,,,,,,,,,,,,,,*0F
$GLGSA,A,1,,,,,,,,,,,,,,,*02
$GPGSV,1,1,03,03,00,000,40,14,00,000,23,16,00,000,18*47
$B3CN0,0,0,0,0,0,0,0,0,0,0,0,0,0,0*4C
---00000004--- Acq_st=3 0  2019-4-22 2:14:35 
[00]  02(G03)  7 40  7  0    199.4  2045999.7 -0.1  2 0  596 1672  904
[01]  13(G14)  7 42  7  0   1343.2  2045998.2 -0.0  2 0 1402 2375 1050
[02]  15(G16)  7 43  7  0  -1895.4  2046002.4  0.1  2 0 1637 3273 2022
[03]  21(G22)  7 32  7  0    851.3  2045998.8  0.3  5 0 1553 2835 1582
[04]  22(G23)  7 31  7  0  -4190.1  2046005.3  0.4  5 0  993  997  928
[05]  25(G26)  1 44 12  0    155.5  2045999.6  1.0  1 0 3176 5010 2500
[06]  26(G27)  1 40  7  0  -4648.4  2046005.7  1.0  1 0 1557 2068 1093
[08]  30(G31)  1 46  7  0    427.2  2045999.0  1.0  1 0 2457 3635 1058
[09]  31(G32)  1 40  7  0   2160.3  2045996.7  1.0  1 0 1348 1299  511
[16]  37(B01) 19 40 18  0  -1128.6  4092003.2  1.0  1 0 1345 1539  490
[17]  38(B02)  1 10 10  1  -1585.0  4092004.9  0.1  1 0   89  582  210
[18]  39(B03)  1 10 10  0   -566.5  4092003.0 -0.1  1 0  308  542  380
[19]  40(B04)  1 39 21  0  -1119.6  4092006.2  0.9  1 0  376  902  999
[20]  42(B06)  1  7  7  0   -461.0  4092003.4  0.1  1 0 1033 1555 1321
[21]  43(B07)  1  7  7  0   -824.1  4092002.3  0.1  1 0 1418 2780 1460
[22]  45(B09)  1  7  7  0  -1014.7  4092004.5  0.0  1 0  753 1978 1564
[24]  46(B10)  1  7  7  0  -1000.0  4092005.0 -0.1  1 0  234 1184 2755
$GNGGA,000000.000,,,,,0,00,,,M,,,,0000*2B
$GNRMC,000000.000,A,,,,,,,060180,,*29
$GPGSA,A,1,,,,,,,,,,,,,,,*1E
$BDGSA,A,1,,,,,,,,,,,,,,,*0F
$GLGSA,A,1,,,,,,,,,,,,,,,*02
$GPGSV,2,1,05,03,00,000,40,14,00,000,42,16,00,000,43,22,00,000,32*7A
$GPGSV,2,2,05,23,00,000,30*4E
$B3CN0,0,0,0,0,0,0,0,0,0,0,0,0,0,0*4C
---00000005--- Acq_st=3 0  2019-4-22 2:14:36 
[00]  02(G03)  7 40  8  0    204.7  2045999.7  0.1  2 0 1335 1563  626
[01]  13(G14)  7 42  7  0   1346.5  2045998.2  0.0  2 0 1645 2786 1700
[02]  15(G16)  7 43  7  0  -1891.2  2046002.4 -0.0  2 0 2152 2732 1009
[03]  21(G22)  7 43  7  0    853.9  2045998.8  0.1  2 0 1678 2548  460
[04]  22(G23)  7 39  7  0  -4183.0  2046005.4 -0.0  2 0 1344 1901 1040
[05]  25(G26)  7 27  7  0    162.2  2045999.8  0.6 10 0 2566 4519 2450
[06]  26(G27)  7 25  7  0  -4643.5  2046006.0  0.6 10 0 1098 2054 1171
[08]  30(G31)  7  8  7  0    432.3  2045999.4  1.0 10 0 1921 3675 2079
[09]  31(G32)  1 31  7  0   2161.5  2045997.0  1.0  1 0 1174 2404 1108
[16]  37(B01) 1f 41 10  0  -1126.7  4092002.7  0.3  2 0 1092 1308  462
[17]  38(B02)  1 10 10  1  -1700.9  4092005.8  0.1  1 0  726  816  730
[18]  39(B03)  1 21 30  1   -851.6  4092001.7 -0.0  1 0  222  255  109
[19]  40(B04)  f 39 23  0  -1112.8  4092002.7 -0.4  2 0 1075 1369 1093
[20]  42(B06)  7 22  7  0   -457.3  4092001.0  0.3 10 0 1378 1364  124
[21]  43(B07)  7 19  7  0   -817.8  4092002.1  0.5 10 0 1295 2529 1552
[22]  45(B09)  1  7  7  0  -1039.8  4092002.5  0.4  1 0 1620 2267  801
[24]  46(B10)  1  7  7  0  -1054.3  4092002.6  0.1  1 0 1840 2388 1079
[25]  52(B16)  1  7  7  0   -105.8  4092003.2  0.1  1 0  251 1167 2434
[26]  54(B18)  1  7  7  0  -1000.0  4092003.3 -0.1  1 0  548 2494 2119
[27]  55(B19)  1  7  7  0   1750.0  4091994.4  0.0  1 0 2052 1686  609
$GNGGA,021438.060,,,,,0,00,,,M,,,,0000*21
$GNRMC,021438.060,A,,,,,,,070180,,*22
$GPGSA,A,1,,,,,,,,,,,,,,,*1E
$BDGSA,A,1,,,,,,,,,,,,,,,*0F
$GLGSA,A,1,,,,,,,,,,,,,,,*02
$GPGSV,2,1,07,03,00,000,40,14,00,000,42,16,00,000,43,22,00,000,43*7E
$GPGSV,2,2,07,23,00,000,39,26,00,000,27,27,00,000,25*46
$BDGSV,1,1,04,01,00,000,41,04,00,000,39,06,00,000,22,07,00,000,19*6F
$B3CN0,0,0,0,0,0,0,0,0,0,0,0,0,0,0*4C
---00000006--- Acq_st=3 0  2019-4-22 2:14:37 
[00]  02(G03)  f 40  7  0    201.9  2045999.7  0.0  2 0 1631 2049  912
[01]  13(G14)  f 42  7  0   1342.4  2045998.2  0.0  2 0  535 1181  160
[02]  15(G16)  f 43  7  0  -1889.3  2046002.4  0.0  2 0 1559 3315 1827
[03]  21(G22)  f 43  7  0    853.0  2045998.9  0.0  2 0 1521 2737 1227
[04]  22(G23)  f 40  7  0  -4193.4  2046005.3 -0.0  2 0 1529 1736  719
[05]  25(G26)  7 46  7  0    161.7  2045999.8  0.0  2 0 2374 4838 2641
[06]  26(G27)  7 40  9  0  -4644.0  2046006.0  0.1  2 0  850 1319  752
[08]  30(G31)  7 45  7  0    430.5  2045999.4 -0.0  2 0 1856 3349 1646
[09]  31(G32)  7 40  7  0   2165.3  2045997.1  0.1  2 0 1214 1750 1015
[16]  37(B01) 1f 41 10  0  -1128.0  4092002.9 -0.7  2 0  931 1198  648
[17]  38(B02)  1 20 22  1  -1978.8  4092006.2 -0.1  1 0  467  465  507
[18]  39(B03)  1 14 36  1   -707.7  4092003.1  0.1  1 0  640  410  389
[19]  40(B04)  f 38 26  0  -1110.4  4092002.6 -0.2  2 0  945  923  233
[20]  42(B06)  7 41  7  0   -457.3  4092001.1 -0.1  2 0 1900 1940  477
[21]  43(B07)  7 45  7  0   -818.3  4092002.1 -0.0  2 0 2037 3007 1028
[22]  45(B09)  7 38  9  0  -1040.1  4092002.6  0.1  2 0 1910 2676  859
[24]  46(B10)  7 35  7  0  -1052.6  4092002.6  0.0  5 0 1615 2085  734
[25]  52(B16)  1 11  7  0      5.3  4092001.4  0.8  1 0 1300 1901  793
[26]  54(B18)  1  7  7  0   -952.4  4092002.3  0.2  1 0 1815 3554 1681
[27]  55(B19)  1  7  9  0   1910.4  4091994.6  0.2  1 0 1392 2579 1315
[28]  57(B21)  1  7  7  0  -2934.5  4092008.7 -0.0  1 0 1436 2341 1189
[29]  58(B22)  1  7  7  0   -267.7  4092000.7  0.3  1 0 1792 3172 1665
[48]  37(B01)  1 19 10  1   -562.3 20460018.0 -0.1  1 0  322  219  109
[51]  40(B04)  1 21 24  1  -1094.1 20460018.0  0.0  1 0  624  587  450
$GNGGA,021439.060,,,,,0,00,,,M,,,,0000*20
$GNRMC,021439.060,A,,,,,,,070180,,*23
$GPGSA,A,1,,,,,,,,,,,,,,,*1E
$BDGSA,A,1,,,,,,,,,,,,,,,*0F
$GLGSA,A,1,,,,,,,,,,,,,,,*02
$GPGSV,3,1,09,03,00,000,40,14,00,000,42,16,00,000,43,22,00,000,43*71
$GPGSV,3,2,09,23,00,000,40,26,00,000,46,27,00,000,40,31,00,000,45*70
$GPGSV,3,3,09,32,00,000,39*4B
$BDGSV,2,1,06,01,00,000,41,04,00,000,39,06,00,000,41,07,00,000,45*62
$BDGSV,2,2,06,09,00,000,37,10,00,000,35*64
$B3CN0,0,0,0,0,0,0,0,0,0,0,0,0,0,0*4C
---00000007--- Acq_st=4 0  2019-4-22 2:14:38 
[00]  02(G03)  f 41  7  0    199.3  2045999.7  0.0  2 0 1274 1887 1264
[01]  13(G14)  f 42  7  0   1344.7  2045998.2 -0.0  2 0 1493 2488 1245
[02]  15(G16)  f 43  7  0  -1891.9  2046002.4 -0.0  2 0 2203 3076 1408
[03]  21(G22)  f 43  7  0    854.7  2045998.8 -0.0  2 0 1232 2224  938
[04]  22(G23)  f 40  7  0  -4189.1  2046005.4  0.0  2 0 1029 2138 1129
[05]  25(G26)  7 45  7  0    160.1  2045999.7  0.0  2 0 3332 4977 2764
[06]  26(G27)  7 40  7  0  -4652.0  2046006.0 -0.0  2 0 1157 1706 1116
[08]  30(G31)  7 45  7  0    428.5  2045999.4 -0.0  2 0 2235 4083 1923
[09]  31(G32)  7 41  7  0   2162.2  2045997.1  0.1  2 0 1196 1613  584
[16]  37(B01) 1f 40 18  0  -1129.8  4092002.9 -0.1  2 0 1158 1494  797
[17]  38(B02)  7 20 24  0  -2066.7  4092005.5 -0.1  2 0  304  447  182
[18]  39(B03)  1 10 10  1   -253.7  4092004.7  0.0  1 0  398  348  453
[19]  40(B04) 1f 39 20  0  -1117.7  4092002.7  0.6  2 0 1943 1836  650
[20]  42(B06)  7 41  7  0   -460.1  4092001.1 -0.0  2 0 1492 1593  401
[21]  43(B07)  7 43  7  0   -823.1  4092002.1  0.0  2 0 1882 2387 1221
[22]  45(B09)  7 43  7  0  -1040.5  4092002.6 -0.1  2 0 1906 2136  399
[24]  46(B10)  7 42  7  0  -1057.2  4092002.6  0.0  2 0 1224 2224 1020
[25]  52(B16)  1 11  7  0      3.5  4092001.0  1.0  1 0 1503 2370  973
[26]  54(B18)  7 32  7  0   -952.6  4092002.4  0.1  5 0 1759 3190 1262
[27]  55(B19)  7 30  7  0   1910.4  4091995.0  0.2  5 0 1091 2319 1037
[28]  57(B21)  7 26  7  0  -2932.0  4092007.6  0.2 10 0 2193 2610  999
[29]  58(B22)  7 24  7  0   -269.3  4092000.6  0.4 10 0 2095 3357 1382
[30]  65(B29)  1  7  7  0  -4002.9  4092009.4  0.2  1 0  404 1114  329
[32]  75(N-6)  1  7  7  0    273.6  1022004.0 -0.0  1 0   348 1402 2019
[33]  76(N-5)  1  0  0  0 2712500.0  1022000.0  0.0  1 0    58   48   42
[48]  37(B01)  1 10 36  1  -1068.5 20460019.8  0.1  1 0  290  130  440
[51]  40(B04)  1 17 22  0   -622.4 20460019.2 -0.0  1 0  473  681  181
$GNGGA,021439.927,2944.8994,N,10633.0886,E,1,06,3.1,315.6,M,,,,0000*13
$GNRMC,021439.927,A,2944.8994,N,10633.0886,E,0.44,0.00,070180,,*14
$GPGSA,A,3,,,,,,,,,,,,,5.2,3.1,4.2*31
$BDGSA,A,3,01,04,06,07,09,10,,,,,,,5.2,3.1,4.2*2C
$GLGSA,A,3,,,,,,,,,,,,,5.2,3.1,4.2*2D
$GPGSV,3,1,09,03,00,000,41,14,00,000,42,16,00,000,43,22,00,000,43*70
$GPGSV,3,2,09,23,00,000,40,26,00,000,45,27,00,000,40,31,00,000,45*73
$GPGSV,3,3,09,32,00,000,41*44
$BDGSV,3,1,10,01,00,000,40,04,00,000,40,06,00,000,41,07,00,000,43*6D
$BDGSV,3,2,10,09,00,000,43,10,00,000,43,18,00,000,32,19,00,000,30*63
$BDGSV,3,3,10,21,00,000,25,22,00,000,23*6C
$B3CN0,0,0,0,0,0,0,0,0,0,0,0,0,0,0*4C
---00000008--- Acq_st=7 0  2000-1-7 2:14:40 
[00]  02(G03)  f 41  7  0    208.2  2045999.7 -0.0  2 0 1003 1417  448
[01]  13(G14)  f 42  7  0   1350.3  2045998.2 -0.0  2 0 1369 1561  568
[02]  15(G16)  f 44  7  0  -1889.3  2046002.4  0.1  2 0 1749 2702  969
[03]  21(G22)  f 43  7  0    855.9  2045998.8  0.0  2 0 1481 2349  800
[04]  22(G23)  f 40  7  0  -4183.2  2046005.4  0.0  2 0 1315 2235 1354
[05]  25(G26)  7 45  7  0    162.4  2045999.8  0.0  2 0 2600 4715 1927
[06]  26(G27)  7 40  7  0  -4637.1  2046006.0 -0.1  2 0 1399 2071 1035
[08]  30(G31)  7 45  7  0    430.1  2045999.4 -0.0  2 0 2305 3501 1365
[09]  31(G32)  7 41  7  0   2162.3  2045997.1  0.1  2 0 1086 1551 1000
[16]  37(B01) 1f 40 20  0  -1126.0  4092002.9 -0.2  2 0  892 1302  727
[17]  38(B02)  7 19 10  0  -2343.9  4092006.0  0.1  2 0  558  631  399
[19]  40(B04) 1f 40 24  0  -1109.3  4092002.8  0.3  2 0 1060 1117  415
[20]  42(B06) 1f 41  7  0   -453.9  4092001.0  0.1  2 0 1100 1575  580
[21]  43(B07) 1f 43  7  0   -817.7  4092002.1  0.1  2 0 1670 2246 1135
[22]  45(B09) 1f 43  7  0  -1036.5  4092002.6 -0.0  2 0 1918 2255  977
[24]  46(B10) 1f 43  7  0  -1051.2  4092002.6  0.0  2 0 1686 2304 1039
[25]  52(B16) 19 10 11  0      9.7  4092001.2  1.0  1 0 1187 2254 1232
[26]  54(B18)  7 44  7  0   -946.3  4092002.4 -0.0  2 0 1701 2695 1358
[27]  55(B19)  7 43  7  0   1913.6  4091994.9 -0.1  2 0 1505 2251 1207
[28]  57(B21)  7 43  7  0  -2928.0  4092007.6  0.0  2 0 1736 2271  798
[29]  58(B22)  7 45 13  0   -263.6  4092000.6 -0.0  2 0 1846 3317 2018
[30]  65(B29)  7 18  7  0  -3998.1  4092010.6  0.2 10 0  807 1270  624
[32]  75(N-6)  1 28 17  0  -4382.5  1022002.7  1.0  1 0  1240 2155  827
[33]  76(N-5)  1 26 16  0   -952.0  1022000.7  0.9  1 0  2702 4194 1833
[34]  78(N-3)  1 21 17  0  -3721.8  1022004.7  0.2  1 0    98  427  925
[35]  79(N-2)  1 27 18  0  -4717.2  1022004.5  0.1  1 0   199  301  149
[36]  82(N01)  1 16 15  0   1500.0  1022001.4 -0.1  1 0   147  298  355
[37]  83(N02)  1 24 15  0   -500.0  1022001.8  0.1  1 0   939 3259 2818
[38]  84(N03)  1 24  7  0  -1000.0  1022002.2 -0.0  1 0   403  637  768
[40]  85(N04)  1  7  7  0   2500.0  1021999.9 -0.0  1 0   867 1768 1264
[41]  86(N05)  1 25  7  0  -4750.0  1022005.4  0.0  1 0   468 1142 1787
[48]  37(B01)  1 20 10  1   -452.4 20460026.1 -0.1  1 0  299  302  148
[51]  40(B04)  1 22 22  0   -375.5 20460016.6  0.1  1 0  673   82  105
---00000009--- Acq_st=7 0  2000-1-7 2:14:41 
[00]  02(G03)  f 40 11  0    209.6  2045999.7 -0.1  2 0  981 1782 1309
[01]  13(G14)  f 42  8  0   1350.3  2045998.2 -0.0  2 0 1743 2640 1257
[02]  15(G16)  f 43  8  0  -1885.5  2046002.4 -0.0  2 0 2077 3621 1777
[03]  21(G22)  f 43  7  0    859.5  2045998.8 -0.1  2 0 1294 2367  884
[04]  22(G23)  f 40  7  0  -4183.1  2046005.3 -0.1  2 0 1074 1886 1101
[05]  25(G26)  7 46  8  0    165.9  2045999.7 -0.0  2 0 2721 4560 2114
[06]  26(G27)  7 40  7  0  -4636.2  2046006.0 -0.0  2 0 1070 1704  904
[08]  30(G31)  7 44  7  0    433.2  2045999.4 -0.0  2 0 2232 3349 1935
[09]  31(G32)  7 40  7  0   2169.1  2045997.1  0.1  2 0 1444 1763  378
[16]  37(B01) 1f 40 22  0  -1125.1  4092002.7  0.1  2 0 1095 1440  603
[17]  38(B02)  7 10 10  0  -2463.5  4092006.5  0.0  2 0  187  388  380
[19]  40(B04) 1f 40 13  0  -1109.1  4092002.6  0.4  2 0 1008 1295  375
[20]  42(B06) 1f 41  7  0   -450.9  4092001.0  0.0  2 0 1430 1730 1021
[21]  43(B07) 1f 43  7  0   -812.5  4092002.0 -0.0  2 0 1672 2633 1526
[22]  45(B09) 1f 43  8  0  -1033.0  4092002.6 -0.0  2 0 1578 2263  792
[24]  46(B10) 1f 43  8  0  -1048.6  4092002.6 -0.1  2 0 2090 2498  969
[25]  52(B16) 19 11  7  0     10.0  4092001.1  1.0  1 0  765 1701 1123
[26]  54(B18)  7 43  7  0   -942.4  4092002.4  0.0  2 0 1777 2595 1477
[27]  55(B19)  7 42  7  0   1917.8  4091994.9 -0.1  2 0 1908 2218  606
[28]  57(B21)  7 42  7  0  -2921.9  4092007.5 -0.0  2 0 1719 1595  400
[29]  58(B22)  7 44  9  0   -261.6  4092000.6 -0.0  2 0 1674 3426 1363
[30]  65(B29)  7 40  7  0  -3989.9  4092010.4  0.1  2 0  771 1819  868
[32]  75(N-6)  7 36 14  0  -4375.4  1022002.8  0.2  2 0  1214 2121  668
[33]  76(N-5)  7 34 14  0   -945.0  1022000.5  0.2  5 0  2923 4649 1925
[34]  78(N-3)  1 38 17  0  -3717.0  1022003.0  1.0  1 0   548  389  175
[35]  79(N-2)  7 20  7  0  -4710.2  1022002.8  0.6 10 0   415  699  498
[36]  82(N01)  1 24 16  0   1431.4  1021999.7  0.4  1 0   581  365  465
[37]  83(N02)  1 25 16  0   -507.4  1022000.2  0.4  1 0  2095 3489 1784
[38]  84(N03)  1 29 16  0   -964.9  1022000.7  1.0  1 0   514  573  278
[40]  85(N04)  1 27 15  0   2636.2  1021998.1  1.0  1 0  1639 2114  544
[41]  86(N05)  1 46 16  0  -4741.8  1022003.1  1.0  1 0  1531 2224 1143
[48]  37(B01)  1 21 13  1   -445.6 20460023.6 -0.0  1 0  457   63  231
[51]  40(B04)  1 20 17  1   -810.1 20460025.8  0.1  1 0  191  483  679
[52]  42(B06)  1  7  7  0   -688.9 20460006.8 -0.1  1 0  403  365  359
[53]  43(B07)  1  7  7  0   -351.3 20460011.5 -0.1  1 0 1008  567  215
[54]  45(B09)  1  7  7  0  -1034.1 20460014.1 -0.2  1 0  285  156  298
[56]  46(B10)  1  7  7  0   -990.1 20460013.8 -0.2  1 0  571  628  107
$GNGGA,021441.000,2944.9008,N,10633.0892,E,1,06,3.1,317.2,M,,,,0000*1E
$GNRMC,021441.000,A,2944.9008,N,10633.0892,E,0.34,0.00,070180,,*18
$GPGSA,A,3,,,,,,,,,,,,,5.2,3.1,4.2*31
$BDGSA,A,3,01,04,06,07,09,10,,,,,,,5.2,3.1,4.2*2C
$GLGSA,A,3,,,,,,,,,,,,,5.2,3.1,4.2*2D
$GPGSV,3,1,09,03,00,000,40,14,00,000,42,16,00,000,43,22,00,000,43*71
$GPGSV,3,2,09,23,00,000,40,26,00,000,46,27,00,000,40,31,00,000,44*71
$GPGSV,3,3,09,32,00,000,40*45
$BDGSV,3,1,11,01,00,000,40,04,00,000,40,06,00,000,41,07,00,000,43*6C
$BDGSV,3,2,11,09,00,000,43,10,00,000,43,18,00,000,43,19,00,000,42*61
$BDGSV,3,3,11,21,00,000,42,22,00,000,44,29,00,000,40*52
$B3CN0,0,0,0,0,0,0,0,0,0,0,0,0,0,0*4C
---00000010--- Acq_st=7 0  2000-1-7 2:14:41 
[00]  02(G03)  f 41  7  0    215.7  2045999.7 -0.0  2 0 1269 1948  769
[01]  13(G14)  f 41  7  0   1354.1  2045998.2 -0.0  2 0 1729 2702 1898
[02]  15(G16)  f 43  7  0  -1879.4  2046002.4 -0.0  2 0 1812 3013 1294
[03]  21(G22)  f 43  7  0    862.9  2045998.8  0.0  2 0 1325 2172 1188
[04]  22(G23)  f 40  7  0  -4178.0  2046005.4 -0.1  2 0  656 1512  921
[05]  25(G26)  7 45 10  0    171.3  2045999.7  0.0  2 0 2723 4326 2313
[06]  26(G27)  7 40  9  0  -4634.7  2046006.0  0.0  2 0 1489 2451 1050
[08]  30(G31)  7 44  7  0    438.5  2045999.4  0.0  2 0 2264 3838 1929
[09]  31(G32)  7 41  7  0   2174.1  2045997.1 -0.1  2 0 1068 1517  463
[16]  37(B01) 1f 40 10  0  -1121.6  4092002.7  0.3  2 0 1326 1656  516
[17]  38(B02)  7 10 10  0  -2699.2  4092007.2 -0.2  2 0  246  486  443
[19]  40(B04) 1f 40 10  0  -1105.8  4092002.7 -0.3  2 0 1096 1753  784
[20]  42(B06) 1f 41  7  0   -450.3  4092001.0  0.0  2 0 1468 1913  931
[21]  43(B07) 1f 43  7  0   -806.6  4092002.0  0.0  2 0 2027 2599 1288
[22]  45(B09) 1f 43  7  0  -1027.3  4092002.6  0.1  2 0 1567 1971 1040
[24]  46(B10) 1f 43  7  0  -1044.5  4092002.6  0.0  2 0 1818 2557 1105
[26]  54(B18)  7 43  7  0   -938.1  4092002.4 -0.0  2 0 2088 3007 1192
[27]  55(B19)  7 43  7  0   1924.6  4091994.8  0.1  2 0 2061 2497 1206
[28]  57(B21)  7 42  7  0  -2918.2  4092007.5 -0.0  2 0 1831 2355 1085
[29]  58(B22)  7 44  8  0   -256.3  4092000.6  0.0  2 0 2068 2709 1041
[30]  65(B29)  7 40  7  0  -3991.0  4092010.4  0.0  2 0 1083 1402  735
[32]  75(N-6)  7 46 15  0  -4370.0  1022002.8 -0.0  2 0  1321 1845  891
[33]  76(N-5)  7 50 17  0   -938.7  1022000.6  0.0  2 0  2048 4046 2023
[34]  78(N-3)  1 37 19  0  -3711.6  1022002.0  0.9  1 0   698  599  280
[35]  79(N-2)  7 36 18  0  -4709.9  1022002.9  0.1  2 0   759  379  370
[36]  82(N01)  1 25 16  0   1443.1  1021998.5  0.1  1 0   574  575  368
[37]  83(N02)  7 48 18  0   -498.6  1022000.3 -0.1  2 0  2162 3522 1540
[38]  84(N03)  1 30 16  0   -962.0  1022000.6  1.0  1 0   965  410  183
[40]  85(N04)  7 46 13  0   2644.2  1021998.2 -0.0  2 0  1553 2061  628
[41]  86(N05)  7 45 16  0  -4734.4  1022002.9  0.0  2 0  1428 2034  979
[48]  37(B01)  f 10 36  1   -816.4 20460011.3  0.1  2 0   63  220  160
[52]  42(B06)  1  7  7  0   -760.4 20460007.1  0.1  1 0  517  595  831
[53]  43(B07)  1  7  7  0    168.1 20460012.5 -0.0  1 0  720  782  441
[54]  45(B09)  1  7  8  0  -1039.9 20460015.4  0.1  1 0  411  497  345
[56]  46(B10)  1  7  7  0   -847.0 20460013.9 -0.1  1 0  543  356  396
$GNGGA,021442.000,2944.9018,N,10633.0899,E,1,06,3.1,321.3,M,,,,0000*13
$GNRMC,021442.000,A,2944.9018,N,10633.0899,E,0.90,0.00,070180,,*1F
$GPGSA,A,3,,,,,,,,,,,,,5.2,3.1,4.2*31
$BDGSA,A,3,01,04,06,07,09,10,,,,,,,5.2,3.1,4.2*2C
$GLGSA,A,3,,,,,,,,,,,,,5.2,3.1,4.2*2D
$GPGSV,3,1,09,03,00,000,41,14,00,000,41,16,00,000,43,22,00,000,43*73
$GPGSV,3,2,09,23,00,000,40,26,00,000,45,27,00,000,40,31,00,000,44*72
$GPGSV,3,3,09,32,00,000,41*44
$BDGSV,3,1,12,01,40,126,40,04,23,110,40,06,56,150,41,07,75,354,43*68
$BDGSV,3,2,12,09,85,191,43,10,66,270,43,18,00,000,43,19,29,187,43*67
$BDGSV,3,3,12,21,20,311,42,22,49,255,44,29,00,000,40,02,45,218,00*67
$B3CN0,0,0,0,0,0,0,0,0,0,0,0,0,0,0*4C
---00000011--- Acq_st=3 0  2000-1-7 2:14:42 
[00]  02(G03)  f 40  7  0    202.8  2045999.7  0.1  2 0 1211 1577  608
[01]  13(G14)  f 41 10  0   1346.5  2045998.2  0.1  2 0 1099 2332 1247
[02]  15(G16)  f 43  7  0  -1885.1  2046002.4  0.1  2 0 1850 2695 1262
[03]  21(G22)  f 42  9  0    857.8  2045998.8 -0.0  2 0 1843 3231 1733
[04]  22(G23)  f 40  7  0  -4183.6  2046005.4 -0.0  2 0 1730 2119 1141
[05]  25(G26)  7 45  7  0    164.0  2045999.7 -0.0  2 0 2918 4430 1938
[06]  26(G27)  7 40  7  0  -4648.8  2046006.0  0.0  2 0 1064 1583  520
[08]  30(G31)  7 44  7  0    430.7  2045999.4  0.0  2 0 2346 3742 1710
[09]  31(G32)  7 41  7  0   2167.9  2045997.2  0.1  2 0 1096 1616  836
[16]  37(B01) 1f 40 10  0  -1136.0  4092002.9 -0.2  2 0  602 1119  510
[19]  40(B04) 1f 41 24  0  -1111.2  4092002.8  0.1  2 0 1121 1741 1086
[20]  42(B06) 1f 41  7  0   -454.3  4092001.1 -0.0  2 0 1432 2055 1184
[21]  43(B07) 1f 43  7  0   -818.7  4092002.0  0.0  2 0 1763 2276 1010
[22]  45(B09) 1f 43  7  0  -1032.7  4092002.6  0.0  2 0 1686 1811  718
[24]  46(B10) 1f 43  7  0  -1052.2  4092002.6  0.0  2 0 1664 2212  728
[26]  54(B18)  7 43  7  0   -947.1  4092002.4 -0.0  2 0 1808 2810 1599
[27]  55(B19)  7 42  7  0   1913.7  4091994.9 -0.0  2 0 1899 2368  818
[28]  57(B21)  7 42  7  0  -2929.8  4092007.5 -0.0  2 0 1444 1954  800
[29]  58(B22)  7 43 11  0   -263.9  4092000.6 -0.0  2 0 1762 2651 1405
[30]  65(B29)  7 40  7  0  -4000.5  4092010.4 -0.1  2 0  893 1113  416
[32]  75(N-6)  7 45 19  0  -4378.6  1022002.7 -0.0  2 0  1147 1821  830
[33]  76(N-5)  7 50 17  0   -946.7  1022000.6  0.1  2 0  2209 3975 1825
[34]  78(N-3)  7 27  8  0  -3721.0  1022002.3  0.9 10 0   455  951  722
[35]  79(N-2)  7 36 15  0  -4718.4  1022002.9 -0.1  2 0   389  543  406
[36]  82(N01)  7 27 15  0   1461.1  1021998.9  0.0 10 0   521  520   54
[37]  83(N02)  7 49 17  0   -507.5  1022000.3 -0.0  2 0  2577 4022 1698
[38]  84(N03)  7 39 17  0   -971.0  1022000.4 -0.5  2 0   627  892  327
[40]  85(N04)  7 45 15  0   2636.8  1021998.2  0.0  2 0  1425 1989 1113
[41]  86(N05)  7 46 17  0  -4743.2  1022003.0  0.0  2 0  1153 1916  811
[48]  37(B01)  f 10 13  1  -1021.3 20460016.7  0.0  2 0  327  210  398
[51]  40(B04)  1 23 24  1   -965.2 20460018.3 -0.1  1 0  353  315  207
[52]  42(B06)  1  7 11  0    111.0 20460006.0 -0.0  1 0  839  529  271
[53]  43(B07)  1  7  7  0   -112.0 20460012.7 -0.1  1 0  347  312  677
[54]  45(B09)  1  7  7  0   -810.9 20460015.9 -0.0  1 0  399  526  454
[56]  46(B10)  1  7  7  0   -900.3 20460015.2  0.1  1 0  573  609   85
$GNGGA,021443.000,2944.9017,N,10633.0899,E,1,06,3.1,321.2,M,,,,0000*1C
$GNRMC,021443.000,A,2944.9017,N,10633.0899,E,1.09,0.00,070180,,*10
$GPGSA,A,3,,,,,,,,,,,,,5.2,3.1,4.2*31
$BDGSA,A,3,01,04,06,07,09,10,,,,,,,5.2,3.1,4.2*2C
$GLGSA,A,3,,,,,,,,,,,,,5.2,3.1,4.2*2D
$GPGSV,3,1,09,03,00,000,40,14,00,000,41,16,00,000,43,22,00,000,42*73
$GPGSV,3,2,09,23,00,000,40,26,00,000,45,27,00,000,40,31,00,000,44*72
$GPGSV,3,3,09,32,00,000,41*44
$BDGSV,3,1,12,01,40,126,40,04,23,110,41,06,56,150,41,07,75,354,43*69
$BDGSV,3,2,12,09,85,191,43,10,66,270,43,18,00,000,43,19,29,187,42*66
$BDGSV,3,3,12,21,20,311,42,22,49,255,43,29,00,000,40,02,45,218,00*60
$B3CN0,0,0,0,0,0,0,0,0,0,0,0,0,0,0*4C
---00000012--- Acq_st=3 0  2000-1-7 2:14:43 
[00]  02(G03)  f 40  7  0    213.3  2045999.7 -0.1  2 0 1133 1713  816
[01]  13(G14)  f 42  7  0   1353.5  2045998.2  0.0  2 0  609 1819  807
[02]  15(G16)  f 44  7  0  -1879.5  2046002.4 -0.0  2 0 2062 2438 1248
[03]  21(G22)  f 42  7  0    860.7  2045998.8  0.0  2 0 1529 2682 1484
[04]  22(G23)  f 40  7  0  -4179.6  2046005.3  0.0  2 0 1752 2345 1361
[05]  25(G26)  f 45  7  0    169.8  2045999.7 -0.1  2 0 2462 4195 2399
[06]  26(G27)  f 40  7  0  -4641.2  2046005.9  0.0  2 0  872 1018   93
[08]  30(G31)  f 44  7  0    436.3  2045999.4  0.0  2 0 2387 3801 2240
[09]  31(G32)  f 40  7  0   2175.8  2045997.1  0.1  2 0 1014 1443  665
[16]  37(B01) 1f 40 18  0  -1122.6  4092002.9  0.5  2 0 1253 1569  795
[19]  40(B04) 1f 40 10  0  -1109.5  4092002.9 -0.1  2 0  702 1198  906
[20]  42(B06) 1f 41  7  0   -451.8  4092001.0 -0.1  2 0 1441 1432  558
[21]  43(B07) 1f 43  7  0   -811.0  4092002.0  0.0  2 0 1896 2564  869
[22]  45(B09) 1f 43  9  0  -1031.6  4092002.6 -0.0  2 0 1902 2034  441
[24]  46(B10) 1f 43  7  0  -1042.9  4092002.6  0.0  2 0 1683 2459 1591
[26]  54(B18)  7 43  8  0   -941.0  4092002.4  0.1  2 0 2030 3049 1334
[27]  55(B19)  7 42  7  0   1927.4  4091994.8 -0.0  2 0 1842 2143 1192
[28]  57(B21)  7 42  7  0  -2917.8  4092007.6  0.0  2 0 1512 2122  901
[29]  58(B22)  7 44 10  0   -257.4  4092000.6  0.0  2 0 2107 2982 1334
[30]  65(B29)  7 40  7  0  -3993.7  4092010.4  0.1  2 0 1198 1464  451
[32]  75(N-6)  7 45 15  0  -4372.0  1022002.7  0.1  2 0  1399 1955 1243
[33]  76(N-5)  7 50 17  0   -939.5  1022000.6  0.0  2 0  2326 3926 1689
[34]  78(N-3)  7 40 16  0  -3712.5  1022002.3  0.3  2 0   295  445  116
[35]  79(N-2)  7 36 17  0  -4710.9  1022003.0  0.0  2 0   480  919  795
[36]  82(N01)  7 26 17  0   1469.3  1021999.0 -0.1 10 0   925 1028  767
[37]  83(N02)  7 49 16  0   -501.0  1022000.3 -0.1  2 0  2143 3802 1851
[38]  84(N03)  7 39 12  0   -961.8  1022000.6 -0.2  2 0   860 1197  373
[40]  85(N04)  7 45 17  0   2642.5  1021998.3  0.1  2 0  1102 2019 1058
[41]  86(N05)  7 45 16  0  -4737.4  1022003.0 -0.1  2 0  1449 2278 1182
[48]  37(B01)  f 10 10  0  -1633.5 20460026.8  0.1  2 0  345  596  160
[51]  40(B04)  1 22 19  0  -1362.6 20460022.9 -0.0  1 0   90  212  259
[52]  42(B06)  1  7  7  0    157.6 20460007.0 -0.0  1 0  494  372  509
[53]  43(B07)  1  7  7  0   -402.3 20460014.0 -0.0  1 0  486  181  142
[54]  45(B09)  1  7  7  0   -562.0 20460017.0 -0.0  1 0  291  587  305
[56]  46(B10)  1  7  7  0  -1078.7 20460016.1  0.1  1 0  630  800  618
$GNGGA,021444.000,2944.9016,N,10633.0903,E,1,06,3.1,322.5,M,,,,0000*1C
$GNRMC,021444.000,A,2944.9016,N,10633.0903,E,0.85,0.00,070180,,*11
$GPGSA,A,3,,,,,,,,,,,,,5.2,3.1,4.2*31
$BDGSA,A,3,01,04,06,07,09,10,,,,,,,5.2,3.1,4.2*2C
$GLGSA,A,3,,,,,,,,,,,,,5.2,3.1,4.2*2D
$GPGSV,3,1,09,03,00,000,40,14,00,000,42,16,00,000,44,22,00,000,42*77
$GPGSV,3,2,09,23,00,000,40,26,00,000,45,27,00,000,40,31,00,000,44*72
$GPGSV,3,3,09,32,00,000,40*45
$BDGSV,3,1,12,01,40,126,40,04,23,110,40,06,56,150,41,07,75,354,43*68
$BDGSV,3,2,12,09,85,191,43,10,66,270,43,18,00,000,43,19,29,187,42*66
$BDGSV,3,3,12,21,20,311,42,22,49,255,44,29,00,000,40,02,45,218,00*67
$B3CN0,0,0,0,0,0,0,0,0,0,0,0,0,0,0*4C
---00000013--- Acq_st=3 0  2000-1-7 2:14:44 
[00]  02(G03)  f 40  9  0    211.2  2045999.7  0.0  2 0  578 1501  705
[01]  13(G14)  f 42  8  0   1352.2  2045998.1  0.0  2 0  895 2425 1980
[02]  15(G16)  f 43  7  0  -1880.0  2046002.4 -0.0  2 0 1823 2992 1947
[03]  21(G22)  f 43  7  0    864.0  2045998.8  0.0  2 0 1361 2614  893
[04]  22(G23)  f 40  7  0  -4179.6  2046005.3  0.0  2 0  918 1517  591
[05]  25(G26)  f 46  7  0    170.1  2045999.7  0.0  2 0 3141 4469 1892
[06]  26(G27)  f 40 12  0  -4641.8  2046006.0 -0.1  2 0  736 1506 1082
[08]  30(G31)  f 44  7  0    438.0  2045999.4  0.0  2 0 1417 2926 1369
[09]  31(G32)  f 40  7  0   2169.7  2045997.1 -0.0  2 0 1436 2148  902
[16]  37(B01) 1f 40 17  0  -1121.6  4092002.9 -0.6  2 0 1264 1591  653
[17]  39(B03)  1 10 30  1  -1126.1  4092003.2  0.4  1 0  407 1251 2200
[18]  41(B05)  1 20 19  1  -1085.0  4092002.5 -0.0  1 0  202  386  472
[19]  40(B04) 1f 40 23  0  -1109.0  4092002.8  0.0  2 0  998 1543 1206
[20]  42(B06) 1f 42  7  0   -446.5  4092001.1  0.0  2 0 1480 1768 1053
[21]  43(B07) 1f 43  7  0   -814.8  4092002.0  0.0  2 0 2094 2577  920
[22]  45(B09) 1f 43  7  0  -1030.5  4092002.6 -0.0  2 0 1340 2082 1008
[24]  46(B10) 1f 43  7  0  -1047.2  4092002.6  0.0  2 0 1903 2403 1108
[26]  54(B18)  7 43  7  0   -937.1  4092002.3 -0.0  2 0 1878 2530 1087
[27]  55(B19)  7 42  7  0   1919.2  4091994.8 -0.0  2 0 1799 2079  638
[28]  57(B21)  7 42  7  0  -2919.3  4092007.5 -0.0  2 0 1730 1764  482
[29]  58(B22)  7 44  8  0   -256.6  4092000.5 -0.0  2 0 1943 2990 1088
[30]  65(B29)  7 40  7  0  -3995.4  4092010.4 -0.1  2 0  850 1770 1147
[32]  75(N-6)  f 39  7  0  -4371.3  1022002.8  0.2  2 0  1460 2260 1062
[33]  76(N-5)  f 40  7  0   -939.1  1022000.6  0.1  2 0  2561 4136 1752
[34]  78(N-3)  7 39 19  0  -3715.4  1022002.4 -0.3  2 0   396  363  310
[35]  79(N-2)  f 34  7  0  -4712.2  1022003.0 -0.1  5 0   600  548  177
[36]  82(N01)  7 26 18  0   1465.3  1021999.0 -0.0 10 0   308  934  617
[37]  83(N02)  f 40  7  0   -502.1  1022000.3 -0.1  2 0  1956 3563 1818
[38]  84(N03)  7 40 15  0   -961.6  1022000.6  0.2  2 0   212 1017  584
[40]  85(N04)  f 39  7  0   2642.5  1021998.3 -0.1  2 0   958 2010  835
[41]  86(N05)  f 39  8  0  -4737.0  1022003.0 -0.1  2 0  1312 2175  988
[48]  37(B01)  f 10 10  1  -1896.5 20460031.0  0.0  2 0  237  556  835
[51]  40(B04)  1 25 23  0  -1733.3 20460019.1 -0.2  1 0  155  184  280
$GNGGA,021445.000,2944.9016,N,10633.0904,E,1,06,3.1,322.8,M,,,,0000*17
$GNRMC,021445.000,A,2944.9016,N,10633.0904,E,0.58,0.00,070180,,*17
$GPGSA,A,3,,,,,,,,,,,,,5.2,3.1,4.2*31
$BDGSA,A,3,01,04,06,07,09,10,,,,,,,5.2,3.1,4.2*2C
$GLGSA,A,3,,,,,,,,,,,,,5.2,3.1,4.2*2D
$GPGSV,3,1,09,03,00,000,40,14,00,000,42,16,00,000,43,22,00,000,43*71
$GPGSV,3,2,09,23,00,000,40,26,00,000,46,27,00,000,40,31,00,000,44*71
$GPGSV,3,3,09,32,00,000,40*45
$BDGSV,3,1,12,01,40,126,40,04,23,110,40,06,56,150,42,07,75,354,43*6B
$BDGSV,3,2,12,09,85,191,43,10,66,270,43,18,00,000,43,19,29,187,42*66
$BDGSV,3,3,12,21,20,311,42,22,49,255,44,29,00,000,40,02,45,218,00*67
$B3CN0,0,0,0,0,0,0,0,0,0,0,0,0,0,0*4C
---00000014--- Acq_st=3 0  2000-1-7 2:14:45 
[00]  02(G03)  f 40  7  0    205.9  2045999.7 -0.0  2 0  845 1500  663
[01]  13(G14)  f 42  7  0   1349.3  2045998.2 -0.0  2 0 1981 2527 1190
[02]  15(G16)  f 44  7  0  -1882.3  2046002.4  0.0  2 0 2157 3110 1643
[03]  21(G22)  f 43  7  0    858.2  2045998.8  0.0  2 0 1085 1952  546
[04]  22(G23)  f 40  7  0  -4186.7  2046005.4 -0.1  2 0  662 1834  727
[05]  25(G26)  f 45  8  0    165.8  2045999.7 -0.0  2 0 2948 4583 2497
[06]  26(G27)  f 40  7  0  -4640.0  2046006.0  0.0  2 0  665 1340 1119
[08]  30(G31)  f 45  7  0    434.4  2045999.4 -0.0  2 0 2188 3152 1267
[09]  31(G32)  f 41  7  0   2167.4  2045997.1  0.1  2 0 1692 2122  746
[16]  37(B01) 1f 41 24  0  -1125.2  4092002.8  0.0  2 0 1117 1355  525
[17]  39(B03)  7 33 33  1  -1014.2  4092002.6 -0.0  2 0 1578 1474  889
[18]  41(B05)  7 21 14  1  -1208.8  4092003.1 -0.2  2 0  399  532  629
[19]  40(B04) 1f 38 20  0  -1109.3  4092002.7  0.0  2 0 1430 1189  525
[20]  42(B06) 1f 41  7  0   -453.2  4092001.1 -0.0  2 0 1322 1589  572
[21]  43(B07) 1f 44  7  0   -818.4  4092002.0 -0.0  2 0 2059 2676 1166
[22]  45(B09) 1f 43  7  0  -1033.7  4092002.6  0.0  2 0 1592 2221  996
[24]  46(B10) 1f 43  8  0  -1050.4  4092002.6  0.0  2 0 1770 2271 1136
[25]  52(B16)  1  7  7  0   -490.0  4092003.2  0.1  1 0 1479 2877 1566
[26]  54(B18) 1f 43  7  0   -945.2  4092002.4  0.0  2 0 2119 2554  946
[27]  55(B19) 1f 42  7  0   1920.0  4091994.8  0.0  2 0 1744 1841  755
[28]  57(B21) 1f 42  7  0  -2922.8  4092007.5 -0.0  2 0 1858 2142  771
[29]  58(B22) 1f 44  7  0   -259.7  4092000.6  0.0  2 0 2085 3082 1812
[30]  65(B29) 1f 40  7  0  -3995.0  4092010.4  0.0  2 0 1476 1790  916
[32]  75(N-6)  f 44  7  0  -4373.2  1022002.8  0.0  2 0   721 1762  892
[33]  76(N-5)  f 46  7  0   -942.0  1022000.6  0.0  2 0  2402 3951 1867
[34]  78(N-3)  7 39 16  0  -3718.3  1022002.4  0.3  2 0   288  833  556
[35]  79(N-2)  f 35  7  0  -4717.1  1022002.9  0.1  2 0   225  684  540
[36]  82(N01)  7 27 17  0   1463.4  1021999.1 -0.0 10 0   618  483  588
[37]  83(N02)  f 46  7  0   -505.0  1022000.3 -0.0  2 0  2338 3999 1858
[38]  84(N03)  7 40 17  0   -964.6  1022000.6 -0.3  2 0   205  669  476
[40]  85(N04)  f 44  7  0   2639.9  1021998.3  0.0  2 0  1011 1997 1116
[41]  86(N05)  f 44  7  0  -4740.9  1022003.0  0.1  2 0  1226 2172  844
[51]  40(B04)  1 21 14  0  -2134.4 20460020.8 -0.0  1 0  434  554  468
[52]  42(B06)  1  7  7  0     76.0 20460003.3 -0.1  1 0  275  403  756
[53]  43(B07)  1  7  7  0   -852.9 20460010.4  0.2  1 0  600  726  848
[54]  45(B09)  1  7  7  0   -967.6 20460015.1  0.0  1 0  371  359  323
[56]  46(B10)  1  7  7  0   -989.4 20460014.6  0.1  1 0  848  682  465
$GNGGA,021446.000,2944.9028,N,10633.0905,E,1,09,1.2,321.9,M,,,,0000*14
$GNRMC,021446.000,A,2944.9028,N,10633.0905,E,0.07,0.00,070180,,*12
$GPGSA,A,3,,,,,,,,,,,,,1.9,1.2,1.4*3C
$BDGSA,A,3,01,04,06,07,09,10,19,21,22,,,,1.9,1.2,1.4*2A
$GLGSA,A,3,,,,,,,,,,,,,1.9,1.2,1.4*20
$GPGSV,3,1,09,03,00,000,40,14,00,000,42,16,00,000,44,22,00,000,43*76
$GPGSV,3,2,09,23,00,000,40,26,00,000,45,27,00,000,40,31,00,000,45*73
$GPGSV,3,3,09,32,00,000,41*44
$BDGSV,3,1,12,01,40,126,41,03,54,172,33,05,26,244,21,04,23,110,38*64
$BDGSV,3,2,12,06,56,150,41,07,75,354,44,09,85,191,43,10,66,270,43*60
$BDGSV,3,3,12,18,00,000,43,19,29,187,42,21,20,311,42,22,49,255,44*65
$B3CN0,0,0,0,0,0,0,0,0,0,0,0,0,0,0*4C
---00000015--- Acq_st=3 0  2000-1-7 2:14:46 
[00]  02(G03)  f 41  7  0    207.6  2045999.7  0.1  2 0 1174 1717 1129
[01]  13(G14)  f 42  9  0   1348.6  2045998.2 -0.1  2 0 1258 2020 1096
[02]  15(G16)  f 43  7  0  -1883.0  2046002.4  0.0  2 0 2281 3001 1329
[03]  21(G22)  f 43  9  0    853.7  2045998.8 -0.1  2 0 1205 2148  765
[04]  22(G23)  f 40  7  0  -4184.6  2046005.4 -0.1  2 0 1187 1846 1082
[05]  25(G26)  f 46  7  0    164.7  2045999.7 -0.0  2 0 2992 4301 2046
[06]  26(G27)  f 40  7  0  -4642.0  2046006.0  0.0  2 0 1166 1475  405
[08]  30(G31)  f 45  7  0    432.0  2045999.4 -0.0  2 0 2399 3583 1530
[09]  31(G32)  f 40  7  0   2165.4  2045997.1 -0.1  2 0 1001 1819  664
[16]  37(B01) 1f 41 10  0  -1127.1  4092002.9  0.1  2 0  913 1493  889
[17]  39(B03)  7 33 32  1   -999.1  4092002.6 -0.0  2 0 1713 1697  377
[18]  41(B05)  7 10 10  0  -1649.3  4092004.4 -0.1  2 0   39  356  918
[19]  40(B04) 1f 40 23  0  -1108.3  4092002.9 -0.4  2 0 1110 1633 1141
[20]  42(B06) 1f 41  7  0   -456.7  4092001.1 -0.0  2 0 1509 1824  857
[21]  43(B07) 1f 44  7  0   -816.4  4092002.0 -0.0  2 0 1930 2438  951
[22]  45(B09) 1f 43  7  0  -1034.3  4092002.6  0.0  2 0 1605 1851  480
[24]  46(B10) 1f 44  7  0  -1052.0  4092002.6  0.0  2 0 1659 2147  622
[25]  52(B16)  7 19  7  0   -487.7  4092001.2  0.4 10 0 2406 2745 1111
[26]  54(B18) 1f 44  7  0   -945.8  4092002.3 -0.0  2 0 1721 2583 1085
[27]  55(B19) 1f 42  7  0   1916.9  4091994.9  0.0  2 0 1541 1902 1346
[28]  57(B21) 1f 42  7  0  -2924.7  4092007.5  0.0  2 0 1485 2134 1453
[29]  58(B22) 1f 43 12  0   -261.1  4092000.6 -0.0  2 0 1925 2807 1043
[30]  65(B29) 1f 40  9  0  -3997.4  4092010.3  0.0  2 0 1357 1736  788
[32]  75(N-6)  f 43 10  0  -4375.0  1022002.7 -0.0  2 0  1408 1991 1064
[33]  76(N-5)  f 46  7  0   -941.8  1022000.6 -0.0  2 0  2344 4230 1664
[34]  78(N-3)  f 36  7  0  -3717.7  1022002.4 -0.2  2 0   588 1040  337
[35]  79(N-2)  f 34  7  0  -4719.8  1022002.9 -0.1  2 0   474  451  387
[36]  82(N01)  7 26 15  0   1464.8  1021999.0 -0.0 10 0   513  331  107
[37]  83(N02)  f 46  7  0   -506.1  1022000.3  0.0  2 0  2287 3698 1579
[38]  84(N03)  f 36  7  0   -964.6  1022000.6 -0.1  2 0   503  782  481
[40]  85(N04)  f 44  7  0   2640.0  1021998.3  0.0  2 0  1303 2725 1164
[41]  86(N05)  f 44  7  0  -4741.9  1022003.0  0.1  2 0  1245 2107 1030
[48]  37(B01)  1 10 36  1   -793.5 20460019.1 -0.1  1 0  501  100  423
[52]  42(B06)  1  7  7  0   -137.9 20460007.0 -0.0  1 0  750  593  372
[53]  43(B07)  1  7  7  0   -923.8 20460012.0  0.0  1 0  640  401  204
[54]  45(B09)  1 11  7  0   -730.2 20460015.0  0.1  1 0  886  386  561
[56]  46(B10)  1 11  7  0   -819.8 20460015.1 -0.2  1 0  168  888 1177
[58]  54(B18)  1  7  8  0   -985.8 20460014.9  0.0  1 0  634  285  141
[59]  55(B19)  1  7  7  0   1564.0 20459969.2 -0.0  1 0  810  697  312
[60]  57(B21)  1  7  7  0  -2149.2 20460047.6 -0.2  1 0  426  268  265
[61]  58(B22)  1  7  7  0   -389.2 20460003.8  0.0  1 0  215  502  791
[62]  65(B29)  1  9  7  0  -3269.7 20460065.0  0.1  1 0  376  239  625
$GNGGA,021447.000,2944.9033,N,10633.0907,E,1,09,1.2,321.8,M,,,,0000*1C
$GNRMC,021447.000,A,2944.9033,N,10633.0907,E,0.35,0.00,070180,,*1A
$GPGSA,A,3,,,,,,,,,,,,,1.9,1.2,1.4*3C
$BDGSA,A,3,01,04,06,07,09,10,19,21,22,,,,1.9,1.2,1.4*2A
$GLGSA,A,3,,,,,,,,,,,,,1.9,1.2,1.4*20
$GPGSV,3,1,09,03,00,000,41,14,00,000,42,16,00,000,43,22,00,000,43*70
$GPGSV,3,2,09,23,00,000,40,26,00,000,46,27,00,000,40,31,00,000,45*70
$GPGSV,3,3,09,32,00,000,40*45
$BDGSV,3,1,12,01,40,126,41,03,54,172,33,04,23,110,40,06,56,150,41*6F
$BDGSV,3,2,12,07,75,354,44,09,85,191,43,10,66,270,44,16,64,155,19*6F
$BDGSV,3,3,12,18,00,000,44,19,29,187,42,21,20,311,42,22,49,255,43*65
$B3CN0,0,0,0,0,0,0,0,0,0,0,0,0,0,0*4C
---00000016--- Acq_st=7 0  2000-1-7 2:14:47 
[00]  02(G03)  f 40  7  0    209.6  2045999.7 -0.2  2 0  298 1363 1056
[01]  13(G14)  f 42  7  0   1347.2  2045998.2  0.0  2 0 1119 2252 1419
[02]  15(G16)  f 44  7  0  -1884.0  2046002.4 -0.1  2 0 2177 3467 1367
[03]  21(G22)  f 42  7  0    851.6  2045998.9 -0.0  2 0 1437 2740 1219
[04]  22(G23)  f 41  7  0  -4181.8  2046005.4 -0.0  2 0 1552 2057 1287
[05]  25(G26)  f 46 11  0    165.2  2045999.7  0.0  2 0 2606 4297 2119
[06]  26(G27)  f 40 11  0  -4641.2  2046006.0 -0.1  2 0 1288 2028 1115
[08]  30(G31)  f 45  7  0    431.7  2045999.4  0.0  2 0 2405 3316 1580
[09]  31(G32)  f 40  7  0   2169.4  2045997.1  0.0  2 0  820 1599  518
[16]  37(B01) 1f 40 16  0  -1129.4  4092002.7  0.0  2 0 1625 1330  752
[17]  39(B03)  7 33 31  1  -1010.8  4092002.8 -0.0  2 0 1461 1853  981
[18]  41(B05)  7 21 10  1  -1261.7  4092003.1 -0.1  2 0  686  902  151
[19]  40(B04) 1f 40 19  0  -1111.0  4092002.8  0.7  2 0  880 1580  555
[20]  42(B06) 1f 42  7  0   -456.3  4092001.1  0.0  2 0 1735 1880  525
[21]  43(B07) 1f 44  7  0   -820.2  4092002.0 -0.1  2 0 1410 1902  671
[22]  45(B09) 1f 43  9  0  -1035.1  4092002.6 -0.0  2 0 1321 1722  454
[24]  46(B10) 1f 44  7  0  -1052.6  4092002.6 -0.0  2 0 1350 2136  699
[25]  52(B16)  7 44 10  0   -489.3  4092001.1  0.0  2 0 2599 3296 1142
[26]  54(B18) 1f 44  7  0   -949.4  4092002.3  0.0  2 0 1978 2567  996
[27]  55(B19) 1f 42  7  0   1914.5  4091994.9 -0.0  2 0 1641 1857  476
[28]  57(B21) 1f 42  7  0  -2926.7  4092007.6 -0.0  2 0 1379 1953  885
[29]  58(B22) 1f 44 14  0   -264.0  4092000.6 -0.1  2 0 1864 2515 1413
[30]  65(B29) 1f 40  7  0  -4001.0  4092010.4 -0.0  2 0 1227 1697 1043
[32]  75(N-6)  f 44  7  0  -4375.8  1022002.7  0.1  2 0  1238 1766  934
[33]  76(N-5)  f 46  7  0   -941.7  1022000.6  0.0  2 0  2460 4092 1787
[34]  78(N-3)  f 38  7  0  -3719.3  1022002.4 -0.0  2 0   508  672  320
[35]  79(N-2)  f 34  7  0  -4718.0  1022002.9  0.1  2 0   985 1031  248
[36]  82(N01)  7 27 18  0   1462.5  1021999.0 -0.1 10 0   314  754  259
[37]  83(N02)  f 46  7  0   -506.0  1022000.3  0.1  2 0  1612 3699 2039
[38]  84(N03)  f 40  7  0   -962.2  1022000.6 -0.4  2 0   685 1017  436
[40]  85(N04)  f 44  7  0   2638.1  1021998.3  0.0  2 0  1008 2109 1029
[41]  86(N05)  f 44  7  0  -4742.6  1022003.0 -0.0  2 0  1003 2044 1063
[48]  37(B01)  f 14 21  0   -991.1 20460017.4  0.1  2 0  240  109  461
[51]  40(B04)  1 21 20  0  -1144.1 20460014.8 -0.0  1 0  762  609  268
[52]  42(B06)  1  7  7  0    169.7 20460006.5  0.0  1 0  397  265  968
[53]  43(B07)  1  7 10  0   -402.1 20460013.7  0.2  1 0  535  602  469
[54]  45(B09)  1  8  7  0   -899.1 20460016.3  0.1  1 0  417  549  469
[56]  46(B10)  1  7  7  0   -813.6 20460014.3 -0.0  1 0  781  744  431
[58]  54(B18)  1  7  7  0   -813.5 20460015.2  0.1  1 0  813  949  815
[59]  55(B19)  1  7  7  0   1872.6 20459969.5  0.1  1 0  320  719  284
[60]  57(B21)  1  7  7  0  -2258.7 20460046.6 -0.2  1 0  344  248   66
[61]  58(B22)  1  7  7  0   -338.4 20460003.5 -0.0  1 0  344  460  674
[62]  65(B29)  1  8  7  0  -3442.7 20460064.2 -0.0  1 0  943 1193  327
$GNGGA,021448.000,2944.9036,N,10633.0909,E,1,09,1.2,322.3,M,,,,0000*10
$GNRMC,021448.000,A,2944.9036,N,10633.0909,E,0.38,0.00,070180,,*13
$GPGSA,A,3,,,,,,,,,,,,,1.9,1.2,1.4*3C
$BDGSA,A,3,01,04,06,07,09,10,19,21,22,,,,1.9,1.2,1.4*2A
$GLGSA,A,3,,,,,,,,,,,,,1.9,1.2,1.4*20
$GPGSV,3,1,09,03,00,000,40,14,00,000,42,16,00,000,44,22,00,000,42*77
$GPGSV,3,2,09,23,00,000,41,26,00,000,46,27,00,000,40,31,00,000,45*71
$GPGSV,3,3,09,32,00,000,40*45
$BDGSV,3,1,12,01,40,126,40,03,54,172,33,05,26,244,21,04,23,110,40*6A
$BDGSV,3,2,12,06,56,150,42,07,75,354,44,09,85,191,43,10,66,270,44*64
$BDGSV,3,3,12,16,64,155,44,18,00,000,44,19,29,187,42,21,20,311,42*69
$B3CN0,0,0,0,0,0,0,0,0,0,0,0,0,0,0*4C
---00000017--- Acq_st=3 0  2000-1-7 2:14:48 
[00]  02(G03)  f 40  7  0    217.0  2045999.7  0.1  2 0  967 1569  689
[01]  13(G14)  f 43 11  0   1357.3  2045998.2  0.0  2 0 1190 1995 1122
[02]  15(G16)  f 44  7  0  -1874.1  2046002.4 -0.0  2 0 2240 2948 1330
[03]  21(G22)  f 43  7  0    865.7  2045998.8  0.0  2 0 1738 3094 1370
[04]  22(G23)  f 40  7  0  -4175.7  2046005.4  0.0  2 0 1163 1490  703
[05]  25(G26)  f 45  7  0    174.7  2045999.7 -0.0  2 0 2421 4442 1979
[06]  26(G27)  f 40  7  0  -4639.6  2046006.0 -0.0  2 0  679 1390  395
[08]  30(G31)  f 45 11  0    440.0  2045999.4 -0.0  2 0 2338 3638 1443
[09]  31(G32)  f 41  7  0   2174.0  2045997.1  0.2  2 0 1527 1754 1114
[16]  37(B01) 1f 40 21  0  -1117.7  4092002.8  0.3  2 0 1561 1541  692
[17]  39(B03)  7 33 33  1  -1004.9  4092002.5 -0.0  2 0 1386 2351  819
[18]  41(B05)  7 10 10  0  -1319.3  4092003.3 -0.3  2 0  860  466  193
[19]  40(B04) 1f 40 21  0  -1105.2  4092002.7  0.2  2 0 1354 1784  776
[20]  42(B06) 1f 41  7  0   -448.2  4092001.0 -0.1  2 0 1293 1312  700
[21]  43(B07) 1f 43  7  0   -813.2  4092002.0  0.0  2 0 1636 2005  981
[22]  45(B09) 1f 43  7  0  -1028.3  4092002.6  0.0  2 0 1871 2164  908
[24]  46(B10) 1f 44  7  0  -1044.3  4092002.6 -0.0  2 0 1987 2539 1004
[25]  52(B16)  7 44  7  0   -477.9  4092001.1  0.1  2 0 2242 2447  708
[26]  54(B18) 1f 44  7  0   -938.8  4092002.3  0.0  2 0 1704 2729 1471
[27]  55(B19) 1f 42  7  0   1923.2  4091994.9 -0.0  2 0 1813 1962  703
[28]  57(B21) 1f 43  7  0  -2914.4  4092007.5  0.0  2 0 2102 2254 1006
[29]  58(B22) 1f 44  9  0   -250.9  4092000.5  0.0  2 0 2476 2683  815
[30]  65(B29) 1f 40  7  0  -3990.8  4092010.4  0.0  2 0 1496 1445  740
[32]  75(N-6)  f 44  7  0  -4365.2  1022002.8 -0.0  2 0   904 1675  573
[33]  76(N-5)  f 46  7  0   -932.4  1022000.6  0.0  2 0  2324 3908 1590
[34]  78(N-3)  f 38  7  0  -3709.5  1022002.3 -0.2  2 0   897 1220  482
[35]  79(N-2)  f 34  7  0  -4711.0  1022002.9 -0.0  2 0   299  362  279
[36]  82(N01)  7 26 17  0   1469.7  1021999.0  0.0 10 0   686  888  382
[37]  83(N02)  f 46  7  0   -497.6  1022000.3 -0.0  2 0  2165 3725 1793
[38]  84(N03)  f 40  7  0   -954.1  1022000.6 -0.2  2 0   877 1068  560
[40]  85(N04)  f 44  7  0   2647.5  1021998.3 -0.0  2 0  1260 2323 1054
[41]  86(N05)  f 44  7  0  -4735.7  1022003.0 -0.0  2 0  1464 2442 1567
[48]  37(B01)  f 18 10  0  -1191.2 20460018.9  0.0  2 0  317  405  698
[51]  40(B04)  1 26 20  0  -1135.3 20460016.8 -0.1  1 0  432  404  558
[52]  42(B06)  1  8  7  0    373.5 20460005.5  0.0  1 0  239  284  379
[53]  43(B07)  1  7  7  0   -759.6 20460011.0  0.1  1 0  302  114  520
[54]  45(B09)  1  7  7  0   -874.6 20460015.7  0.0  1 0  189  232  363
[56]  46(B10)  1  7  7  0  -1087.5 20460015.0 -0.1  1 0  326  387  335
[58]  54(B18)  1  7  7  0   -807.1 20460015.1  0.0  1 0  683  875  425
[59]  55(B19)  1  8  7  0   1817.3 20459970.2 -0.0  1 0 1159 1078  344
[60]  57(B21)  1  7  7  0  -2506.2 20460048.1  0.1  1 0  428  321  291
[61]  58(B22)  1  7  7  0     -0.3 20460005.4  0.1  1 0  498  525  431
[62]  65(B29)  1  7  7  0  -3605.7 20460064.8  0.1  1 0  421  455  146
$GNGGA,021449.000,2944.9038,N,10633.0910,E,1,09,1.2,322.6,M,,,,0000*12
$GNRMC,021449.000,A,2944.9038,N,10633.0910,E,0.41,0.00,220419,,*18
$GPGSA,A,3,,,,,,,,,,,,,1.9,1.2,1.4*3C
$BDGSA,A,3,01,04,06,07,09,10,19,21,22,,,,1.9,1.2,1.4*2A
$GLGSA,A,3,,,,,,,,,,,,,1.9,1.2,1.4*20
$GPGSV,3,1,09,03,00,000,40,14,00,000,43,16,00,000,44,22,00,000,43*77
$GPGSV,3,2,09,23,00,000,40,26,00,000,45,27,00,000,40,31,00,000,45*73
$GPGSV,3,3,09,32,00,000,41*44
$BDGSV,3,1,12,01,40,126,40,03,54,172,33,04,23,110,40,06,56,150,41*6E
$BDGSV,3,2,12,07,75,354,43,09,85,191,43,10,66,270,44,16,64,155,44*60
$BDGSV,3,3,12,18,00,000,44,19,29,187,42,21,20,311,43,22,49,255,44*63
$B3CN0,18,0,0,0,0,0,0,0,0,0,0,0,0,0*75
---00000018--- Acq_st=3 0  2019-4-22 2:14:49 
[00]  02(G03)  f 41  7  0    225.5  2045999.6 -0.2  2 0  576 1489  530
[01]  13(G14)  f 42  7  0   1364.4  2045998.2  0.1  2 0 1350 2068 1133
[02]  15(G16)  f 44  7  0  -1869.5  2046002.4  0.1  2 0 1661 2633 1136
[03]  21(G22)  f 43  7  0    870.2  2045998.8 -0.1  2 0 1139 1748  559
[04]  22(G23)  f 40  7  0  -4169.8  2046005.4 -0.0  2 0  842 1357  100
[05]  25(G26)  f 46  7  0    178.4  2045999.7  0.1  2 0 2879 4355 1671
[06]  26(G27)  f 40  7  0  -4631.2  2046005.9 -0.1  2 0 1022 1256  276
[08]  30(G31)  f 45  7  0    444.2  2045999.4 -0.0  2 0 2150 3533 1498
[09]  31(G32)  f 41  9  0   2179.9  2045997.1 -0.0  2 0 1277 1584  937
[10]  28(G29)  1  7  7  0   1250.0  2045999.1 -0.0  1 0  745 1138  736
[16]  37(B01) 1f 40 10  0  -1117.4  4092002.8  0.3  2 0 1217 1320  295
[17]  39(B03)  7 34 32  1  -1000.1  4092002.6  0.0  2 0  419 1608 1098
[19]  40(B04) 1f 41 20  0  -1103.6  4092002.7 -0.1  2 0 1423 1834  875
[20]  42(B06) 1f 41  7  0   -444.5  4092001.0 -0.0  2 0 1558 1591  516
[21]  43(B07) 1f 43  7  0   -806.6  4092002.0  0.0  2 0 1756 2765 1558
[22]  45(B09) 1f 43  7  0  -1021.4  4092002.6  0.0  2 0 1726 2315 1113
[24]  46(B10) 1f 43  7  0  -1035.5  4092002.6  0.0  2 0 2238 2653 1245
[25]  52(B16)  7 44  7  0   -476.2  4092001.1  0.0  2 0 1726 2654 1230
[26]  54(B18) 1f 44  7  0   -933.6  4092002.3 -0.1  2 0 2058 2787 1469
[27]  55(B19) 1f 42  7  0   1928.5  4091994.8  0.0  2 0 2137 2209  924
[28]  57(B21) 1f 42  7  0  -2910.5  4092007.5 -0.0  2 0 1809 2138  749
[29]  58(B22) 1f 44  7  0   -246.8  4092000.5 -0.0  2 0 2217 2632  997
[30]  65(B29) 1f 40  7  0  -3989.3  4092010.4  0.0  2 0 1419 1515  349
[32]  75(N-6)  f 43  7  0  -4361.6  1022002.7 -0.0  2 0  1349 1983  684
[33]  76(N-5)  f 47  7  0   -927.8  1022000.6 -0.1  2 0  2266 4082 2092
[34]  78(N-3)  f 38  7  0  -3703.7  1022002.3  0.6  2 0   485  448   28
[35]  79(N-2)  f 34  7  0  -4709.5  1022003.0 -0.0  2 0   287  316  220
[36]  82(N01)  7 28 17  0   1474.8  1021998.9  0.0 10 0   561 1006  437
[37]  83(N02)  f 46  7  0   -493.4  1022000.3  0.0  2 0  1678 3679 1879
[38]  84(N03)  f 40  7  0   -949.6  1022000.6  0.1  2 0   930 1483  880
[40]  85(N04)  f 44  7  0   2652.6  1021998.3 -0.0  2 0  1114 1999 1025
[41]  86(N05)  f 44  7  0  -4730.6  1022003.0  0.0  2 0  1377 2057  720
[48]  37(B01)  f 10 19  0  -1619.6 20460027.1 -0.0  2 0  668  312  304
[51]  40(B04)  1 22 24  0  -1351.9 20460017.7  0.2  1 0  590  292  382
[58]  54(B18)  1  7  7  0   -628.5 20460014.6 -0.0  1 0  705  547  766
[59]  55(B19)  1  7  7  0   1824.3 20459971.6 -0.0  1 0  104  179  783
[60]  57(B21)  1  7  7  0  -1970.6 20460047.0  0.1  1 0  159  509  208
[61]  58(B22)  1  7  7  0    560.4 20460006.8 -0.2  1 0  212  663  761
[62]  65(B29)  1  9  7  0  -4142.3 20460063.9 -0.0  1 0  383  383  450
$GNGGA,021450.000,2944.9039,N,10633.0911,E,1,09,1.2,323.4,M,,,,0000*19
$GNRMC,021450.000,A,2944.9039,N,10633.0911,E,0.09,0.00,220419,,*1C
$GPGSA,A,3,,,,,,,,,,,,,1.9,1.2,1.4*3C
$BDGSA,A,3,01,04,06,07,09,10,19,21,22,,,,1.9,1.2,1.4*2A
$GLGSA,A,3,,,,,,,,,,,,,1.9,1.2,1.4*20
$GPGSV,3,1,09,03,00,000,41,14,00,000,42,16,00,000,44,22,00,000,43*77
$GPGSV,3,2,09,23,00,000,40,26,00,000,46,27,00,000,40,31,00,000,45*70
$GPGSV,3,3,09,32,00,000,41*44
$BDGSV,3,1,12,01,40,126,40,03,54,172,34,04,23,110,41,06,56,150,41*68
$BDGSV,3,2,12,07,75,354,43,09,85,191,43,10,66,270,43,16,64,155,44*67
$BDGSV,3,3,12,18,00,000,44,19,29,187,42,21,20,311,42,22,49,255,44*62
$B3CN0,0,0,0,0,0,0,0,0,0,0,0,0,0,0*4C
---00000019--- Acq_st=3 0  2019-4-22 2:14:50 
[00]  02(G03)  f 41  9  0    210.5  2045999.7 -0.1  2 0  824 1515  902
[01]  13(G14)  f 41  7  0   1355.1  2045998.2  0.0  2 0 1003 1844  707
[02]  15(G16)  f 44  7  0  -1878.3  2046002.4  0.0  2 0 1924 3143 1457
[03]  21(G22)  f 43  7  0    863.4  2045998.8  0.0  2 0 1413 2562 1675
[04]  22(G23)  f 40  7  0  -4181.7  2046005.4  0.1  2 0  937 1866  853
[05]  25(G26)  f 45  7  0    169.4  2045999.7 -0.0  2 0 2649 5020 2833
[06]  26(G27)  f 41 11  0  -4643.4  2046006.0 -0.0  2 0 1039 1599  454
[08]  30(G31)  f 45  7  0    435.1  2045999.4  0.0  2 0 2500 3892 1734
[09]  31(G32)  f 40  7  0   2171.7  2045997.1  0.1  2 0 1019 1199  557
[10]  28(G29)  1 26  7  0   1269.8  2045998.1  0.5  1 0  685 1142  196
[16]  37(B01) 1f 41 19  0  -1124.7  4092002.8 -0.1  2 0 1146 1317  550
[17]  39(B03)  7 33 32  1  -1015.0  4092002.6  0.0  2 0  551 1539 1207
[18]  38(B02)  1 40 24  0  -1077.0  4092003.8  1.0  1 0 1328 1716  843
[19]  40(B04) 1f 41 14  0  -1106.4  4092002.9 -0.1  2 0  813 1368  475
[20]  42(B06) 1f 41  7  0   -451.6  4092001.1  0.0  2 0 1382 1555  391
[21]  43(B07) 1f 43  7  0   -815.0  4092002.0 -0.0  2 0 1766 2632 1399
[22]  45(B09) 1f 43  7  0  -1033.2  4092002.6 -0.1  2 0 1558 2380  568
[24]  46(B10) 1f 43  8  0  -1050.0  4092002.6  0.0  2 0 1552 2051  842
[25]  52(B16)  7 44  7  0   -483.6  4092001.1 -0.0  2 0 1924 2839 1343
[26]  54(B18) 1f 43  7  0   -941.1  4092002.4 -0.0  2 0 1674 2122  691
[27]  55(B19) 1f 42  7  0   1919.3  4091994.8  0.0  2 0 1423 1592  571
[28]  57(B21) 1f 42  7  0  -2921.5  4092007.5 -0.1  2 0  918 1787 1031
[29]  58(B22) 1f 44  8  0   -255.7  4092000.6 -0.1  2 0 2053 2798 1160
[30]  65(B29) 1f 40  7  0  -3994.4  4092010.4 -0.1  2 0 1041 1318  789
[32]  75(N-6)  f 45  7  0  -4369.6  1022002.8  0.0  2 0  1097 1949 1242
[33]  76(N-5)  f 47  7  0   -935.2  1022000.6  0.0  2 0  2109 4035 1691
[34]  78(N-3)  f 38  7  0  -3712.8  1022002.3 -0.1  2 0   410  716  817
[35]  79(N-2)  f 34  7  0  -4714.9  1022002.8 -0.1  2 0   214  561  335
[36]  82(N01)  7 27 16  0   1468.5  1021998.9  0.2 10 0   458  347  289
[37]  83(N02)  f 47  7  0   -501.9  1022000.3  0.0  2 0  1757 4063 2102
[38]  84(N03)  f 40  7  0   -958.1  1022000.6  0.2  2 0   772 1142  616
[40]  85(N04)  f 44  7  0   2644.1  1021998.3  0.1  2 0  1337 2062  767
[41]  86(N05)  f 45  7  0  -4740.6  1022003.0 -0.1  2 0  1345 2698 1557
[48]  37(B01)  f 16 20  0  -2003.6 20460031.9  0.0  2 0  127  328  143
[51]  40(B04)  1 18 20  1  -1130.9 20460020.9 -0.1  1 0  422  292  535
[52]  42(B06)  1  7  7  0   -644.9 20460005.0  0.1  1 0  685  208  556
[53]  43(B07)  1  7  7  0   -553.9 20460010.1 -0.1  1 0  467  569  322
[54]  45(B09)  1  7  7  0  -1094.5 20460013.9  0.0  1 0  574  830  714
[56]  46(B10)  1  7  7  0   -978.8 20460014.2 -0.1  1 0 1433  786  522
$GNGGA,021451.000,2944.9040,N,10633.0912,E,1,09,1.2,324.2,M,,,,0000*14
$GNRMC,021451.000,A,2944.9040,N,10633.0912,E,0.20,0.00,220419,,*1B
$GPGSA,A,3,,,,,,,,,,,,,1.9,1.2,1.4*3C
$BDGSA,A,3,01,04,06,07,09,10,19,21,22,,,,1.9,1.2,1.4*2A
$GLGSA,A,3,,,,,,,,,,,,,1.9,1.2,1.4*20
$GPGSV,3,1,09,03,00,000,41,14,00,000,41,16,00,000,44,22,00,000,43*74
$GPGSV,3,2,09,23,00,000,40,26,00,000,45,27,00,000,41,31,00,000,45*72
$GPGSV,3,3,09,32,00,000,40*45
$BDGSV,3,1,12,01,40,126,41,03,54,172,33,04,23,110,41,06,56,150,41*6E
$BDGSV,3,2,12,07,75,354,43,09,85,191,43,10,66,270,43,16,64,155,44*67
$BDGSV,3,3,12,18,00,000,43,19,29,187,42,21,20,311,42,22,49,255,44*65
$B3CN0,16,0,0,0,0,0,0,0,0,0,0,0,0,0*7B
---00000020--- Acq_st=3 0  2019-4-22 2:14:51 
[00]  02(G03)  f 40  7  0    209.0  2045999.7  0.1  2 0  605 1395  814
[01]  13(G14)  f 42  7  0   1349.6  2045998.2 -0.0  2 0 1205 2407 1112
[02]  15(G16)  f 44  7  0  -1879.5  2046002.4 -0.0  2 0 1732 2414  765
[03]  21(G22)  f 43  7  0    862.2  2045998.8 -0.0  2 0 1244 2227  777
[04]  22(G23)  f 41  7  0  -4182.3  2046005.4 -0.0  2 0 1081 1712  855
[05]  25(G26)  f 46  7  0    170.4  2045999.7  0.0  2 0 2823 4870 2132
[06]  26(G27)  f 41  7  0  -4639.4  2046006.0  0.0  2 0 1605 2002  991
[08]  30(G31)  f 44  7  0    434.0  2045999.4  0.0  2 0 2393 3668 2007
[09]  31(G32)  f 40  7  0   2172.8  2045997.1 -0.1  2 0 1140 1601  696
[10]  28(G29)  7 28  7  0   1307.4  2045998.3  0.5 10 0  979  703  586
[16]  37(B01) 1f 41 20  0  -1124.2  4092002.7  0.5  2 0  743 1542  800
[17]  39(B03)  7 33 32  1  -1002.8  4092002.7  0.0  2 0  400 1517 1739
[18]  38(B02)  f 38 25  0  -1079.2  4092002.6  0.3  2 0 1076 1334  585
[19]  40(B04) 1f 41 23  0  -1106.8  4092002.8  0.2  2 0  963 1308  688
[20]  42(B06) 1f 41  7  0   -452.5  4092001.1 -0.1  2 0 1996 2107  862
[21]  43(B07) 1f 43  7  0   -817.4  4092002.0  0.0  2 0 2230 2364 1034
[22]  45(B09) 1f 43 12  0  -1033.2  4092002.6  0.0  2 0 1946 2305 1256
[24]  46(B10) 1f 43  7  0  -1050.7  4092002.6  0.1  2 0 2185 2513 1164
[25]  52(B16) 1f 43  7  0   -482.8  4092001.1  0.0  2 0 2136 2980 1051
[26]  54(B18) 1f 44  7  0   -945.4  4092002.3  0.0  2 0 1758 2563 1317
[27]  55(B19) 1f 42  7  0   1918.8  4091994.8 -0.1  2 0 1590 1984 1344
[28]  57(B21) 1f 42  7  0  -2920.7  4092007.5 -0.1  2 0 1171 1569  986
[29]  58(B22) 1f 44 11  0   -255.7  4092000.6  0.1  2 0 2064 2588  849
[30]  65(B29) 1f 40  7  0  -4002.7  4092010.3 -0.0  2 0 1191 1634  824
[32]  75(N-6)  f 44  7  0  -4371.7  1022002.8 -0.0  2 0  1338 2075 1263
[33]  76(N-5)  f 47  7  0   -936.4  1022000.6  0.0  2 0  2368 4247 2178
[34]  78(N-3)  f 38  7  0  -3716.1  1022002.3 -0.1  2 0   734  768  380
[35]  79(N-2)  f 34  7  0  -4717.3  1022003.0 -0.1  2 0   160  332  439
[36]  82(N01)  7 27 18  0   1465.3  1021999.2 -0.0 10 0   673  737  373
[37]  83(N02)  f 47  7  0   -503.7  1022000.3 -0.1  2 0  1919 3653 1913
[38]  84(N03)  f 40  7  0   -958.2  1022000.7  0.0  2 0   912 1099  366
[40]  85(N04)  f 44 10  0   2641.6  1021998.3  0.0  2 0  1416 2220  967
[41]  86(N05)  f 45  7  0  -4742.6  1022003.0  0.0  2 0  1309 2542 1467
[52]  42(B06)  1  7  7  0   -837.7 20460006.3 -0.0  1 0  323  259  185
[53]  43(B07)  1  7  7  0   -552.2 20460011.1 -0.1  1 0  699  394  486
[54]  45(B09)  1  7  7  0  -1032.3 20460015.8 -0.1  1 0  248  432  262
[56]  46(B10)  1  7  7  0   -647.7 20460016.3  0.2  1 0  545  722  353
[58]  54(B18)  1  7  7  0   -715.4 20460015.3  0.0  1 0  792  563  317
[59]  55(B19)  1  7  7  0   1352.7 20459968.1  0.1  1 0  603  658  625
[60]  57(B21)  1  7  7  0  -2523.0 20460046.5 -0.2  1 0  549  539  753
[61]  58(B22)  1  7  7  0   -104.1 20460003.3 -0.4  1 0  239  454  535
[62]  65(B29)  1  7  7  0  -2731.1 20460064.6  0.1  1 0  218  479  521
$GNGGA,021452.000,2944.9040,N,10633.0912,E,1,10,1.2,324.3,M,,,,0000*1E
$GNRMC,021452.000,A,2944.9040,N,10633.0912,E,0.21,0.00,220419,,*19
$GPGSA,A,3,,,,,,,,,,,,,1.8,1.2,1.4*3D
$BDGSA,A,3,01,04,06,07,09,10,16,19,21,22,,,1.8,1.2,1.4*2C
$GLGSA,A,3,,,,,,,,,,,,,1.8,1.2,1.4*21
$GPGSV,3,1,10,03,00,000,40,14,00,000,42,16,00,000,44,22,00,000,43*7E
$GPGSV,3,2,10,23,00,000,41,26,00,000,46,27,00,000,41,31,00,000,44*79
$GPGSV,3,3,10,32,00,000,40,29,00,000,28*7C
$BDGSV,3,1,12,01,40,126,41,03,54,172,33,02,45,218,38,04,23,110,41*69
$BDGSV,3,2,12,06,56,150,41,07,75,354,43,09,85,191,43,10,66,270,43*67
$BDGSV,3,3,12,16,64,155,43,18,00,000,44,19,29,187,42,21,20,311,42*6E
$B3CN0,0,0,0,0,0,0,0,0,0,0,0,0,0,0*4C
---00000021--- Acq_st=3 0  2019-4-22 2:14:52 
[00]  02(G03)  f 41  7  0    212.2  2045999.7  0.0  2 0 1357 2164 1211
[01]  13(G14)  f 42  7  0   1353.2  2045998.2  0.1  2 0 1209 1702  749
[02]  15(G16)  f 43  7  0  -1874.8  2046002.4 -0.0  2 0 1964 3116 1212
[03]  21(G22)  f 42  7  0    859.7  2045998.8 -0.0  2 0 1672 2455  950
[04]  22(G23)  f 41 12  0  -4183.1  2046005.4  0.1  2 0 1247 1952 1019
[05]  25(G26)  f 45  7  0    169.6  2045999.7 -0.0  2 0 3001 4347 1867
[06]  26(G27)  f 41  7  0  -4640.7  2046006.0 -0.0  2 0 1183 1516  883
[08]  30(G31)  f 44  7  0    434.9  2045999.4 -0.1  2 0 2787 4208 2015
[09]  31(G32)  f 40  7  0   2171.9  2045997.1 -0.1  2 0 1335 1634  454
[10]  28(G29)  7 35  7  0   1320.4  2045998.2 -0.0  2 0 1037 1088  516
[16]  37(B01) 1f 40 20  0  -1126.2  4092002.8  0.4  2 0 1243 1466  602
[17]  39(B03)  7 33 30  1  -1000.3  4092002.7  0.0  2 0  652 1261 2047
[18]  38(B02)  f 39 17  0  -1069.5  4092002.6  0.5  2 0  689  771  214
[19]  40(B04) 1f 40 17  0  -1107.0  4092002.8  0.7  2 0 1610 1661  399
[20]  42(B06) 1f 41  7  0   -454.5  4092001.1  0.1  2 0 1683 1921  914
[21]  43(B07) 1f 43  7  0   -815.9  4092002.0 -0.0  2 0 1498 2376 1216
[22]  45(B09) 1f 43  8  0  -1027.5  4092002.6 -0.0  2 0 2417 2594 1342
[24]  46(B10) 1f 43 10  0  -1047.5  4092002.6  0.0  2 0 1688 2256  996
[25]  52(B16) 1f 43  7  0   -482.6  4092001.1  0.0  2 0 2047 2197  796
[26]  54(B18) 1f 44  7  0   -945.6  4092002.4  0.0  2 0 2107 2502  878
[27]  55(B19) 1f 42  7  0   1920.3  4091994.8  0.0  2 0 1328 1798 1225
[28]  57(B21) 1f 42  7  0  -2920.3  4092007.5  0.0  2 0 1844 2160  963
[29]  58(B22) 1f 44  7  0   -257.1  4092000.6 -0.1  2 0 2547 2745 1127
[30]  65(B29) 1f 40  7  0  -3998.8  4092010.4 -0.0  2 0 1145 1345  788
[32]  75(N-6)  f 44  7  0  -4369.9  1022002.7  0.0  2 0  1150 2168 1031
[33]  76(N-5)  f 47  7  0   -934.7  1022000.6  0.0  2 0  2449 3782 1704
[34]  78(N-3)  f 38  7  0  -3712.6  1022002.3  0.2  2 0   551  481  185
[35]  79(N-2)  f 34 11  0  -4717.7  1022002.9 -0.1  2 0   289  554  185
[36]  82(N01)  7 27 17  0   1465.2  1021999.0  0.2 10 0   361  521  323
[37]  83(N02)  f 47  7  0   -503.4  1022000.3 -0.0  2 0  2203 3629 1400
[38]  84(N03)  f 40  7  0   -957.9  1022000.6  0.0  2 0   786  625  366
[40]  85(N04)  f 44  7  0   2643.1  1021998.3 -0.0  2 0  1077 2273 1131
[41]  86(N05)  f 45  7  0  -4741.2  1022003.0  0.0  2 0  1205 2164 1035
[48]  37(B01)  1 10 18  0   -994.4 20460021.1  0.2  1 0  238  377  458
[50]  38(B02)  1 10 10  1   -630.7 20460019.6 -0.1  1 0  661   64  550
[51]  40(B04)  1 21 17  1  -1001.0 20460014.8 -0.1  1 0  340  255  319
[52]  42(B06)  1 12  7  0   -411.9 20460005.0  0.1  1 0  189  160   73
[53]  43(B07)  1  7  7  0   -672.6 20460007.8  0.2  1 0  850  122  457
[54]  45(B09)  1  8  7  0  -1278.0 20460014.8 -0.1  1 0  232  658  502
[56]  46(B10)  1  7  7  0    257.7 20460016.2 -0.1  1 0  187  277  537
[57]  52(B16)  1  7  7  0   -244.8 20460006.5  0.1  1 0  652  569  159
[58]  54(B18)  1  7 10  0   -717.6 20460016.3  0.1  1 0  475  790  789
[59]  55(B19)  1  7  7  0    632.7 20459969.0  0.0  1 0  142  193  246
[60]  57(B21)  1 11  7  0  -2461.7 20460045.8  0.2  1 0  193  100  430
[61]  58(B22)  1 11  7  0    631.3 20460003.7  0.1  1 0  529  131  275
[62]  65(B29)  1  7  7  0  -2435.2 20460064.5  0.1  1 0   82  227  848
$GNGGA,021453.000,2944.9041,N,10633.0912,E,1,10,1.2,324.4,M,,,,0000*19
$GNRMC,021453.000,A,2944.9041,N,10633.0912,E,0.26,0.00,220419,,*1E
$GPGSA,A,3,,,,,,,,,,,,,1.8,1.2,1.4*3D
$BDGSA,A,3,01,04,06,07,09,10,16,19,21,22,,,1.8,1.2,1.4*2C
$GLGSA,A,3,,,,,,,,,,,,,1.8,1.2,1.4*21
$GPGSV,3,1,10,03,00,000,41,14,00,000,42,16,00,000,43,22,00,000,42*79
$GPGSV,3,2,10,23,00,000,41,26,00,000,45,27,00,000,41,31,00,000,44*7A
$GPGSV,3,3,10,32,00,000,40,29,00,000,35*70
$BDGSV,3,1,12,01,40,126,40,03,54,172,33,02,45,218,39,04,23,110,40*68
$BDGSV,3,2,12,06,56,150,41,07,75,354,43,09,85,191,43,10,66,270,43*67
$BDGSV,3,3,12,16,64,155,43,18,00,000,44,19,29,187,42,21,20,311,42*6E
$B3CN0,0,0,0,0,0,0,0,0,0,0,0,0,0,0*4C
---00000022--- Acq_st=7 0  2019-4-22 2:14:53 
[00]  02(G03)  f 41  7  0    218.8  2045999.6 -0.0  2 0 1111 1731  714
[01]  13(G14)  f 41  8  0   1352.6  2045998.2 -0.0  2 0 1117 2129 1412
[02]  15(G16)  f 44  7  0  -1876.8  2046002.4  0.0  2 0 1945 3022 1675
[03]  21(G22)  f 42  7  0    865.8  2045998.8 -0.0  2 0  667 1572  837
[04]  22(G23)  f 40  7  0  -4177.5  2046005.4  0.1  2 0  692 2138 1706
[05]  25(G26)  f 45  7  0    172.9  2045999.7  0.0  2 0 2398 4079 2113
[06]  26(G27)  f 40  7  0  -4637.1  2046006.0 -0.0  2 0 1293 1474  491
[08]  30(G31)  f 44  7  0    436.1  2045999.4 -0.0  2 0 1713 2772 1365
[09]  31(G32)  f 41  7  0   2172.1  2045997.1  0.1  2 0 1315 1333  783
[10]  28(G29)  7 35  7  0   1309.3  2045998.2  0.0  2 0  246  905  481
[16]  37(B01) 1f 42 10  0  -1125.2  4092002.7  0.7  2 0  984 1158  173
[17]  39(B03)  7 33 32  1  -1010.7  4092002.6  0.1  2 0  237 1252 2238
[18]  38(B02) 1f 40 27  0  -1078.1  4092002.7  0.7  2 0  988 1093  217
[19]  40(B04) 1f 40 23  0  -1107.3  4092002.8 -0.5  2 0 1192 1292  412
[20]  42(B06) 1f 41  7  0   -448.5  4092001.0 -0.1  2 0 1460 2187 1325
