SD initialized success
Create debug.log Failed! 3
bbram_blkflag = 1
rtcflag = 0
BBRAM Block OK: 01 EPHflag: 282315c5 340012cf, rtc 00
Hot-start nowtime:day = 24,minute = 28,seconds = 07.00
GPS Pred_Dopp 1 -1861.77
sv_pvt.vx:161.615631,sv_pvt.vy:-1173.883911,sv_pvt.vz:2951.382080
vel[0]:0.000000, vel[1]:-1173.883789, vel[2]:2951.382080
vel[0]:0.000000, vel[1]:0.000000, vel[2]:0.000000
-0.599117 0.749864 0.280647,df:-205.500000
BD Pred_Dopp 1 -1060.10
BD Pred_Dopp 2 -1097.35
GPS Pred_Dopp 3 -3438.31
sv_pvt.vx:-1585.806763,sv_pvt.vy:56.398327,sv_pvt.vz:2620.196045
vel[0]:0.000000, vel[1]:56.398315, vel[2]:2620.196045
vel[0]:0.000000, vel[1]:0.000000, vel[2]:0.000000
-0.731076 0.285086 -0.619882,df:-205.500000
BD Pred_Dopp 3 -1076.99
BD Pred_Dopp 4 -1072.00
GPS Pred_Dopp 7   462.68
sv_pvt.vx:-494.555908,sv_pvt.vy:389.030334,sv_pvt.vz:-3128.770264
vel[0]:0.000000, vel[1]:389.030273, vel[2]:-3128.770264
vel[0]:0.000000, vel[1]:0.000000, vel[2]:0.000000
-0.217318 0.974152 0.061655,df:-205.500000
BD Pred_Dopp 7 -1271.37
GPS Pred_Dopp 8  1526.16
sv_pvt.vx:-1703.461426,sv_pvt.vy:-2033.724243,sv_pvt.vz:-918.682251
vel[0]:0.000000, vel[1]:-2033.723633, vel[2]:-918.682251
vel[0]:0.000000, vel[1]:0.000000, vel[2]:0.000000
-0.624683 -0.071854 0.777566,df:-205.500000
BD Pred_Dopp 8 -1727.01
GPS Pred_Dopp 9  1383.50
sv_pvt.vx:-1487.369385,sv_pvt.vy:-1375.887329,sv_pvt.vz:-2143.591309
vel[0]:0.000000, vel[1]:-1375.886719, vel[2]:-2143.591309
vel[0]:0.000000, vel[1]:0.000000, vel[2]:0.000000
0.198375 0.623299 -0.756403,df:-205.500000
BD Pred_Dopp 10 -1531.56
GPS Pred_Dopp 11  -385.00
sv_pvt.vx:-502.066162,sv_pvt.vy:-2080.022705,sv_pvt.vz:1957.205322
vel[0]:0.000000, vel[1]:-2080.021484, vel[2]:1957.205322
vel[0]:0.000000, vel[1]:0.000000, vel[2]:0.000000
-0.443825 0.636803 0.630477,df:-205.500000
GPS Pred_Dopp 13 -1657.87
sv_pvt.vx:1140.030762,sv_pvt.vy:1991.989868,sv_pvt.vz:-1827.280029
vel[0]:0.000000, vel[1]:1991.989258, vel[2]:-1827.280029
vel[0]:0.000000, vel[1]:0.000000, vel[2]:0.000000
0.807895 0.022623 0.588892,df:-205.500000
BD Pred_Dopp 13 -2166.02
GPS Pred_Dopp 17 -3004.82
sv_pvt.vx:-362.800659,sv_pvt.vy:-153.401520,sv_pvt.vz:3189.248535
vel[0]:0.000000, vel[1]:-153.401489, vel[2]:3189.248535
vel[0]:0.000000, vel[1]:0.000000, vel[2]:0.000000
0.687545 0.726140 -0.001714,df:-205.500000
GPS Pred_Dopp 18    26.73
sv_pvt.vx:394.988220,sv_pvt.vy:-2104.912354,sv_pvt.vz:2104.916260
vel[0]:0.000000, vel[1]:-2104.912109, vel[2]:2104.916260
vel[0]:0.000000, vel[1]:0.000000, vel[2]:0.000000
-0.685018 0.388012 0.616601,df:-205.500000
GPS Pred_Dopp 22 -2988.96
sv_pvt.vx:-714.847900,sv_pvt.vy:-214.887329,sv_pvt.vz:3023.554199
vel[0]:0.000000, vel[1]:-214.887329, vel[2]:3023.554199
vel[0]:0.000000, vel[1]:0.000000, vel[2]:0.000000
-0.925973 0.191423 -0.325470,df:-205.500000
BD Pred_Dopp 27  1669.97
GPS Pred_Dopp 28 -2893.51
sv_pvt.vx:-2564.855713,sv_pvt.vy:298.833984,sv_pvt.vz:963.027283
vel[0]:0.000000, vel[1]:298.833984, vel[2]:963.027283
vel[0]:0.000000, vel[1]:0.000000, vel[2]:0.000000
0.477489 0.359052 0.801926,df:-205.500000
BD Pred_Dopp 29 -2895.77
GPS Pred_Dopp 30 -1800.65
sv_pvt.vx:-929.739441,sv_pvt.vy:1588.060791,sv_pvt.vz:-2348.298096
vel[0]:0.000000, vel[1]:1588.060547, vel[2]:-2348.298096
vel[0]:0.000000, vel[1]:0.000000, vel[2]:0.000000
0.185787 0.820907 0.539995,df:-205.500000
BD Pred_Dopp 30  -278.25
GPS 0 Init Dop: -1736, 2
GPS 1 Init Dop: 10000,80
GPS 2 Init Dop: -3313, 2
GPS 3 Init Dop: 10000,80
GPS 4 Init Dop: 10000,80
GPS 5 Init Dop: 10000,80
GPS 6 Init Dop:   587, 2
GPS 7 Init Dop:  1651, 2
GPS 8 Init Dop:  1508, 2
GPS 9 Init Dop: 10000,80
GPS10 Init Dop:  -260, 2
GPS11 Init Dop: 10000,80
GPS12 Init Dop: -1532, 2
GPS13 Init Dop: 10000,80
GPS14 Init Dop: 10000,80
GPS15 Init Dop: 10000,80
GPS16 Init Dop: -2879, 2
GPS17 Init Dop:   151, 2
GPS18 Init Dop: 10000,80
GPS19 Init Dop: 10000,80
GPS20 Init Dop: 10000,80
GPS21 Init Dop: -2863, 2
GPS22 Init Dop: 10000,80
GPS23 Init Dop: 10000,80
GPS24 Init Dop: 10000,80
GPS25 Init Dop: 10000,80
GPS26 Init Dop: 10000,80
GPS27 Init Dop: -2768, 2
GPS28 Init Dop: 10000,80
GPS29 Init Dop: -1675, 2
GPS30 Init Dop: 10000,80
GPS31 Init Dop: 10000,80
BDS 0 Init Dop:  -935, 2
BDS 1 Init Dop:  -972, 2
BDS 2 Init Dop:  -951, 2
BDS 3 Init Dop:  -946, 2
BDS 4 Init Dop: 10000,80
BDS 5 Init Dop: 10000,80
BDS 6 Init Dop: -1146, 2
BDS 7 Init Dop: -1602, 2
BDS 8 Init Dop: 10000,80
BDS 9 Init Dop: -1406, 2
BDS10 Init Dop: 10000,80
BDS11 Init Dop: 10000,80
BDS12 Init Dop: -2041, 2
BDS13 Init Dop: 10000,80
BDS14 Init Dop: 10000,80
BDS15 Init Dop: 10000,80
BDS16 Init Dop: 10000,80
BDS17 Init Dop: 10000,80
BDS18 Init Dop: 10000,80
BDS19 Init Dop: 10000,80
BDS20 Init Dop: 10000,80
BDS21 Init Dop: 10000,80
BDS22 Init Dop: 10000,80
BDS23 Init Dop: 10000,80
BDS24 Init Dop: 10000,80
BDS25 Init Dop: 10000,80
BDS26 Init Dop:  1794, 2
BDS27 Init Dop: 10000,80
BDS28 Init Dop: -2770, 2
BDS29 Init Dop:  -153, 2
BDS30 Init Dop: 10000,80
BDS31 Init Dop: 10000,80
Good luck!
ch0 satid=0 freq=-1986 acq ok!
ch1 satid=6 freq=337 acq ok!
ch2 satid=7 freq=1401 acq ok!
ch3 satid=10 freq=-510 acq ok!
ch4 satid=16 freq=-3129 acq ok!
ch5 satid=17 freq=-99 acq ok!
$GNGGA,000000.000,,,,,0,00,,,M,,,,0000*2B
$GNRMC,000000.000,A,,,,,,,060180,,*29
$GPGSA,A,1,,,,,,,,,,,,,,,*1E
$BDGSA,A,1,,,,,,,,,,,,,,,*0F
$GLGSA,A,1,,,,,,,,,,,,,,,*02
$B3CN0,0,0,0,0,0,0,0,0,0,0,0,0,0,0*4C
---00000001--- Acq_st=3 0  2019-4-24 7:28:8 
[00]  00(G01)  1 26 14  0  -1908.8  2046002.9  0.3  1 0 2314 3433 1642
[01]  06(G07)  1 19  7  0    413.2  2045999.8  0.2  1 0 3243 4484 2294
[02]  07(G08)  1 18  7  0   1479.3  2045999.4  0.1  1 0  781 1482  994
[03]  10(G11)  1  7  7  0   -397.1  2046003.0 -0.1  1 0  409  496 2216
[04]  16(G17)  1  7  7  0  -3129.0  2046005.8 -0.0  1 0  448 1026 2115
[05]  17(G18)  1  7  7  0    -99.0  2046001.7  0.0  1 0  546 2281 2785
ch6 satid=21 freq=-3113 acq ok!
ch8 satid=27 freq=-3018 acq ok!
ch9 satid=29 freq=-1925 acq ok!
ch18 satid=39 freq=-1451 acq ok!
$GNGGA,000000.000,,,,,0,00,,,M,,,,0000*2B
$GNRMC,000000.000,A,,,,,,,060180,,*29
$GPGSA,A,1,,,,,,,,,,,,,,,*1E
$BDGSA,A,1,,,,,,,,,,,,,,,*0F
$GLGSA,A,1,,,,,,,,,,,,,,,*02
$B3CN0,0,0,0,0,0,0,0,0,0,0,0,0,0,0*4C
---00000002--- Acq_st=3 0  2019-4-24 7:28:9 
[00]  00(G01)  7 26  7  0  -1906.7  2046002.4  0.5 10 0 2606 3442 1735
[01]  06(G07)  7  7  7  0    416.6  2045999.4  1.0 10 0 2255 4093 2291
[02]  07(G08)  7  7  7  0   1476.2  2045998.0  1.0  5 0 1362 1984  696
[03]  10(G11)  1 36 11  0   -432.3  2046000.7  0.9  1 0 2494 2506  539
[04]  16(G17)  1 26  8  0  -3050.2  2046004.2  0.8  1 0  917 1323  872
[05]  17(G18)  1 29 13  0    -24.6  2046000.0  0.6  1 0 2744 3277 1656
[06]  21(G22)  1 22  7  0  -3042.4  2046005.0  0.5  1 0  400  792  397
[08]  27(G28)  1  7  7  0  -2943.0  2046005.7  0.1  1 0  208  910 1682
[09]  29(G30)  1  7  7  0  -1925.0  2046004.1 -0.1  1 0 1522 4743 4330
[16]  37(B01)  1 10 18  1  -1185.0  4092003.1  0.1  1 0  350 1097 1391
[17]  38(B02)  1 10 10  1  -1222.0  4092004.0 -0.1  1 0  153  399 1313
[18]  39(B03)  1 18 10  0  -1451.0  4092005.8  0.1  1 0  199 1249 1723
[19]  40(B04)  1 10 10  0  -1196.0  4092005.5 -0.0  1 0  311  805 1336
[20]  41(B05)  1 10 10  0  -1250.0  4092003.7 -0.1  1 0  617  252  434
ch21 satid=43 freq=-1396 acq ok!
ch22 satid=44 freq=-1602 acq ok!
ch24 satid=46 freq=-1656 acq ok!
ch25 satid=49 freq=-2041 acq ok!
$GNGGA,000000.000,,,,,0,00,,,M,,,,0000*2B
$GNRMC,000000.000,A,,,,,,,060180,,*29
$GPGSA,A,1,,,,,,,,,,,,,,,*1E
$BDGSA,A,1,,,,,,,,,,,,,,,*0F
$GLGSA,A,1,,,,,,,,,,,,,,,*02
$GPGSV,1,1,01,01,00,000,26*4D
$B3CN0,0,0,0,0,0,0,0,0,0,0,0,0,0,0*4C
---00000003--- Acq_st=3 0  2019-4-24 7:28:10 
[00]  00(G01)  7 44  7  0  -1905.3  2046002.4 -0.0  2 0 2769 3730 1823
[01]  06(G07)  7 46  7  0    418.0  2045999.4 -0.0  2 0 2859 3882 1485
[02]  07(G08)  7 41  7  0   1478.8  2045998.0  0.0  2 0 1045 1934 1361
[03]  10(G11)  7 40  7  0   -429.0  2046000.4  0.1  2 0 2423 3026 1728
[04]  16(G17)  7 30  7  0  -3057.4  2046003.8  0.2  5 0 1637 1676  328
[05]  17(G18)  7 31  7  0    -19.8  2045999.9  0.4  5 0 2641 3933 1675
[06]  21(G22)  7 25  7  0  -3038.9  2046003.8  0.7 10 0 1505 1516  819
[08]  27(G28)  1 31  7  0  -2940.5  2046003.8  0.9  1 0 1643 1910  828
[09]  29(G30)  1 29  7  0  -1848.1  2046002.2  1.0  1 0 3767 4623 1898
[16]  37(B01)  1 17 14  1  -1107.4  4092004.2  0.6  1 0 1836 1068  178
[17]  38(B02)  1 18 23  0  -1145.2  4092004.5  0.6  1 0 1054 1553  649
[18]  39(B03)  1 10 10  0  -1619.8  4092003.2  0.5  1 0 1184 1058  615
[19]  40(B04)  1 20 23  0  -1122.3  4092003.0  0.5  1 0 1004  735  516
[20]  41(B05)  1 20 22  0  -1156.9  4092005.3  0.6  1 0  202  983  991
[21]  43(B07)  1  7  7  0  -1319.1  4092004.6  0.0  1 0 1634 2655 1182
[22]  44(B08)  1  7  7  0  -1778.7  4092005.6  0.5  1 0 1789 2314  802
[24]  46(B10)  1  8  7  0  -1581.0  4092004.9 -0.0  1 0 1499 2597 1393
[25]  49(B13)  1  7  7  0  -2041.0  4092007.6  0.0  1 0  212  924 1771
$GNGGA,000000.000,,,,,0,00,,,M,,,,0000*2B
$GNRMC,000000.000,A,,,,,,,060180,,*29
$GPGSA,A,1,,,,,,,,,,,,,,,*1E
$BDGSA,A,1,,,,,,,,,,,,,,,*0F
$GLGSA,A,1,,,,,,,,,,,,,,,*02
$GPGSV,2,1,07,01,00,000,44,07,00,000,46,08,00,000,41,11,00,000,40*70
$GPGSV,2,2,07,17,00,000,30,18,00,000,31,22,00,000,25*47
$B3CN0,0,0,0,0,0,0,0,0,0,0,0,0,0,0*4C
---00000004--- Acq_st=3 0  2019-4-24 7:28:11 
[00]  00(G01)  7 43  7  0  -1906.1  2046002.4  0.1  2 0 2358 3422 1821
[01]  06(G07)  7 45  7  0    419.8  2045999.4  0.0  2 0 3099 4017 1799
[02]  07(G08)  7 40  7  0   1480.7  2045998.0 -0.0  2 0 1179 1621  320
[03]  10(G11)  7 43  7  0   -428.2  2046000.4 -0.0  2 0 2190 3047 1331
[04]  16(G17)  7 39  7  0  -3047.7  2046003.8 -0.0  2 0 2173 2044 1041
[05]  17(G18)  7 44 16  0    -14.0  2046000.0  0.0  2 0 1310 2829 1575
[06]  21(G22)  7 37  7  0  -3038.9  2046003.8 -0.0  2 0 1114 1625 1155
[08]  27(G28)  7 37  7  0  -2942.4  2046003.7  0.1  2 0 1325 1936 1482
[09]  29(G30)  7 36  7  0  -1844.0  2046002.3  0.2  2 0 3491 5432 2895
[16]  37(B01)  7 31 23  0  -1117.0  4092002.5  0.2  2 0 1580  787  200
[17]  38(B02)  7 37 21  0  -1143.8  4092002.8 -0.8  2 0 1110  629  390
[18]  39(B03)  1 10 10  0  -1623.8  4092003.0  0.4  1 0 1294 1530  850
[19]  40(B04)  7 37 22  0  -1125.0  4092002.8 -0.7  2 0 1149  601  272
[20]  41(B05)  7 36 24  0  -1152.7  4092002.7 -0.9  2 0 1591 1182  227
[21]  43(B07)  7 25  7  0  -1318.2  4092003.3  0.3 10 0 1970 1780  775
[22]  44(B08)  7 24  7  0  -1775.2  4092004.5  0.4 10 0 1826 2259 1071
[24]  46(B10)  7 18  7  0  -1578.2  4092004.0  0.4 10 0 1780 2137  613
[25]  49(B13)  1  7 11  0  -2219.2  4092006.1  0.1  1 0 1088 2145  806
ch26 satid=63 freq=1794 acq ok!
ch27 satid=65 freq=-2770 acq ok!
ch28 satid=66 freq=-403 acq ok!
$GNGGA,000000.000,,,,,0,00,,,M,,,,0000*2B
$GNRMC,000000.000,A,,,,,,,060180,,*29
$GPGSA,A,1,,,,,,,,,,,,,,,*1E
$BDGSA,A,1,,,,,,,,,,,,,,,*0F
$GLGSA,A,1,,,,,,,,,,,,,,,*02
$GPGSV,3,1,09,01,00,000,43,07,00,000,45,08,00,000,40,11,00,000,43*79
$GPGSV,3,2,09,17,00,000,39,18,00,000,44,22,00,000,37,28,00,000,36*7F
$GPGSV,3,3,09,30,00,000,36*46
$BDGSV,2,1,07,01,00,000,31,02,00,000,37,04,00,000,37,05,00,000,36*69
$BDGSV,2,2,07,07,00,000,25,08,00,000,24,10,00,000,18*59
$B3CN0,0,0,0,0,0,0,0,0,0,0,0,0,0,0*4C
---00000005--- Acq_st=3 0  2019-4-24 7:28:12 
[00]  00(G01)  7 43  9  0  -1902.4  2046002.4 -0.0  2 0 2705 3231 1037
[01]  06(G07)  7 45  7  0    419.8  2045999.4 -0.0  2 0 2311 3956 2332
[02]  07(G08)  7 40  7  0   1477.0  2045998.0  0.0  2 0  715 1412  542
[03]  10(G11)  7 42  8  0   -429.1  2046000.5 -0.1  2 0 2250 2760 1234
[04]  16(G17)  7 38  7  0  -3050.8  2046003.9  0.0  2 0 1596 2002 1146
[05]  17(G18)  7 44 19  0    -14.5  2046000.0 -0.0  2 0 1920 2929 1153
[06]  21(G22)  7 38  9  0  -3033.2  2046003.8  0.2  2 0  984 1260  449
[08]  27(G28)  7 39  7  0  -2943.7  2046003.7  0.1  2 0  611 1207  241
[09]  29(G30)  7 45  7  0  -1844.2  2046002.3  0.0  2 0 3398 5618 2513
[16]  37(B01)  7 35 10  0  -1114.0  4092002.7 -0.3  2 0  931  512  124
[17]  38(B02)  f 38 22  0  -1146.5  4092002.8 -0.3  2 0 1484 1365  494
[18]  39(B03)  1 10 10  0  -1627.2  4092002.7  0.4  1 0  965 1355  595
[19]  40(B04)  f 36 22  0  -1112.7  4092002.8  0.6  2 0 1255 1266  490
[20]  41(B05)  f 37 21  0  -1154.1  4092002.7  0.5  2 0 1619 1058  431
[21]  43(B07)  7 43  7  0  -1318.0  4092003.3 -0.1  2 0 1709 1810  849
[22]  44(B08)  7 43  9  0  -1772.2  4092004.5  0.1  2 0 1622 2226  787
[24]  46(B10)  7 44  7  0  -1577.8  4092004.0  0.1  2 0 1429 2192  655
[25]  49(B13)  7 35  7  0  -2213.6  4092005.7  0.1  5 0 1656 2053  685
[26]  63(B27)  1  7  7  0   1794.0  4091996.5  0.0  1 0  456  205  689
[27]  65(B29)  1  7  7  0  -2770.0  4092008.6 -0.1  1 0  327  434 1252
[28]  66(B30)  1  7  7  0   -403.0  4092003.1 -0.1  1 0  442 2822 3568
ch32 satid=78 freq=2000 acq ok!
ch33 satid=79 freq=-1000 acq ok!
$GNGGA,072813.944,2944.9096,N,10633.0879,E,1,09,1.0,330.4,M,,,,0000*17
$GNRMC,072813.944,A,2944.9096,N,10633.0879,E,0.00,0.00,090180,,*17
$GPGSA,A,3,01,07,08,11,17,18,22,28,30,,,,1.7,1.0,1.4*38
$BDGSA,A,3,,,,,,,,,,,,,1.7,1.0,1.4*21
$GLGSA,A,3,,,,,,,,,,,,,1.7,1.0,1.4*2C
$GPGSV,3,1,09,01,00,000,43,07,00,000,45,08,00,000,40,11,00,000,42*78
$GPGSV,3,2,09,17,00,000,38,18,00,000,44,22,00,000,38,28,00,000,39*7E
$GPGSV,3,3,09,30,00,000,45*42
$BDGSV,2,1,08,01,00,000,34,02,00,000,38,04,00,000,36,05,00,000,37*6C
$BDGSV,2,2,08,07,00,000,43,08,00,000,43,10,00,000,44,13,00,000,34*6B
$B3CN0,0,0,0,0,0,0,0,0,0,0,0,0,0,0*4C
---00000006--- Acq_st=3 0  2000-1-9 7:28:14 
[00]  00(G01)  f 43  7  0  -1901.5  2046002.4 -0.0  2 0 1880 2990 2146
[01]  06(G07)  f 45  7  0    423.1  2045999.4 -0.0  2 0 2669 3861 1452
[02]  07(G08)  f 39  7  0   1480.3  2045998.0 -0.0  2 0 1046 1587  452
[03]  10(G11)  f 43  7  0   -427.8  2046000.5 -0.0  2 0 1049 1945 1109
[04]  16(G17)  f 40  7  0  -3047.1  2046003.9  0.0  2 0 1480 2134 1287
[05]  17(G18)  f 44 17  0    -14.3  2046000.0  0.0  2 0 2728 3621 1846
[06]  21(G22)  f 39  7  0  -3037.0  2046003.8 -0.2  2 0  965 1952  931
[08]  27(G28)  f 39  7  0  -2939.0  2046003.8  0.1  2 0 1260 1691  662
[09]  29(G30)  f 45  7  0  -1841.2  2046002.3 -0.0  2 0 3696 5603 2978
[16]  37(B01)  7 34 10  0  -1114.1  4092002.6  0.4  2 0 1622  649  231
[17]  38(B02)  f 37 25  0  -1145.2  4092002.7 -0.1  2 0  946 1325  510
[18]  39(B03)  1 36 10  0  -1624.1  4092003.4  0.5  1 0  689 1299  964
[19]  40(B04)  f 38 20  0  -1116.3  4092002.8 -0.7  2 0  553  643  519
[20]  41(B05)  f 38 24  0  -1156.9  4092003.0 -0.2  2 0  882 1236  672
[21]  43(B07)  7 43  8  0  -1318.0  4092003.3 -0.0  2 0 1331 1882  779
[22]  44(B08)  7 42  7  0  -1774.8  4092004.5  0.0  2 0 1419 1774  890
[24]  46(B10)  7 42  7  0  -1575.0  4092004.0 -0.0  2 0 1659 1954  979
[25]  49(B13)  7 41  7  0  -2210.6  4092005.7 -0.0  2 0 1602 1920  490
[26]  63(B27)  1 26  7  0   1622.3  4091998.4  0.2  1 0  941 2101 1379
[27]  65(B29)  1  7  7  0  -2944.2  4092009.1  0.2  1 0 1578 2951 1330
[28]  66(B30)  1  7  7  0   -328.8  4092000.8  0.5  1 0 2653 3829 1553
[32]  78(N-3)  1 28  7  0   2000.0  1022000.8  0.0  1 0   836 2490 2110
[33]  79(N-2)  1 13 12  0  -1000.0  1022002.9 -0.1  1 0   456 1149 1466
[34]  81(N00)  1  7  7  0  -6168.9  1022005.0 -0.0  1 0   141  382  782
[49]  38(B02)  1 10 14  1  -1026.2 20460018.6  0.0  1 0  602  247  607
[51]  40(B04)  1 23 22  0   -800.4 20460021.9 -0.1  1 0  210  369  623
[52]  41(B05)  1 26 17  0   -513.0 20460017.0 -0.0  1 0  407  423  248
ch36 satid=83 freq=0 acq ok!
---00000007--- Acq_st=7 0  2000-1-9 7:28:15 
[00]  00(G01)  f 44  7  0  -1897.5  2046002.4 -0.0  2 0 1794 3036 1833
[01]  06(G07)  f 45  7  0    425.4  2045999.4 -0.0  2 0 2603 4218 2543
[02]  07(G08)  f 39  7  0   1486.9  2045998.0  0.0  2 0 1010 1526  660
[03]  10(G11)  f 43  7  0   -423.8  2046000.5 -0.0  2 0 1489 2687 1099
[04]  16(G17)  f 39  7  0  -3049.4  2046003.9 -0.1  2 0  477 1295  893
[05]  17(G18)  f 43 19  0    -10.8  2046000.0 -0.1  2 0 2048 3498 1577
[06]  21(G22)  f 39  7  0  -3032.3  2046003.9 -0.0  2 0  980 1431  840
[08]  27(G28)  f 39  7  0  -2936.5  2046003.7  0.0  2 0  839 1745  765
[09]  29(G30)  f 45  7  0  -1839.0  2046002.3 -0.0  2 0 3445 4796 2321
[16]  37(B01) 1f 37 10  0  -1105.5  4092002.7 -0.9  2 0 1044  464  740
[17]  38(B02) 1f 38 24  0  -1142.5  4092002.9  0.1  2 0 1490 1588  865
[19]  40(B04) 1f 39 17  0  -1116.3  4092002.6 -0.3  2 0 1398  987   57
[20]  41(B05) 1f 38 10  0  -1149.9  4092002.9 -0.3  2 0  914  517  347
[21]  43(B07)  7 42  7  0  -1313.2  4092003.3  0.0  2 0 2077 2290 1015
[22]  44(B08)  7 42  7  0  -1771.8  4092004.5  0.0  2 0 1135 1646  871
[24]  46(B10)  7 43  7  0  -1573.5  4092004.0  0.0  2 0 1623 2113 1125
[25]  49(B13)  7 41  7  0  -2207.4  4092005.7  0.0  2 0 1123 1533  653
[26]  63(B27)  7 32  7  0   1623.4  4091995.6  0.0  5 0 1241 1964 1374
[27]  65(B29)  7 29  7  0  -2941.1  4092007.6  0.2 10 0 1725 2342 1229
[28]  66(B30)  7 29  7  0   -323.7  4092000.8  0.1 10 0 2295 3106 1270
[32]  78(N-3)  1 33 18  0   2019.8  1021998.6  1.0  1 0  1748 2451 1165
[33]  79(N-2)  1 26 16  0  -1091.0  1022000.7  1.0  1 0  1349 1766 1158
[34]  81(N00)  1 25 16  0  -5083.2  1022003.6  0.8  1 0   553  612   41
[35]  82(N01)  1 28 17  0   2538.6  1021998.7  0.6  1 0   587  606  320
[36]  83(N02)  1 29 16  0   -119.6  1022001.2  0.6  1 0  1641 2131  798
[49]  38(B02)  1 10 10  0  -1119.8 20460020.5 -0.0  1 0  197  158  194
[51]  40(B04)  1 19 21  0   -477.0 20460018.7  0.1  1 0   52  576  554
[52]  41(B05)  1 24 22  1   -662.4 20460015.9  0.2  1 0 1121 1109  826
calculate DOP row 0,[  0.22  -0.97  -0.06   1.00]
calculate DOP row 1,[ -0.19  -0.82  -0.54   1.00]
calculate DOP row 2,[  0.60  -0.75  -0.28   1.00]
calculate DOP row 3,[  0.44  -0.64  -0.63   1.00]
calculate DOP row 4,[  0.68  -0.39  -0.62   1.00]
calculate DOP row 5,[  0.63   0.07  -0.78   1.00]
calculate DOP row 6,[ -0.69  -0.73   0.00   1.00]
calculate DOP row 7,[  0.93  -0.19   0.32   1.00]
calculate DOP row 8,[ -0.48  -0.36  -0.80   1.00]
DOP:  0.51   1.50   0.93   0.99
Refix G01: 2, 286112.931766, -1898
Refix G03: 2, 286112.916624, -3485
Refix G07: 2, 286112.931665, 424
Refix G08: 2, 286112.923207, 1481
Refix G09: 2, 286112.916371, 1335
Refix G11: 2, 286112.932059, -422
Refix G13: 2, 286112.916439, -1699
Refix G17: 2, 286112.922468, -3047
Refix G18: 2, 286112.930508, -10
Refix G22: 2, 286112.918305, -3033
Refix G28: 2, 286112.924585, -2937
Refix G30: 2, 286112.931242, -1838
$GNGGA,072815.000,2944.9084,N,10633.0904,E,1,12,1.0,330.3,M,,,,0000*1D
$GNRMC,072815.000,A,2944.9084,N,10633.0904,E,0.04,0.00,090180,,*14
$GPGSA,A,3,01,07,08,11,17,18,22,28,30,,,,1.7,1.0,1.4*38
$BDGSA,A,3,01,02,04,,,,,,,,,,1.7,1.0,1.4*26
$GLGSA,A,3,,,,,,,,,,,,,1.7,1.0,1.4*2C
$GPGSV,3,1,09,01,00,000,44,07,00,000,45,08,00,000,39,11,00,000,43*70
$GPGSV,3,2,09,17,00,000,39,18,00,000,43,22,00,000,39,28,00,000,39*79
$GPGSV,3,3,09,30,00,000,45*42
$BDGSV,3,1,11,01,00,000,37,02,00,000,38,04,00,000,39,05,00,000,38*66
$BDGSV,3,2,11,07,00,000,42,08,00,000,42,10,00,000,43,13,00,000,41*67
$BDGSV,3,3,11,27,00,000,32,29,00,000,29,30,00,000,29*54
$B3CN0,0,0,0,0,0,0,0,0,0,0,0,0,0,0*4C
---00000008--- Acq_st=3 0  2000-1-9 7:28:15 
[00]  00(G01)  f 43  7  0  -1898.5  2046002.4  0.0  2 0 2518 3971 1788
[01]  06(G07)  f 45  7  0    426.9  2045999.4  0.0  2 0 3019 4299 2001
[02]  07(G08)  f 40  7  0   1485.8  2045998.0 -0.1  2 0 1421 1878  747
[03]  10(G11)  f 43  7  0   -421.9  2046000.5 -0.0  2 0 1696 3164 1864
[04]  16(G17)  f 40  7  0  -3044.0  2046003.9 -0.0  2 0  802 1135  219
[05]  17(G18)  f 43 19  0    -10.9  2045999.9  0.0  2 0 2587 3090 1240
[06]  21(G22)  f 39  7  0  -3031.6  2046003.8 -0.0  2 0  963 1120  462
[08]  27(G28)  f 39  7  0  -2933.8  2046003.7  0.1  2 0 1141 1479  383
[09]  29(G30)  f 45  7  0  -1837.2  2046002.3  0.0  2 0 2863 4858 2107
[16]  37(B01) 1f 37 17  0  -1103.8  4092002.6  0.6  2 0 1038  413  507
[17]  38(B02) 1f 40 25  0  -1143.5  4092002.7  0.4  2 0  960  973  374
[19]  40(B04) 1f 38 23  0  -1114.3  4092002.7  0.1  2 0 1240 1126  463
[20]  41(B05) 1f 37 24  0  -1149.2  4092002.6 -0.7  2 0 1083  803  203
[21]  43(B07) 1f 42  7  0  -1315.1  4092003.3  0.0  2 0 1608 1880  753
[22]  44(B08) 1f 43  7  0  -1769.3  4092004.5  0.0  2 0 1772 2146  711
[24]  46(B10) 1f 43  9  0  -1569.2  4092004.0  0.0  2 0 1937 2422 1150
[25]  49(B13) 1f 41  7  0  -2209.2  4092005.7 -0.0  2 0 1585 1715  622
[26]  63(B27)  7 41  7  0   1629.1  4091995.6  0.0  2 0 1106 1196  517
[27]  65(B29)  7 44  7  0  -2936.8  4092007.6  0.0  2 0 1854 2705 1354
[28]  66(B30)  7 46  7  0   -319.3  4092000.7  0.0  2 0 2496 3815 1725
[32]  78(N-3)  1 34 17  0   2022.2  1021998.5  1.0  1 0  1575 2524 1013
[33]  79(N-2)  1 28 16  0  -1087.9  1022000.4  1.0  1 0  1157 2218 1192
[34]  81(N00)  1 28 17  0  -5083.5  1022002.9  0.9  1 0   473  773  488
[35]  82(N01)  1 29 16  0   2539.0  1021998.0  0.9  1 0   624  439   63
[36]  83(N02)  1 34 19  0   -117.2  1021999.7  1.0  1 0  1726 2299  969
[48]  37(B01)  1 10 10  1  -1224.3 20460019.0  0.1  1 0  249   36  425
[49]  38(B02)  1 10 10  1  -1445.0 20460023.4 -0.0  1 0   52   99  106
[51]  40(B04)  1 24 24  1    -60.8 20460024.7 -0.2  1 0  239  257  285
[52]  41(B05)  1 27 10  0  -1030.4 20460019.3  0.1  1 0  560  321  555
calculate DOP row 0,[  0.22  -0.97  -0.06   1.00]
calculate DOP row 1,[ -0.19  -0.82  -0.54   1.00]
calculate DOP row 2,[  0.44  -0.64  -0.63   1.00]
calculate DOP row 3,[  0.68  -0.39  -0.62   1.00]
calculate DOP row 4,[  0.37  -0.90  -0.23   0.00]
calculate DOP row 5,[  0.20  -0.64  -0.74   0.00]
calculate DOP row 6,[  0.60  -0.75  -0.28   1.00]
calculate DOP row 7,[  0.61  -0.60  -0.51   0.00]
calculate DOP row 8,[  0.11  -0.98   0.18   0.00]
calculate DOP row 9,[  0.63   0.07  -0.78   1.00]
calculate DOP row 10,[ -0.69  -0.73   0.00   1.00]
calculate DOP row 11,[ -0.16  -0.98   0.10   0.00]
calculate DOP row 12,[  0.93  -0.19   0.32   1.00]
calculate DOP row 13,[ -0.48  -0.36  -0.80   1.00]
calculate DOP row 14,[  0.97  -0.23   0.07   0.00]
calculate DOP row 15,[  0.81  -0.58   0.06   0.00]
DOP:  0.22   0.22   0.47   0.23
Refix G01: 2, 286113.931767, -1896
Refix G03: 2, 286113.916626, -3483
Refix G07: 2, 286113.931665, 426
Refix G08: 2, 286113.923206, 1483
Refix G09: 2, 286113.916370, 1336
Refix G11: 2, 286113.932059, -421
Refix G13: 2, 286113.916441, -1696
Refix G17: 2, 286113.922470, -3045
Refix G18: 2, 286113.930508, -8
Refix G22: 2, 286113.918307, -3031
Refix G28: 2, 286113.924587, -2935
Refix G30: 2, 286113.931243, -1836
$GNGGA,072816.000,2944.9068,N,10633.0906,E,1,16,0.8,322.4,M,,,,0000*17
$GNRMC,072816.000,A,2944.9068,N,10633.0906,E,0.25,0.00,090180,,*14
$GPGSA,A,3,01,07,08,11,17,18,22,28,30,,,,1.0,0.8,0.5*36
$BDGSA,A,3,01,02,04,07,08,10,13,,,,,,1.0,0.8,0.5*24
$GLGSA,A,3,,,,,,,,,,,,,1.0,0.8,0.5*22
$GPGSV,3,1,12,01,65,118,43,07,63,188,45,08,28,045,40,11,72,052,43*75
$GPGSV,3,2,12,17,25,254,40,18,52,064,43,22,13,121,39,28,35,316,39*7E
$GPGSV,3,3,12,30,64,283,45,03,06,141,00,09,05,201,00,13,06,308,00*72
$BDGSV,3,1,12,01,40,125,37,02,46,218,40,04,23,109,38,05,00,000,37*66
$BDGSV,3,2,12,07,65,080,42,08,72,161,43,10,71,001,43,13,48,195,41*6B
$BDGSV,3,3,12,27,23,042,41,29,40,244,44,30,73,356,46,03,55,171,00*60
$B3CN0,0,0,0,0,0,0,0,0,0,0,0,0,0,0*4C
---00000009--- Acq_st=3 0  2000-1-9 7:28:16 
[00]  00(G01)  f 43  7  0  -1892.6  2046002.4  0.0  2 0 1702 3365 1662
[01]  06(G07)  f 45  7  0    430.5  2045999.4  0.0  2 0 3082 4542 2100
[02]  07(G08)  f 40  7  0   1488.1  2045998.0  0.0  2 0 1879 1852  627
[03]  10(G11)  f 43  7  0   -418.7  2046000.5  0.0  2 0 1705 2464 1063
[04]  16(G17)  f 39  7  0  -3042.5  2046003.9 -0.1  2 0 1330 1687  633
[05]  17(G18)  f 43 20  0     -5.9  2045999.9  0.0  2 0 1969 2756 1371
[06]  21(G22)  f 39  7  0  -3035.0  2046003.8 -0.2  2 0  906 1349  670
[08]  27(G28)  f 39  7  0  -2930.6  2046003.7 -0.1  2 0 1402 1882 1130
[09]  29(G30)  f 46  7  0  -1832.5  2046002.3  0.0  2 0 3121 5156 2192
[16]  37(B01) 1f 38 10  0  -1098.5  4092002.7 -0.1  2 0 1210 1294  378
[17]  38(B02) 1f 40 36  0  -1135.8  4092002.8  0.7  2 0 1175 1452  697
[19]  40(B04) 1f 39 10  0  -1111.7  4092002.8 -0.1  2 0 1550 1092  144
[20]  41(B05) 1f 37 24  0  -1141.3  4092003.0  0.9  2 0  886 1436  850
[21]  43(B07) 1f 42  7  0  -1312.3  4092003.3 -0.1  2 0 1605 2104  722
[22]  44(B08) 1f 42  9  0  -1768.6  4092004.5 -0.1  2 0 1911 2214  655
[24]  46(B10) 1f 42  7  0  -1568.8  4092004.0  0.0  2 0 1809 2495 1326
[25]  49(B13) 1f 41  7  0  -2208.7  4092005.6  0.1  2 0 1387 1825  454
[26]  63(B27)  7 42  7  0   1632.7  4091995.6  0.1  2 0 1517 2042 1250
[27]  65(B29)  7 43  7  0  -2933.6  4092007.6 -0.0  2 0 2450 2821 1159
[28]  66(B30)  7 45  9  0   -317.3  4092000.7 -0.0  2 0 2789 3875 1573
[32]  78(N-3)  f 32  7  0   2027.1  1021998.7  0.3  5 0  1582 2945 1504
[33]  79(N-2)  7 45 16  0  -1081.4  1022000.6 -0.2  2 0  1274 1949 1071
[34]  81(N00)  7 34 12  0  -5080.0  1022003.2  0.5  5 0   299  735  497
[35]  82(N01)  7 29  7  0   2543.4  1021998.3  0.3  5 0   752  771  333
[36]  83(N02)  7 29  7  0   -110.5  1022000.0  0.6  5 0  1177 2298 1370
[48]  37(B01)  1 16 10  1  -1213.8 20460021.5 -0.0  1 0  395  396  249
[49]  38(B02)  7 10 20  1  -2061.5 20460031.4 -0.0  2 0  706  585  415
[51]  40(B04)  1 22 23  0    154.1 20460021.5  0.0  1 0  615   16  709
[52]  41(B05)  1 23 20  0   -179.8 20460022.2  0.1  1 0  592  548  833
[53]  43(B07)  1  7  7  0  -1121.2 20460021.2  0.0  1 0  893  822  280
[54]  44(B08)  1  7  7  0  -1323.3 20460026.8 -0.1  1 0  207  564  886
[56]  46(B10)  1  7  7  0  -1242.6 20460025.1  0.1  1 0  463  429  301
[57]  49(B13)  1  8  7  0  -1147.0 20460035.2 -0.1  1 0  486  559  223
ch18 satid=39 freq=-1000 acq ok!
calculate DOP row 0,[ -0.19  -0.82  -0.54   1.00]
calculate DOP row 1,[  0.22  -0.97  -0.06   1.00]
calculate DOP row 2,[  0.60  -0.75  -0.28   1.00]
calculate DOP row 3,[  0.44  -0.64  -0.63   1.00]
calculate DOP row 4,[  0.68  -0.39  -0.62   1.00]
calculate DOP row 5,[  0.61  -0.60  -0.51   0.00]
calculate DOP row 6,[  0.37  -0.90  -0.23   0.00]
calculate DOP row 7,[  0.20  -0.64  -0.74   0.00]
calculate DOP row 8,[  0.11  -0.98   0.18   0.00]
calculate DOP row 9,[  0.63   0.07  -0.78   1.00]
calculate DOP row 10,[ -0.48  -0.36  -0.80   1.00]
calculate DOP row 11,[ -0.16  -0.98   0.10   0.00]
calculate DOP row 12,[  0.97  -0.23   0.07   0.00]
calculate DOP row 13,[ -0.69  -0.73   0.00   1.00]
calculate DOP row 14,[  0.93  -0.19   0.32   1.00]
calculate DOP row 15,[  0.81  -0.58   0.06   0.00]
DOP:  0.22   0.22   0.47   0.23
Refix G01: 2, 286114.931768, -1893
Refix G03: 2, 286114.916628, -3481
Refix G07: 2, 286114.931664, 429
Refix G08: 2, 286114.923205, 1486
Refix G09: 2, 286114.916369, 1338
Refix G11: 2, 286114.932060, -417
Refix G13: 2, 286114.916442, -1694
Refix G17: 2, 286114.922471, -3043
Refix G18: 2, 286114.930508, -4
Refix G22: 2, 286114.918309, -3028
Refix G28: 2, 286114.924589, -2933
Refix G30: 2, 286114.931244, -1833
$GNGGA,072817.000,2944.9065,N,10633.0906,E,1,16,0.8,322.9,M,,,,0000*16
$GNRMC,072817.000,A,2944.9065,N,10633.0906,E,0.44,0.00,090180,,*1F
$GPGSA,A,3,01,07,08,11,17,18,22,28,30,,,,1.0,0.8,0.5*36
$BDGSA,A,3,01,02,04,07,08,10,13,,,,,,1.0,0.8,0.5*24
$GLGSA,A,3,,,,,,,,,,,,,1.0,0.8,0.5*22
$GPGSV,3,1,12,01,65,118,43,07,63,188,45,08,28,045,40,11,72,052,43*75
$GPGSV,3,2,12,17,25,254,39,18,52,064,43,22,13,121,39,28,35,316,39*70
$GPGSV,3,3,12,30,64,283,46,03,06,141,00,09,05,201,00,13,06,308,00*71
$BDGSV,3,1,12,01,40,125,38,02,46,218,40,04,23,109,39,05,00,000,37*68
$BDGSV,3,2,12,07,65,080,42,08,72,161,42,10,71,001,42,13,48,195,41*6B
$BDGSV,3,3,12,27,23,042,42,29,40,244,43,30,73,356,45,03,55,171,00*67
$B3CN0,0,0,0,0,0,0,0,0,0,0,0,0,0,0*4C
---00000010--- Acq_st=3 0  2000-1-9 7:28:17 
[00]  00(G01)  f 44  7  0  -1896.0  2046002.4 -0.0  2 0 1697 3108 1453
[01]  06(G07)  f 45  7  0    425.6  2045999.4  0.0  2 0 2081 3719 2406
[02]  07(G08)  f 40  8  0   1480.1  2045998.0  0.0  2 0  884 1326  783
[03]  10(G11)  f 43 10  0   -421.4  2046000.5 -0.0  2 0 1543 2638 1660
[04]  16(G17)  f 40  7  0  -3047.4  2046003.9  0.1  2 0 1141 1629 1023
[05]  17(G18)  f 43 18  0     -5.5  2045999.9  0.0  2 0 2629 2995  709
[06]  21(G22)  f 39  7  0  -3035.3  2046003.9  0.1  2 0 1673 1753  549
[08]  27(G28)  f 39  7  0  -2938.4  2046003.8 -0.0  2 0  906 1582  809
[09]  29(G30)  f 45  7  0  -1838.2  2046002.3 -0.0  2 0 2859 4470 1826
[16]  37(B01) 1f 39 26  0  -1100.9  4092002.6  0.1  2 0 1682 1263  350
[17]  38(B02) 1f 39 28  0  -1137.6  4092002.8  0.8  2 0  991  875  650
[18]  39(B03)  1 42 28  0  -1122.6  4092003.9  1.0  1 0 1218 2404  723
[19]  40(B04) 1f 39 21  0  -1118.4  4092002.7 -0.5  2 0 1350 1566  609
[20]  41(B05) 1f 38 24  0  -1151.1  4092003.0  0.5  2 0  804  795  541
[21]  43(B07) 1f 42  7  0  -1314.9  4092003.3 -0.0  2 0 1973 1981  933
[22]  44(B08) 1f 42  7  0  -1766.5  4092004.5  0.0  2 0 1765 2092  903
[24]  46(B10) 1f 43  7  0  -1575.8  4092004.0 -0.0  2 0 1589 2273 1173
[25]  49(B13) 1f 41  7  0  -2206.8  4092005.6 -0.1  2 0 1086 1072  374
[26]  63(B27)  7 41  7  0   1629.9  4091995.6 -0.1  2 0 1665 1382  475
[27]  65(B29)  7 43  7  0  -2939.1  4092007.6 -0.0  2 0 2370 2535 1014
[28]  66(B30)  7 44  7  0   -320.7  4092000.7 -0.0  2 0 3386 4150 1500
[32]  78(N-3)  f 38  7  0   2025.2  1021998.7  0.0  2 0  1412 2695 1169
[33]  79(N-2)  7 45 18  0  -1084.5  1022000.7  0.0  2 0  1277 2010 1097
[34]  81(N00)  7 37 15  0  -5082.8  1022003.3  0.3  2 0   418  429  389
[35]  82(N01)  7 37 16  0   2538.9  1021998.3 -0.2  2 0   323  364  535
[36]  83(N02)  7 47 16  0   -114.3  1022000.1 -0.0  2 0   799 2117 1244
[48]  37(B01)  1 18 13  0  -1050.5 20460018.5 -0.1  1 0  609  531  443
[49]  38(B02)  7 19 20  0  -2383.5 20460038.1 -0.0  2 0  263  377  543
[53]  43(B07)  1  7  7  0  -1419.7 20460022.0  0.0  1 0  515  193  688
[54]  44(B08)  1  9  8  0   -799.8 20460027.8 -0.0  1 0  109  203  167
[56]  46(B10)  1  7  7  0  -1681.6 20460024.1  0.2  1 0  516  942  579
[57]  49(B13)  1  7  9  0  -1070.6 20460033.2 -0.1  1 0  659  487  516
calculate DOP row 0,[  0.22  -0.97  -0.06   1.00]
calculate DOP row 1,[ -0.19  -0.82  -0.54   1.00]
calculate DOP row 2,[  0.60  -0.75  -0.28   1.00]
calculate DOP row 3,[  0.44  -0.64  -0.63   1.00]
calculate DOP row 4,[  0.68  -0.39  -0.62   1.00]
calculate DOP row 5,[  0.20  -0.64  -0.74   0.00]
calculate DOP row 6,[  0.61  -0.60  -0.51   0.00]
calculate DOP row 7,[  0.37  -0.90  -0.23   0.00]
calculate DOP row 8,[  0.11  -0.98   0.18   0.00]
calculate DOP row 9,[  0.63   0.07  -0.78   1.00]
calculate DOP row 10,[ -0.69  -0.73   0.00   1.00]
calculate DOP row 11,[ -0.16  -0.98   0.10   0.00]
calculate DOP row 12,[  0.93  -0.19   0.32   1.00]
calculate DOP row 13,[ -0.48  -0.36  -0.80   1.00]
calculate DOP row 14,[  0.81  -0.58   0.06   0.00]
calculate DOP row 15,[  0.97  -0.23   0.07   0.00]
DOP:  0.22   0.22   0.47   0.23
Refix G01: 2, 286115.931769, -1896
Refix G03: 2, 286115.916630, -3484
Refix G07: 2, 286115.931664, 426
Refix G08: 2, 286115.923204, 1483
Refix G09: 2, 286115.916369, 1336
Refix G11: 2, 286115.932060, -420
Refix G13: 2, 286115.916443, -1694
Refix G17: 2, 286115.922473, -3044
Refix G18: 2, 286115.930508, -8
Refix G22: 2, 286115.918311, -3032
Refix G28: 2, 286115.924590, -2936
Refix G30: 2, 286115.931245, -1835
$GNGGA,072818.000,2944.9063,N,10633.0907,E,1,16,0.8,323.0,M,,,,0000*16
$GNRMC,072818.000,A,2944.9063,N,10633.0907,E,0.32,0.00,090180,,*16
$GPGSA,A,3,01,07,08,11,17,18,22,28,30,,,,1.0,0.8,0.5*36
$BDGSA,A,3,01,02,04,07,08,10,13,,,,,,1.0,0.8,0.5*24
$GLGSA,A,3,,,,,,,,,,,,,1.0,0.8,0.5*22
$GPGSV,3,1,12,01,65,118,44,07,63,188,45,08,28,045,40,11,72,052,43*72
$GPGSV,3,2,12,17,25,254,40,18,52,064,43,22,13,121,39,28,35,316,39*7E
$GPGSV,3,3,12,30,64,283,45,03,06,141,00,09,05,201,00,13,06,308,00*72
$BDGSV,3,1,12,01,40,125,39,02,46,218,39,04,23,109,39,05,00,000,38*68
$BDGSV,3,2,12,07,65,080,42,08,72,161,42,10,71,001,43,13,48,195,41*6A
$BDGSV,3,3,12,27,23,042,41,29,40,244,43,30,73,356,44,03,55,171,00*65
$B3CN0,0,19,0,0,0,0,0,0,0,0,0,0,0,0*74
---00000011--- Acq_st=3 0  2000-1-9 7:28:18 
[00]  00(G01)  f 44  7  0  -1891.5  2046002.4 -0.0  2 0 2130 2341  924
[01]  06(G07)  f 46  7  0    432.8  2045999.4 -0.0  2 0 2265 3848 2019
[02]  07(G08)  f 40  7  0   1487.4  2045998.0 -0.0  2 0  980 1431 1015
[03]  10(G11)  f 44  9  0   -415.3  2046000.5  0.1  2 0 1487 2294  897
[04]  16(G17)  f 40  7  0  -3039.5  2046003.9 -0.1  2 0 1341 1658  888
[05]  17(G18)  f 44 20  0     -1.5  2045999.9 -0.0  2 0 1833 2839 1176
[06]  21(G22)  f 39  7  0  -3022.9  2046003.9 -0.1  2 0  405 1003  619
[08]  27(G28)  f 40  7  0  -2934.2  2046003.8 -0.0  2 0  863 1399  583
[09]  29(G30)  f 46  7  0  -1830.1  2046002.3  0.0  2 0 2397 4259 2044
[16]  37(B01) 1f 38 10  0  -1098.6  4092002.8  0.4  2 0  917  975  223
[17]  38(B02) 1f 41 16  0  -1136.0  4092002.8  0.7  2 0 1482 1351  455
[18]  39(B03)  f 42 30  0  -1116.3  4092002.7  0.3  2 0 1350 1477  457
[19]  40(B04) 1f 39 23  0  -1108.0  4092002.8 -0.4  2 0  928 1077  562
[20]  41(B05) 1f 38 10  0  -1138.1  4092002.9 -0.2  2 0 1278 1087  182
[21]  43(B07) 1f 42  7  0  -1307.2  4092003.3  0.0  2 0 1276 2062 1368
[22]  44(B08) 1f 42 11  0  -1762.2  4092004.5 -0.0  2 0 1505 2069  739
[24]  46(B10) 1f 42  7  0  -1568.2  4092004.0 -0.0  2 0 1686 2243  726
[25]  49(B13) 1f 41  8  0  -2201.8  4092005.7 -0.0  2 0 1278 1732  655
[26]  63(B27)  7 41  7  0   1631.0  4091995.6  0.1  2 0 1718 1760  691
[27]  65(B29)  7 43  7  0  -2933.3  4092007.6 -0.0  2 0 2423 3068 1595
[28]  66(B30)  7 45  7  0   -313.3  4092000.7 -0.0  2 0 2905 3536 1766
[32]  78(N-3)  f 38  7  0   2030.7  1021998.7 -0.0  2 0  1832 3083 1646
[33]  79(N-2)  7 45 15  0  -1078.5  1022000.6 -0.1  2 0  1321 2284  948
[34]  81(N00)  7 37 17  0  -5079.9  1022003.3 -0.1  2 0   501  898  540
[35]  82(N01)  7 37 16  0   2545.7  1021998.3  0.1  2 0   814  708  365
[36]  83(N02)  7 46 16  0   -107.3  1022000.0 -0.0  2 0  1608 2354  971
[48]  37(B01)  1 10 20  0  -1039.3 20460023.0 -0.1  1 0  157  217  110
[49]  38(B02)  7 10 18  0  -2587.4 20460042.0  0.0  2 0  377  427  284
[51]  40(B04)  1 26 24  1  -1202.9 20460016.3  0.1  1 0  474  137  278
[52]  41(B05)  1 23 26  1   -880.0 20460019.5 -0.1  1 0  276  483  154
[53]  43(B07)  1  7  7  0  -1626.3 20460022.0  0.0  1 0  496  582   71
[54]  44(B08)  1  7  7  0  -1641.7 20460027.0 -0.1  1 0  780 1026  728
[56]  46(B10)  1  7  7  0  -1772.6 20460024.5  0.1  1 0   80  301  716
[57]  49(B13)  1  7  7  0  -1082.3 20460033.8 -0.0  1 0  289  345  224
calculate DOP row 0,[  0.22  -0.97  -0.06   1.00]
calculate DOP row 1,[ -0.19  -0.82  -0.54   1.00]
calculate DOP row 2,[  0.60  -0.75  -0.28   1.00]
calculate DOP row 3,[  0.44  -0.64  -0.63   1.00]
calculate DOP row 4,[  0.68  -0.39  -0.62   1.00]
calculate DOP row 5,[  0.61  -0.60  -0.51   0.00]
calculate DOP row 6,[  0.37  -0.90  -0.23   0.00]
calculate DOP row 7,[  0.20  -0.64  -0.74   0.00]
calculate DOP row 8,[  0.11  -0.98   0.18   0.00]
calculate DOP row 9,[  0.63   0.07  -0.78   1.00]
calculate DOP row 10,[ -0.69  -0.73   0.00   1.00]
calculate DOP row 11,[ -0.48  -0.36  -0.80   1.00]
calculate DOP row 12,[ -0.16  -0.98   0.10   0.00]
calculate DOP row 13,[  0.93  -0.19   0.32   1.00]
calculate DOP row 14,[  0.81  -0.58   0.06   0.00]
calculate DOP row 15,[  0.97  -0.23   0.07   0.00]
DOP:  0.22   0.22   0.47   0.23
Refix G01: 2, 286116.931770, -1890
Refix G03: 2, 286116.916632, -3480
Refix G07: 2, 286116.931664, 432
Refix G08: 2, 286116.923203, 1487
Refix G09: 2, 286116.916368, 1339
Refix G11: 2, 286116.932060, -415
Refix G13: 2, 286116.916444, -1692
Refix G17: 2, 286116.922475, -3041
Refix G18: 2, 286116.930508, -2
Refix G22: 2, 286116.918313, -3027
Refix G28: 2, 286116.924592, -2932
Refix G30: 2, 286116.931247, -1830
$GNGGA,072819.000,2944.9062,N,10633.0907,E,1,16,0.8,323.5,M,,,,0000*13
$GNRMC,072819.000,A,2944.9062,N,10633.0907,E,0.27,0.00,240419,,*18
$GPGSA,A,3,01,07,08,11,17,18,22,28,30,,,,1.0,0.8,0.5*36
$BDGSA,A,3,01,02,04,07,08,10,13,,,,,,1.0,0.8,0.5*24
$GLGSA,A,3,,,,,,,,,,,,,1.0,0.8,0.5*22
$GPGSV,3,1,12,01,65,118,44,07,63,188,46,08,28,045,40,11,72,052,44*76
$GPGSV,3,2,12,17,25,254,40,18,52,064,44,22,13,121,39,28,35,316,40*77
$GPGSV,3,3,12,30,64,283,46,03,06,141,00,09,05,201,00,13,06,308,00*71
$BDGSV,3,1,12,01,40,125,38,02,46,218,41,03,55,171,43,04,23,109,39*6B
$BDGSV,3,2,12,05,00,000,38,07,65,080,42,08,72,161,42,10,71,001,42*63
$BDGSV,3,3,12,13,48,195,41,27,23,042,41,29,40,244,43,30,73,356,45*66
$B3CN0,0,0,0,0,0,0,0,0,0,0,0,0,0,0*4C
---00000012--- Acq_st=3 0  2019-4-24 7:28:19 
[00]  00(G01)  f 43 10  0  -1897.7  2046002.4 -0.0  2 0 1592 2747 1407
[01]  06(G07)  f 45  7  0    430.0  2045999.4  0.0  2 0 3497 4595 2105
[02]  07(G08)  f 40  7  0   1483.3  2045998.0 -0.0  2 0 1043 1909  968
[03]  10(G11)  f 43  7  0   -419.7  2046000.5  0.1  2 0 2510 3342 1586
[04]  16(G17)  f 39  7  0  -3042.4  2046003.9  0.0  2 0 1253 2065  260
[05]  17(G18)  f 44 20  0     -2.2  2045999.9 -0.0  2 0 2315 3187 1140
[06]  21(G22)  f 39  7  0  -3029.6  2046003.9 -0.1  2 0  868 1049  275
[08]  27(G28)  f 40 10  0  -2933.9  2046003.7 -0.0  2 0  821 1307  904
[09]  29(G30)  f 46  7  0  -1833.7  2046002.3 -0.0  2 0 3293 4945 2423
[16]  37(B01) 1f 40 21  0  -1104.7  4092002.7  0.6  2 0 1259 1418  779
[17]  38(B02) 1f 39 25  0  -1137.3  4092002.9 -0.3  2 0 1019 1474  780
[18]  39(B03)  f 42 30  0  -1116.5  4092002.8  0.4  2 0 1522 1762  620
[19]  40(B04) 1f 41 19  0  -1114.8  4092002.8  0.1  2 0 1050 1592  910
[20]  41(B05) 1f 37 22  0  -1151.0  4092002.9  0.2  2 0  798 1337  802
[21]  43(B07) 1f 42  7  0  -1312.2  4092003.3  0.0  2 0 2102 2683 1073
[22]  44(B08) 1f 42  7  0  -1765.6  4092004.5 -0.0  2 0 1504 1527  747
[24]  46(B10) 1f 43  7  0  -1574.2  4092004.0  0.1  2 0 1696 2518 1020
[25]  49(B13) 1f 41  7  0  -2207.0  4092005.7  0.0  2 0  950 1590  666
[26]  63(B27)  7 41  7  0   1628.6  4091995.6 -0.0  2 0 1784 1843  975
[27]  65(B29)  7 43  7  0  -2935.7  4092007.6  0.0  2 0 2047 2672 1386
[28]  66(B30)  7 44  7  0   -318.3  4092000.7  0.0  2 0 2986 3780 1681
[32]  78(N-3)  f 38  7  0   2026.4  1021998.7  0.0  2 0  1562 2857 1780
[33]  79(N-2)  7 45 18  0  -1081.6  1022000.7 -0.1  2 0  1128 2090  621
[34]  81(N00)  7 36 17  0  -5085.1  1022003.1  0.1  2 0   733  761  273
[35]  82(N01)  7 38 13  0   2541.5  1021998.3 -0.3  2 0   807  786  632
[36]  83(N02)  7 46 16  0   -110.5  1022000.1 -0.1  2 0  1911 2782 1229
[48]  37(B01)  7 10 16  1   -976.7 20460017.0 -0.0  2 0  565  795  452
[49]  38(B02)  7 10 10  1  -2828.7 20460046.8  0.1  2 0  406  734  466
[50]  39(B03)  1 18 14  1  -1080.5 20460019.6 -0.0  1 0  446  251  241
[51]  40(B04)  1 19 23  1   -921.9 20460023.5  0.1  1 0  266  314  222
[52]  41(B05)  1 23 24  0   -891.3 20460013.9  0.0  1 0  393  100  723
[53]  43(B07)  1  7  7  0   -901.8 20460021.8  0.0  1 0  301  178  231
[54]  44(B08)  1  7  7  0  -1081.8 20460027.8 -0.0  1 0  229  308  216
[56]  46(B10)  1  7  7  0  -1865.2 20460024.5  0.1  1 0  372  116  239
[57]  49(B13)  1  7  7  0  -1379.8 20460035.3  0.0  1 0  285  652  678
calculate DOP row 0,[ -0.19  -0.82  -0.54   1.00]
calculate DOP row 1,[  0.22  -0.97  -0.06   1.00]
calculate DOP row 2,[  0.68  -0.39  -0.62   1.00]
calculate DOP row 3,[  0.60  -0.75  -0.28   1.00]
calculate DOP row 4,[  0.44  -0.64  -0.63   1.00]
calculate DOP row 5,[  0.20  -0.64  -0.74   0.00]
calculate DOP row 6,[  0.61  -0.60  -0.51   0.00]
calculate DOP row 7,[  0.37  -0.90  -0.23   0.00]
calculate DOP row 8,[  0.81  -0.58   0.06   0.00]
calculate DOP row 9,[  0.11  -0.98   0.18   0.00]
calculate DOP row 10,[  0.63   0.07  -0.78   1.00]
calculate DOP row 11,[ -0.69  -0.73  -0.00   1.00]
calculate DOP row 12,[ -0.48  -0.36  -0.80   1.00]
calculate DOP row 13,[  0.97  -0.23   0.07   0.00]
calculate DOP row 14,[  0.93  -0.19   0.32   1.00]
calculate DOP row 15,[ -0.16  -0.98   0.10   0.00]
DOP:  0.22   0.22   0.47   0.23
Refix G01: 2, 286117.931771, -1893
Refix G03: 2, 286117.916635, -3481
Refix G07: 2, 286117.931663, 430
Refix G08: 2, 286117.923203, 1485
Refix G09: 2, 286117.916367, 1339
Refix G11: 2, 286117.932060, -417
Refix G13: 2, 286117.916445, -1692
Refix G17: 2, 286117.922477, -3042
Refix G18: 2, 286117.930508, -5
Refix G22: 2, 286117.918315, -3028
Refix G28: 2, 286117.924594, -2934
Refix G30: 2, 286117.931248, -1832
$GNGGA,072820.000,2944.9059,N,10633.0910,E,1,16,0.8,326.5,M,,,,0000*12
$GNRMC,072820.000,A,2944.9059,N,10633.0910,E,0.08,0.00,240419,,*11
$GPGSA,A,3,01,07,08,11,17,18,22,28,30,,,,1.0,0.8,0.5*36
$BDGSA,A,3,01,02,04,07,08,10,13,,,,,,1.0,0.8,0.5*24
$GLGSA,A,3,,,,,,,,,,,,,1.0,0.8,0.5*22
$GPGSV,3,1,12,01,65,118,43,07,63,188,45,08,28,045,40,11,72,052,43*75
$GPGSV,3,2,12,17,25,254,39,18,52,064,44,22,13,121,39,28,35,316,40*79
$GPGSV,3,3,12,30,64,283,46,03,06,141,00,09,05,201,00,13,06,308,00*71
$BDGSV,3,1,12,01,40,125,40,02,46,218,39,03,55,171,42,04,23,109,41*65
$BDGSV,3,2,12,05,00,000,37,07,65,080,42,08,72,161,42,10,71,001,43*6D
$BDGSV,3,3,12,13,48,195,41,27,23,042,41,29,40,244,43,30,73,356,44*67
$B3CN0,0,0,0,0,0,0,0,0,0,0,0,0,0,0*4C
---00000013--- Acq_st=3 0  2019-4-24 7:28:20 
[00]  00(G01)  f 45  7  0  -1892.4  2046002.4  0.0  2 0 2013 2966  832
[01]  06(G07)  f 45  7  0    431.4  2045999.4  0.1  2 0 2708 4555 2146
[02]  07(G08)  f 40  7  0   1488.7  2045998.0 -0.0  2 0 1015 1542  608
[03]  10(G11)  f 44  8  0   -418.4  2046000.5 -0.0  2 0 1842 2374  836
[04]  16(G17)  f 40  7  0  -3038.1  2046003.8 -0.0  2 0  503 1289  446
[05]  17(G18)  f 44 20  0     -6.5  2045999.9 -0.0  2 0 2358 2912 1176
[06]  21(G22)  f 38  7  0  -3027.9  2046003.9  0.0  2 0  870 1825  339
[08]  27(G28)  f 39  7  0  -2931.3  2046003.7  0.1  2 0  923  884  420
[09]  29(G30)  f 46  7  0  -1831.9  2046002.3 -0.0  2 0 3514 5185 1685
[16]  37(B01) 1f 40 23  0  -1102.6  4092002.7 -0.3  2 0 1000  983  496
[17]  38(B02) 1f 39 22  0  -1140.4  4092002.9  0.4  2 0  911 1192  412
[18]  39(B03) 1f 42 29  0  -1113.8  4092002.8  0.0  2 0 2053 2090  686
[19]  40(B04) 1f 39 22  0  -1112.0  4092002.9 -0.1  2 0 1047 1159  412
[20]  41(B05) 1f 39 22  0  -1147.4  4092003.0 -0.1  2 0  708 1380  911
[21]  43(B07) 1f 43  7  0  -1313.4  4092003.3 -0.0  2 0 1592 2225  721
[22]  44(B08) 1f 42  7  0  -1766.6  4092004.5  0.0  2 0 1371 2116 1334
[24]  46(B10) 1f 43 10  0  -1571.4  4092004.0  0.0  2 0 1792 2206  870
[25]  49(B13) 1f 41  8  0  -2206.6  4092005.6 -0.0  2 0 1823 2104  578
[26]  63(B27)  7 41 11  0   1633.1  4091995.6 -0.0  2 0 1138 1436  740
[27]  65(B29)  7 43  7  0  -2935.0  4092007.6 -0.0  2 0 2406 2803 1012
[28]  66(B30)  7 44  7  0   -318.0  4092000.7 -0.0  2 0 2660 3910 1794
[32]  78(N-3)  f 38  8  0   2027.9  1021998.7 -0.1  2 0  1571 3000 1585
[33]  79(N-2)  f 39  7  0  -1079.7  1022000.7  0.0  2 0  1202 2011 1201
[34]  81(N00)  f 35  7  0  -5083.8  1022003.1 -0.1  2 0   715  681  391
[35]  82(N01)  f 36  7  0   2542.6  1021998.3  0.2  2 0   440 1058  468
[36]  83(N02)  f 40  7  0   -109.6  1022000.0  0.0  2 0  1195 2492 1312
[48]  37(B01)  7 10 10  1  -1271.2 20460019.9 -0.1  2 0  537  241  450
[50]  39(B03)  1 18 14  0  -1629.7 20460019.2  0.0  1 0  440  660  142
[51]  40(B04)  1 20 36  1   -875.1 20460019.8 -0.1  1 0  565  376  738
[52]  41(B05)  1 23 24  1   -697.9 20460020.8 -0.1  1 0  181  543  396
calculate DOP row 0,[ -0.19  -0.82  -0.54   1.00]
calculate DOP row 1,[  0.60  -0.75  -0.28   1.00]
calculate DOP row 2,[  0.22  -0.97  -0.06   1.00]
calculate DOP row 3,[  0.44  -0.64  -0.63   1.00]
calculate DOP row 4,[  0.68  -0.39  -0.62   1.00]
calculate DOP row 5,[  0.36  -0.93   0.08   0.00]
calculate DOP row 6,[  0.20  -0.64  -0.74   0.00]
calculate DOP row 7,[  0.61  -0.60  -0.51   0.00]
calculate DOP row 8,[  0.37  -0.90  -0.23   0.00]
calculate DOP row 9,[  0.11  -0.98   0.18   0.00]
calculate DOP row 10,[  0.63   0.07  -0.78   1.00]
calculate DOP row 11,[ -0.69  -0.73  -0.00   1.00]
calculate DOP row 12,[  0.81  -0.58   0.06   0.00]
calculate DOP row 13,[ -0.48  -0.36  -0.80   1.00]
calculate DOP row 14,[ -0.16  -0.98   0.10   0.00]
calculate DOP row 15,[  0.97  -0.23   0.07   0.00]
calculate DOP row 16,[  0.93  -0.19   0.32   1.00]
DOP:  0.22   0.19   0.47   0.22
Refix G01: 2, 286118.931773, -1892
Refix G03: 2, 286118.916637, -3481
Refix G07: 2, 286118.931663, 431
Refix G08: 2, 286118.923202, 1484
Refix G09: 2, 286118.916366, 1340
Refix G11: 2, 286118.932061, -417
Refix G13: 2, 286118.916446, -1691
Refix G17: 2, 286118.922479, -3040
Refix G18: 2, 286118.930508, -4
Refix G22: 2, 286118.918317, -3029
Refix G28: 2, 286118.924596, -2934
Refix G30: 2, 286118.931249, -1831
$GNGGA,072821.000,2944.9060,N,10633.0910,E,1,17,0.8,326.5,M,,,,0000*18
$GNRMC,072821.000,A,2944.9060,N,10633.0910,E,0.47,0.00,240419,,*11
$GPGSA,A,3,01,07,08,11,17,18,22,28,30,,,,0.9,0.8,0.5*3E
$BDGSA,A,3,01,02,03,04,07,08,10,13,,,,,0.9,0.8,0.5*2F
$GLGSA,A,3,,,,,,,,,,,,,0.9,0.8,0.5*2A
$GPGSV,3,1,12,01,65,118,45,07,63,188,45,08,28,045,40,11,72,052,44*74
$GPGSV,3,2,12,17,25,254,40,18,52,064,44,22,13,121,38,28,35,316,39*78
$GPGSV,3,3,12,30,64,283,46,03,06,141,00,09,05,201,00,13,06,308,00*71
$BDGSV,3,1,12,01,40,125,40,02,46,218,39,03,55,171,42,04,23,109,39*6A
$BDGSV,3,2,12,05,00,000,39,07,65,080,43,08,72,161,42,10,71,001,43*62
$BDGSV,3,3,12,13,48,195,41,27,23,042,41,29,40,244,43,30,73,356,44*67
$B3CN0,0,0,0,0,0,0,0,0,0,0,0,0,0,0*4C
---00000014--- Acq_st=7 0  2019-4-24 7:28:21 
[00]  00(G01)  f 45  7  0  -1891.8  2046002.4 -0.0  2 0 2130 2842 1366
[01]  06(G07)  f 45  7  0    432.3  2045999.4 -0.0  2 0 2278 3567 1757
[02]  07(G08)  f 40  9  0   1486.7  2045998.0 -0.1  2 0  699 1958 1522
[03]  10(G11)  f 44  7  0   -415.8  2046000.5 -0.0  2 0 2289 2991 1902
[04]  16(G17)  f 39 10  0  -3041.3  2046003.9  0.2  2 0 1249 1351  480
[05]  17(G18)  f 45 20  0     -3.4  2045999.9  0.0  2 0 2293 3776 2088
[06]  21(G22)  f 39 13  0  -3025.2  2046003.8 -0.0  2 0  422 1028  789
[08]  27(G28)  f 39 11  0  -2935.5  2046003.8 -0.1  2 0  856 1036  487
[09]  29(G30)  f 46  7  0  -1829.7  2046002.3 -0.0  2 0 3354 5068 2304
[16]  37(B01) 1f 38 10  0  -1104.2  4092002.7 -0.2  2 0 1083 1236  168
[17]  38(B02) 1f 39 26  0  -1134.3  4092002.9  0.4  2 0 1324 1374  198
[18]  39(B03) 1f 42 31  0  -1115.8  4092002.8 -0.0  2 0 1508 1915  821
[19]  40(B04) 1f 40 19  0  -1111.5  4092002.8  0.7  2 0 1173 1184  627
[20]  41(B05) 1f 36 10  0  -1145.6  4092002.9 -0.0  2 0  611  968  401
[21]  43(B07) 1f 43  7  0  -1308.1  4092003.3  0.0  2 0 1651 2158  828
[22]  44(B08) 1f 43  7  0  -1767.3  4092004.5  0.0  2 0 1385 1966  430
[24]  46(B10) 1f 43  7  0  -1570.5  4092004.0 -0.0  2 0 1599 2156  665
[25]  49(B13) 1f 42  7  0  -2207.1  4092005.7  0.1  2 0 1213 1440  598
[26]  63(B27) 1f 41  9  0   1629.1  4091995.6 -0.0  2 0 1922 2198  909
[27]  65(B29) 1f 43  7  0  -2934.4  4092007.6  0.0  2 0 2584 3271 1329
[28]  66(B30) 1f 44  7  0   -317.9  4092000.7 -0.0  2 0 2397 3745 1681
[32]  78(N-3)  f 38  7  0   2029.4  1021998.7  0.0  2 0  1352 2766 1506
[33]  79(N-2)  f 43  7  0  -1078.3  1022000.7 -0.0  2 0   912 1690  991
[34]  81(N00)  f 36  7  0  -5083.4  1022003.2  0.0  2 0   449  703  141
[35]  82(N01)  f 38  7  0   2544.4  1021998.4 -0.6  2 0   892  512  295
[36]  83(N02)  f 45  7  0   -107.5  1022000.0 -0.0  2 0  1653 2718 1451
[48]  37(B01)  7 10 10  0  -1650.8 20460027.5 -0.0  2 0  209  537  396
[49]  38(B02)  1 22 18  1  -1101.5 20460019.9 -0.1  1 0  276  423  442
[50]  39(B03)  1 14 17  1  -2012.0 20460023.4 -0.1  1 0  477  474  197
[51]  40(B04)  1 18 23  0  -1022.5 20460021.7 -0.0  1 0  533  624  437
[52]  41(B05)  1 22 24  1  -1056.2 20460027.3 -0.1  1 0  455  592  210
[53]  43(B07)  1  7  7  0  -1208.9 20460019.5 -0.1  1 0  230  317  580
[54]  44(B08)  1  7  7  0  -1451.3 20460026.9 -0.1  1 0  564  435  222
[56]  46(B10)  1  7  7  0  -1534.8 20460026.2  0.1  1 0   87  245  979
[57]  49(B13)  1  7  7  0  -1962.5 20460034.7  0.0  1 0  234  518  380
calculate DOP row 0,[ -0.19  -0.82  -0.54   1.00]
calculate DOP row 1,[  0.60  -0.75  -0.28   1.00]
calculate DOP row 2,[  0.22  -0.97  -0.06   1.00]
calculate DOP row 3,[  0.68  -0.39  -0.62   1.00]
calculate DOP row 4,[  0.44  -0.64  -0.63   1.00]
calculate DOP row 5,[  0.18  -0.67  -0.72   0.00]
calculate DOP row 6,[  0.61  -0.60  -0.51   0.00]
calculate DOP row 7,[  0.37  -0.90  -0.23   0.00]
calculate DOP row 8,[  0.20  -0.64  -0.74   0.00]
calculate DOP row 9,[ -0.45  -0.89  -0.03   0.00]
calculate DOP row 10,[  0.36  -0.93   0.08   0.00]
calculate DOP row 11,[  0.11  -0.98   0.18   0.00]
calculate DOP row 12,[  0.97  -0.23   0.07   0.00]
calculate DOP row 13,[  0.60   0.16  -0.79   0.00]
calculate DOP row 14,[  0.63   0.07  -0.78   1.00]
calculate DOP row 15,[ -0.16  -0.98   0.10   0.00]
calculate DOP row 16,[ -0.69  -0.73  -0.00   1.00]
calculate DOP row 17,[  0.93  -0.19   0.32   1.00]
calculate DOP row 18,[ -0.48  -0.36  -0.80   1.00]
calculate DOP row 19,[  0.81  -0.58   0.06   0.00]
DOP:  0.19   0.15   0.32   0.19
Refix G01: 2, 286119.931774, -1891
Refix G03: 2, 286119.916639, -3481
Refix G07: 2, 286119.931663, 431
Refix G08: 2, 286119.923201, 1485
Refix G09: 2, 286119.916365, 1339
Refix G11: 2, 286119.932061, -416
Refix G13: 2, 286119.916447, -1689
Refix G17: 2, 286119.922481, -3040
Refix G18: 2, 286119.930508, -3
Refix G22: 2, 286119.918319, -3028
Refix G28: 2, 286119.924598, -2933
Refix G30: 2, 286119.931250, -1831
$GNGGA,072822.000,2944.9058,N,10633.0910,E,1,20,0.7,327.1,M,,,,0000*1E
$GNRMC,072822.000,A,2944.9058,N,10633.0910,E,0.15,0.00,240419,,*1E
$GPGSA,A,3,01,07,08,11,17,18,22,28,30,,,,0.8,0.7,0.4*31
$BDGSA,A,3,01,02,03,04,07,08,10,13,27,29,30,,0.8,0.7,0.4*2D
$GLGSA,A,3,,,,,,,,,,,,,0.8,0.7,0.4*25
$GPGSV,3,1,12,01,65,118,45,07,63,188,45,08,28,045,40,11,72,052,44*74
$GPGSV,3,2,12,17,25,254,39,18,52,064,45,22,13,121,39,28,35,316,39*76
$GPGSV,3,3,12,30,64,283,46,03,06,141,00,09,05,201,00,13,06,308,00*71
$BDGSV,3,1,12,01,40,125,38,02,46,218,39,03,55,171,42,04,23,109,40*6B
$BDGSV,3,2,12,05,00,000,36,07,65,080,43,08,72,161,43,10,71,001,43*6C
$BDGSV,3,3,12,13,48,195,42,27,23,042,41,29,40,244,43,30,73,356,44*64
$B3CN0,0,0,0,0,0,0,0,0,0,0,0,0,0,0*4C
---00000015--- Acq_st=7 0  2019-4-24 7:28:22 
[00]  00(G01)  f 44  7  0  -1891.7  2046002.4  0.0  2 0 2455 3061 1212
[01]  06(G07)  f 45  7  0    431.7  2045999.4 -0.1  2 0 2977 4306 1857
[02]  07(G08)  f 40  7  0   1484.4  2045998.0  0.0  2 0 1073 1887  903
[03]  10(G11)  f 43 11  0   -416.2  2046000.5  0.0  2 0 2027 3108 1521
[04]  16(G17)  f 39  7  0  -3039.6  2046003.9 -0.1  2 0 1353 1771  850
[05]  17(G18)  f 44 19  0     -2.1  2045999.9  0.0  2 0 2334 3201 1150
[06]  21(G22)  f 39  7  0  -3031.0  2046003.9 -0.1  2 0 1185 1908 1042
[08]  27(G28)  f 39  7  0  -2933.7  2046003.7  0.1  2 0  725 1308  854
[09]  29(G30)  f 46  7  0  -1828.9  2046002.3 -0.0  2 0 2964 4874 2495
[16]  37(B01) 1f 39 20  0  -1103.9  4092002.8  0.5  2 0  686 1013  626
[17]  38(B02) 1f 40 22  0  -1144.3  4092002.9 -0.6  2 0  745 1237  614
[18]  39(B03) 1f 43 30  0  -1113.8  4092002.8  0.2  2 0 1297 1945  920
[19]  40(B04) 1f 39 28  0  -1114.8  4092002.7 -0.7  2 0 1024 1696  888
[20]  41(B05) 1f 38 24  0  -1147.7  4092002.9 -0.6  2 0  719 1284  948
[21]  43(B07) 1f 43  7  0  -1312.8  4092003.3 -0.0  2 0 1691 2007  957
[22]  44(B08) 1f 43 14  0  -1767.1  4092004.5 -0.0  2 0 1561 1732  764
[24]  46(B10) 1f 43  7  0  -1571.5  4092004.0  0.0  2 0 1279 2083  918
[25]  49(B13) 1f 42  7  0  -2208.9  4092005.7  0.0  2 0 1652 2053  771
[26]  63(B27) 1f 41  7  0   1628.2  4091995.6  0.1  2 0 1435 1667  920
[27]  65(B29) 1f 44  7  0  -2937.3  4092007.6  0.0  2 0 2550 3010 1416
[28]  66(B30) 1f 45 11  0   -317.6  4092000.7  0.0  2 0 2630 3264 1236
[32]  78(N-3)  f 38  7  0   2028.7  1021998.7 -0.0  2 0  1436 2825 1311
[33]  79(N-2)  f 44  8  0  -1079.1  1022000.7 -0.0  2 0   980 2109  980
[34]  81(N00)  f 36  7  0  -5083.2  1022003.2 -0.0  2 0   524  628  289
[35]  82(N01)  f 38  7  0   2543.4  1021998.4  0.0  2 0   400  715  275
[36]  83(N02)  f 45  7  0   -108.2  1022000.0  0.0  2 0  1629 2522 1214
[48]  37(B01)  7 10 10  1  -2227.8 20460036.2  0.1  2 0  209   94  155
[49]  38(B02)  7 17 10  0  -1426.3 20460022.2 -0.0  2 0  590  752  671
[50]  39(B03)  1 19 18  1  -2048.6 20460022.4  0.0  1 0  190  145  145
[53]  43(B07)  1  7  7  0  -1175.5 20460022.3  0.1  1 0  124  455  351
[54]  44(B08)  1  7  7  0  -1875.8 20460027.7  0.1  1 0  333  342  241
[56]  46(B10)  1  7  7  0  -2230.3 20460024.9 -0.0  1 0  428  544  664
[57]  49(B13)  1 10  7  0  -1732.9 20460035.0  0.0  1 0  483  395  131
[58]  63(B27)  1  7  7  0   1543.1 20459975.8  0.1  1 0  163  490  251
[59]  65(B29)  1  7  7  0  -2520.7 20460048.2  0.2  1 0  558  517  398
[60]  66(B30)  1 10  7  0   -242.1 20460004.7 -0.0  1 0  345  369  249
calculate DOP row 0,[ -0.19  -0.82  -0.54   1.00]
calculate DOP row 1,[  0.22  -0.97  -0.06   1.00]
calculate DOP row 2,[  0.18  -0.67  -0.72   0.00]
calculate DOP row 3,[  0.60  -0.75  -0.28   1.00]
calculate DOP row 4,[  0.68  -0.39  -0.62   1.00]
calculate DOP row 5,[ -0.45  -0.89  -0.03   0.00]
calculate DOP row 6,[  0.44  -0.64  -0.63   1.00]
calculate DOP row 7,[  0.36  -0.93   0.08   0.00]
calculate DOP row 8,[  0.61  -0.60  -0.51   0.00]
calculate DOP row 9,[  0.37  -0.90  -0.23   0.00]
calculate DOP row 10,[  0.20  -0.64  -0.74   0.00]
calculate DOP row 11,[  0.11  -0.98   0.18   0.00]
calculate DOP row 12,[  0.60   0.16  -0.79   0.00]
calculate DOP row 13,[  0.63   0.07  -0.78   1.00]
calculate DOP row 14,[  0.81  -0.58   0.06   0.00]
calculate DOP row 15,[ -0.16  -0.98   0.10   0.00]
calculate DOP row 16,[ -0.69  -0.73  -0.00   1.00]
calculate DOP row 17,[  0.93  -0.19   0.32   1.00]
calculate DOP row 18,[ -0.48  -0.36  -0.80   1.00]
calculate DOP row 19,[  0.97  -0.23   0.07   0.00]
DOP:  0.19   0.15   0.32   0.19
Refix G01: 2, 286120.931775, -1890
Refix G03: 2, 286120.916641, -3481
Refix G07: 2, 286120.931663, 433
Refix G08: 2, 286120.923200, 1486
Refix G09: 2, 286120.916364, 1339
Refix G11: 2, 286120.932061, -415
Refix G13: 2, 286120.916448, -1689
Refix G17: 2, 286120.922483, -3040
Refix G18: 2, 286120.930508, -2
Refix G22: 2, 286120.918321, -3027
Refix G28: 2, 286120.924600, -2933
Refix G30: 2, 286120.931251, -1829
$GNGGA,072823.000,2944.9058,N,10633.0909,E,1,20,0.7,327.2,M,,,,0000*14
$GNRMC,072823.000,A,2944.9058,N,10633.0909,E,0.09,0.00,240419,,*1A
$GPGSA,A,3,01,07,08,11,17,18,22,28,30,,,,0.8,0.7,0.4*31
$BDGSA,A,3,01,02,03,04,07,08,10,13,27,29,30,,0.8,0.7,0.4*2D
$GLGSA,A,3,,,,,,,,,,,,,0.8,0.7,0.4*25
$GPGSV,3,1,12,01,65,118,44,07,63,188,45,08,28,045,40,11,72,052,43*72
$GPGSV,3,2,12,17,25,254,39,18,52,064,44,22,13,121,39,28,35,316,39*77
$GPGSV,3,3,12,30,64,283,46,03,06,141,00,09,05,201,00,13,06,308,00*71
$BDGSV,3,1,12,01,40,125,39,02,46,218,40,03,55,171,43,04,23,109,39*6B
$BDGSV,3,2,12,05,00,000,38,07,65,080,43,08,72,161,43,10,71,001,43*62
$BDGSV,3,3,12,13,48,195,42,27,23,042,41,29,40,244,44,30,73,356,45*62
$B3CN0,0,17,0,0,0,0,0,0,0,0,0,0,0,0*7A
---00000016--- Acq_st=7 0  2019-4-24 7:28:23 
[00]  00(G01)  f 44  7  0  -1890.1  2046002.4 -0.1  2 0 2124 3429 1676
[01]  06(G07)  f 44  7  0    430.3  2045999.4  0.1  2 0 2963 4403 2721
[02]  07(G08)  f 41  9  0   1483.2  2045998.0  0.1  2 0  474 1637 1023
[03]  10(G11)  f 42  7  0   -416.1  2046000.5 -0.0  2 0 2067 3436 1215
[04]  16(G17)  f 40  7  0  -3044.0  2046003.9 -0.1  2 0  992 2006 1174
[05]  17(G18)  f 44 20  0     -2.7  2045999.9 -0.0  2 0 2241 3211 1064
[06]  21(G22)  f 39  8  0  -3031.3  2046003.9  0.2  2 0  731 1480  422
[08]  27(G28)  f 38  8  0  -2933.1  2046003.7  0.0  2 0 1142 1454  885
[09]  29(G30)  f 46  7  0  -1830.6  2046002.3  0.0  2 0 3340 5448 2303
[16]  37(B01) 1f 38 10  0  -1102.5  4092002.6  0.0  2 0 1011 1241  401
[17]  38(B02) 1f 39 25  0  -1138.4  4092002.9 -0.2  2 0 1477 1722  779
[18]  39(B03) 1f 41 30  0  -1115.9  4092002.8 -0.1  2 0 1435 2230 1077
[19]  40(B04) 1f 40 36  0  -1109.8  4092002.8 -0.1  2 0 1033  934  474
[20]  41(B05) 1f 37 18  0  -1146.7  4092002.9  0.9  2 0 1068 1333  683
[21]  43(B07) 1f 43  7  0  -1312.9  4092003.3 -0.0  2 0 1386 1621  628
[22]  44(B08) 1f 42  7  0  -1767.2  4092004.5 -0.0  2 0 1428 1908 1243
[24]  46(B10) 1f 43  7  0  -1572.3  4092004.0 -0.0  2 0 1287 2394 1431
[25]  49(B13) 1f 42  7  0  -2211.9  4092005.7 -0.0  2 0 1055 1727  986
[26]  63(B27) 1f 41  7  0   1627.6  4091995.6 -0.0  2 0 1503 1966 1000
[27]  65(B29) 1f 44 11  0  -2933.9  4092007.6  0.0  2 0 1612 2431  940
[28]  66(B30) 1f 45  7  0   -316.9  4092000.7 -0.0  2 0 3248 3577 1558
[32]  78(N-3)  f 38  7  0   2028.3  1021998.7 -0.0  2 0  1626 2508 1233
[33]  79(N-2)  f 44  7  0  -1078.1  1022000.7  0.0  2 0  1214 1613  836
[34]  81(N00)  f 35  7  0  -5082.4  1022003.2 -0.1  2 0   664  869  459
[35]  82(N01)  f 37  7  0   2540.4  1021998.4  0.1  2 0   482  789  420
[36]  83(N02)  f 44  7  0   -107.3  1022000.0 -0.0  2 0  1129 2420 1535
[49]  38(B02)  7 10 18  0  -1867.1 20460031.4  0.1  2 0  303  132  434
[51]  40(B04)  1 18 19  1   -960.6 20460020.0  0.1  1 0  183  206  385
[52]  41(B05)  1 23 23  0   -611.5 20460021.9  0.1  1 0  657  413  290
[53]  43(B07)  1  7  7  0  -1457.4 20460021.6  0.1  1 0  137  290  216
[54]  44(B08)  1  7  7  0  -1240.0 20460026.5  0.0  1 0  854  717  679
[56]  46(B10)  1  7  7  0  -1722.0 20460025.9  0.0  1 0  290  361  249
[57]  49(B13)  1  7  7  0  -1904.4 20460034.8 -0.0  1 0  420  584   97
[58]  63(B27)  1  7  7  0   1714.5 20459973.5  0.0  1 0  498  615  810
[59]  65(B29)  1  9  7  0  -2550.3 20460047.5  0.1  1 0  548  612  425
[60]  66(B30)  1  8  7  0    -20.8 20460004.1  0.0  1 0  356  347   57
calculate DOP row 0,[ -0.19  -0.82  -0.54   1.00]
calculate DOP row 1,[  0.18  -0.67  -0.72   0.00]
calculate DOP row 2,[  0.60  -0.75  -0.28   1.00]
calculate DOP row 3,[  0.22  -0.97  -0.06   1.00]
calculate DOP row 4,[  0.68  -0.39  -0.62   1.00]
calculate DOP row 5,[ -0.45  -0.89  -0.03   0.00]
calculate DOP row 6,[  0.61  -0.60  -0.51   0.00]
calculate DOP row 7,[  0.20  -0.64  -0.74   0.00]
calculate DOP row 8,[  0.44  -0.63  -0.63   1.00]
calculate DOP row 9,[  0.36  -0.93   0.08   0.00]
calculate DOP row 10,[  0.37  -0.90  -0.23   0.00]
calculate DOP row 11,[  0.11  -0.98   0.18   0.00]
calculate DOP row 12,[  0.63   0.07  -0.78   1.00]
calculate DOP row 13,[  0.60   0.16  -0.79   0.00]
calculate DOP row 14,[  0.81  -0.58   0.06   0.00]
calculate DOP row 15,[ -0.69  -0.73  -0.00   1.00]
calculate DOP row 16,[  0.93  -0.19   0.32   1.00]
calculate DOP row 17,[ -0.16  -0.98   0.10   0.00]
calculate DOP row 18,[  0.97  -0.23   0.07   0.00]
calculate DOP row 19,[ -0.48  -0.36  -0.80   1.00]
DOP:  0.19   0.15   0.32   0.19
Refix G01: 2, 286121.931776, -1891
Refix G03: 2, 286121.916643, -3482
Refix G07: 2, 286121.931662, 432
Refix G08: 2, 286121.923199, 1483
Refix G09: 2, 286121.916363, 1338
Refix G11: 2, 286121.932061, -416
Refix G13: 2, 286121.916449, -1691
Refix G17: 2, 286121.922485, -3041
Refix G18: 2, 286121.930508, -3
Refix G22: 2, 286121.918322, -3029
Refix G28: 2, 286121.924601, -2935
Refix G30: 2, 286121.931252, -1831
$GNGGA,072824.000,2944.9058,N,10633.0908,E,1,20,0.7,327.4,M,,,,0000*14
$GNRMC,072824.000,A,2944.9058,N,10633.0908,E,0.31,0.00,240419,,*17
$GPGSA,A,3,01,07,08,11,17,18,22,28,30,,,,0.8,0.7,0.4*31
$BDGSA,A,3,01,02,03,04,07,08,10,13,27,29,30,,0.8,0.7,0.4*2D
$GLGSA,A,3,,,,,,,,,,,,,0.8,0.7,0.4*25
$GPGSV,3,1,12,01,65,118,44,07,63,188,44,08,28,045,41,11,72,052,42*73
$GPGSV,3,2,12,17,25,254,40,18,52,064,44,22,13,121,39,28,35,316,38*78
$GPGSV,3,3,12,30,64,283,46,03,06,141,00,09,05,201,00,13,06,308,00*71
$BDGSV,3,1,12,01,40,125,38,02,46,218,39,03,55,171,41,04,23,109,40*68
$BDGSV,3,2,12,05,00,000,37,07,65,080,43,08,72,161,42,10,71,001,43*6C
$BDGSV,3,3,12,13,48,195,42,27,23,042,41,29,40,244,44,30,73,356,45*62
$B3CN0,0,0,0,0,0,0,0,0,0,0,0,0,0,0*4C
---00000017--- Acq_st=3 0  2019-4-24 7:28:24 
[00]  00(G01)  f 44  7  0  -1888.2  2046002.4  0.0  2 0 1673 3140 1872
[01]  06(G07)  f 45  8  0    433.2  2045999.4 -0.0  2 0 2904 4554 2364
[02]  07(G08)  f 41  7  0   1488.0  2045998.0  0.0  2 0 1516 2476  768
[03]  10(G11)  f 43  7  0   -414.7  2046000.5 -0.1  2 0 1976 2938 1450
[04]  16(G17)  f 39  7  0  -3040.7  2046003.9 -0.1  2 0 1261 2243 1414
[05]  17(G18)  f 44 19  0     -1.6  2045999.9 -0.1  2 0 2521 3553 1737
[06]  21(G22)  f 39  7  0  -3028.5  2046003.9  0.0  2 0  678 1105  300
[08]  27(G28)  f 39  7  0  -2937.5  2046003.8  0.1  2 0 1264 1183  453
[09]  29(G30)  f 46  7  0  -1829.3  2046002.3  0.0  2 0 3627 5483 2735
