SD initialized success
Create debug.log Failed! 3
bbram_blkflag = 1
rtcflag = 0
BBRAM Block OK: 01 EPHflag: c660a084 0036837f, rtc 00
Hot-start nowtime:day = 22,minute = 34,seconds = 39.00
Start Channel by LuYu
$GNGGA,000000.000,,,,,0,00,,,M,,,,0000*2B
$GNRMC,000000.000,A,,,,,,,060180,,*29
$GPGSA,A,1,,,,,,,,,,,,,,,*1E
$BDGSA,A,1,,,,,,,,,,,,,,,*0F
$GLGSA,A,1,,,,,,,,,,,,,,,*02
$B3CN0,0,0,0,0,0,0,0,0,0,0,0,0,0,0*4C
---00000001--- Acq_st=3 0  2019-4-22 2:34:40 
[00]  02(G03)  1 28  7  0    732.5  2045999.1  0.2  1 0 1541 2726 1663
$GNGGA,000000.000,,,,,0,00,,,M,,,,0000*2B
$GNRMC,000000.000,A,,,,,,,060180,,*29
$GPGSA,A,1,,,,,,,,,,,,,,,*1E
$BDGSA,A,1,,,,,,,,,,,,,,,*0F
$GLGSA,A,1,,,,,,,,,,,,,,,*02
$B3CN0,0,0,0,0,0,0,0,0,0,0,0,0,0,0*4C
---00000002--- Acq_st=3 0  2019-4-22 2:34:41 
[00]  02(G03)  7 19  7  0    740.8  2045999.0  0.8 10 0 2165 2670 1309
[01]  13(G14)  1 25  7  0   1817.3  2045998.5  0.3  1 0 1611 1891 1294
[02]  15(G16)  1 22  7  0  -1176.4  2046003.0  0.1  1 0 1062 2991 2125
[03]  21(G22)  1  7  7  0   1000.0  2046000.2 -0.1  1 0 1690 2953 1195
[04]  22(G23)  1  7  7  0  -3750.0  2046005.6 -0.0  1 0  590  615 1383
[05]  25(G26)  1  7  7  0    500.0  2046002.0  0.0  1 0  723 2350 3815
$GNGGA,000000.000,,,,,0,00,,,M,,,,0000*2B
$GNRMC,000000.000,A,,,,,,,060180,,*29
$GPGSA,A,1,,,,,,,,,,,,,,,*1E
$BDGSA,A,1,,,,,,,,,,,,,,,*0F
$GLGSA,A,1,,,,,,,,,,,,,,,*02
$GPGSV,1,1,01,03,00,000,19*43
$B3CN0,0,0,0,0,0,0,0,0,0,0,0,0,0,0*4C
---00000003--- Acq_st=3 0  2019-4-22 2:34:42 
[00]  02(G03)  7 43  7  0    741.9  2045999.0 -0.0  2 0  796 1939  922
[01]  13(G14)  7 23  7  0   1819.9  2045997.6  0.9 10 0 1447 2179 1028
[02]  15(G16)  7 18  7  0  -1172.0  2046001.4  0.9 10 0 2567 3435 1485
[03]  21(G22)  1 31  9  0   1135.0  2045998.1  0.7  1 0 1927 2641 1087
[04]  22(G23)  1  7  7  0  -3385.7  2046007.6  0.1  1 0 1293 2024 1329
[05]  25(G26)  1 28  7  0    624.6  2045999.0  0.5  1 0 3642 3904 1430
[06]  26(G27)  1 28  7  0  -4383.8  2046006.8  0.4  1 0 1215 2404 1546
[08]  30(G31)  1 20  7  0    559.4  2045999.5  0.2  1 0 1618 2566  866
[16]  37(B01)  1 10 13  1  -1250.0  4092003.2 -0.1  1 0  481  725 1371
[17]  38(B02)  1 36 30  1  -1000.0  4092002.5  0.2  1 0  328  421  805
[18]  39(B03)  1 10 29  1  -1000.0  4092002.1 -0.0  1 0  539  628 1835
[19]  40(B04)  1 10 10  0  -1250.0  4092005.4  0.1  1 0   48  227 1327
$GNGGA,023444.107,,,,,0,00,,,M,,,,0000*28
$GNRMC,023444.107,A,,,,,,,070180,,*2B
$GPGSA,A,1,,,,,,,,,,,,,,,*1E
$BDGSA,A,1,,,,,,,,,,,,,,,*0F
$GLGSA,A,1,,,,,,,,,,,,,,,*02
$GPGSV,1,1,03,03,00,000,43,14,00,000,23,16,00,000,18*44
$B3CN0,0,0,0,0,0,0,0,0,0,0,0,0,0,0*4C
---00000004--- Acq_st=3 0  2019-4-22 2:34:43 
[00]  02(G03)  f 42  7  0    734.4  2045999.0 -0.0  2 0 1588 2700 1657
[01]  13(G14)  7 41  7  0   1815.2  2045997.5 -0.1  2 0 1359 2151 1228
[02]  15(G16)  7 44  7  0  -1179.5  2046001.4  0.0  2 0 1958 3386 1333
[03]  21(G22)  7 32  7  0   1129.7  2045998.5  0.3  5 0 1558 2879 1314
[04]  22(G23)  1  7  7  0  -3387.0  2046004.7  0.1  1 0 1077 1782  903
[05]  25(G26)  7 27  7  0    620.8  2045999.1  0.6 10 0 2539 3472 2033
[06]  26(G27)  7 27  7  0  -4391.2  2046005.6  0.6 10 0 1291 1815  729
[08]  30(G31)  7 16  7  0    554.1  2045999.2  0.9 10 0 2271 3236 1616
[16]  37(B01)  1 10 10  1  -1114.7  4092005.3  0.5  1 0 1963  884  280
[17]  38(B02)  1 22 16  1  -1098.9  4092003.3 -0.1  1 0  320  529  505
[18]  39(B03)  1 10 30  1  -1118.6  4092003.0  0.1  1 0  291  517 1937
[19]  40(B04)  1 41 23  0  -1109.3  4092004.7  1.0  1 0 1686 1915 1011
[20]  42(B06)  1  7  7  0   -270.3  4092001.6 -0.1  1 0  760 2128 1016
[21]  43(B07)  1  7  7  0   -791.9  4092002.5  0.1  1 0 1471 2754 1406
[22]  45(B09)  1  7  7  0   -750.0  4092004.1  0.0  1 0   64 1194 2707
[24]  46(B10)  1  7  7  0  -1000.0  4092004.1  0.1  1 0  785 2173 2335
$GNGGA,023445.107,,,,,0,00,,,M,,,,0000*29
$GNRMC,023445.107,A,,,,,,,070180,,*2A
$GPGSA,A,1,,,,,,,,,,,,,,,*1E
$BDGSA,A,1,,,,,,,,,,,,,,,*0F
$GLGSA,A,1,,,,,,,,,,,,,,,*02
$GPGSV,2,1,06,03,00,000,42,14,00,000,41,16,00,000,44,22,00,000,32*7F
$GPGSV,2,2,06,26,00,000,27,27,00,000,27*7E
$B3CN0,0,0,0,0,0,0,0,0,0,0,0,0,0,0*4C
---00000005--- Acq_st=3 0  2019-4-22 2:34:44 
[00]  02(G03)  f 42  7  0    741.2  2045999.0  0.1  2 0 2062 2985 1539
[01]  13(G14)  7 41  7  0   1817.4  2045997.6  0.0  2 0 1363 1559  872
[02]  15(G16)  7 44  7  0  -1170.8  2046001.4 -0.0  2 0 1919 2713 1274
[03]  21(G22)  7 43  7  0   1133.5  2045998.5 -0.1  2 0 1165 2190  797
[04]  22(G23)  1  7  7  0  -3388.2  2046004.8  0.1  1 0  944 1965  804
[05]  25(G26)  7 46  7  0    624.9  2045999.1 -0.0  2 0 2896 4336 1648
[06]  26(G27)  7 42 12  0  -4388.4  2046005.6  0.0  2 0 1710 2679  863
[08]  30(G31)  7 44  7  0    559.0  2045999.2  0.0  2 0 2353 2996 1544
[16]  37(B01)  7 37 21  0  -1115.3  4092002.7 -0.4  2 0 1484 1206  559
[17]  38(B02)  7 10 18  0  -1300.9  4092003.2  0.2  2 0  663  653  548
[18]  39(B03)  7 39 31  0  -1109.3  4092003.2 -0.7  2 0  475 1135 2064
[19]  40(B04) 19 39 10  0  -1095.2  4092002.1  0.9  1 0 1464 1502  384
[20]  42(B06)  7 21  7  0   -267.2  4092000.6 -0.1 10 0 1672 1766  424
[21]  43(B07)  7 15  7  0   -788.7  4092002.0  0.5 10 0 2039 2961 1463
[22]  45(B09)  1  7  7  0   -844.7  4092002.3  0.3  1 0 2428 2664  944
[24]  46(B10)  1  7  7  0   -986.5  4092002.3  0.4  1 0 1312 2452 1112
[25]  52(B16)  1  7  7  0   -500.0  4092002.4 -0.1  1 0  869 2519 1487
[26]  54(B18)  1  7  7  0  -1000.0  4092003.7 -0.1  1 0  700 2542 2672
[27]  55(B19)  1  7  7  0   2000.0  4091996.0 -0.1  1 0  632 1339 1293
$GNGGA,023446.107,,,,,0,00,,,M,,,,0000*2A
$GNRMC,023446.107,A,,,,,,,070180,,*29
$GPGSA,A,1,,,,,,,,,,,,,,,*1E
$BDGSA,A,1,,,,,,,,,,,,,,,*0F
$GLGSA,A,1,,,,,,,,,,,,,,,*02
$GPGSV,2,1,07,03,00,000,42,14,00,000,41,16,00,000,44,22,00,000,43*78
$GPGSV,2,2,07,26,00,000,45,27,00,000,42,31,00,000,44*4A
$BDGSV,1,1,04,01,00,000,37,02,00,000,16,03,00,000,39,06,00,000,21*60
$B3CN0,0,0,0,0,0,0,0,0,0,0,0,0,0,0*4C
---00000006--- Acq_st=3 0  2019-4-22 2:34:45 
[00]  02(G03)  f 43  7  0    752.5  2045999.0 -0.1  2 0 1796 2356 1055
[01]  13(G14)  7 42  7  0   1836.8  2045997.5  0.1  2 0 1700 2414 1185
[02]  15(G16)  7 44  7  0  -1157.5  2046001.4  0.0  2 0 1769 2983 1463
[03]  21(G22)  7 43  7  0   1151.1  2045998.5  0.1  2 0 1313 2207  452
[04]  22(G23)  1  7  7  0  -3375.8  2046005.0 -0.0  1 0 1054 1814  580
[05]  25(G26)  7 45  7  0    638.0  2045999.1  0.0  2 0 2778 4030 1455
[06]  26(G27)  7 42  8  0  -4371.6  2046005.6 -0.1  2 0 2028 1927  925
[08]  30(G31)  7 44  7  0    572.0  2045999.2  0.0  2 0 2346 3363 1860
[16]  37(B01)  f 40 18  0  -1100.5  4092002.7 -0.6  2 0 1271 1030  147
[17]  38(B02)  7 10 10  0  -1583.1  4092004.3 -0.2  2 0  149  377  853
[18]  39(B03)  f 41 31  0  -1095.0  4092003.0  0.6  2 0 1196 1951 1710
[19]  40(B04) 1f 40 21  0  -1088.6  4092002.8 -0.4  2 0 1077 1312  891
[20]  42(B06)  7 43  9  0   -251.6  4092000.6 -0.2  2 0 1539 1923  640
[21]  43(B07)  7 44 12  0   -772.6  4092002.0 -0.0  2 0 1807 2778 1094
[22]  45(B09)  7 36  7  0   -827.6  4092002.0  0.1  2 0 1575 2262 1214
[24]  46(B10)  7 34  7  0   -967.3  4092002.5  0.1  5 0 1814 2500  914
[25]  52(B16)  1  7  7  0   -279.3  4092000.3  0.4  1 0 1718 2263 1053
[26]  54(B18)  1  7  7  0   -923.7  4092002.4  0.5  1 0 2131 3192 1392
[27]  55(B19)  1  7  7  0   2061.1  4091994.6  0.2  1 0  790  995  666
[28]  57(B21)  1 26  7  0  -2352.3  4092008.6  0.3  1 0  473 1933 1925
[29]  58(B22)  1  7  7  0    342.4  4092000.1  0.0  1 0 1698 3440 2126
[30]  63(B27)  1  7  7  0     -0.0  4092001.2  0.0  1 0  180  536  652
$GNGGA,023447.107,,,,,0,00,,,M,,,,0000*2B
$GNRMC,023447.107,A,,,,,,,070180,,*28
$GPGSA,A,1,,,,,,,,,,,,,,,*1E
$BDGSA,A,1,,,,,,,,,,,,,,,*0F
$GLGSA,A,1,,,,,,,,,,,,,,,*02
$GPGSV,2,1,07,03,00,000,43,14,00,000,42,16,00,000,43,22,00,000,43*7D
$GPGSV,2,2,07,26,00,000,46,27,00,000,42,31,00,000,44*49
$BDGSV,2,1,07,01,00,000,40,03,00,000,41,04,00,000,40,06,00,000,43*6E
$BDGSV,2,2,07,07,00,000,44,09,00,000,36,10,00,000,34*52
$B3CN0,0,0,0,0,0,0,0,0,0,0,0,0,0,0*4C
---00000007--- Acq_st=3 0  2019-4-22 2:34:46 
[00]  02(G03)  f 42  7  0    740.9  2045999.0  0.0  2 0 1705 2022 1043
[01]  13(G14)  7 41  7  0   1820.2  2045997.5  0.0  2 0 1294 1549  360
[02]  15(G16)  7 43  7  0  -1170.6  2046001.5  0.0  2 0 2330 3295 1061
[03]  21(G22)  7 43 11  0   1138.2  2045998.5 -0.1  2 0 2072 3008 1141
[05]  25(G26)  7 45  7  0    624.9  2045999.1  0.0  2 0 2473 3587 1066
[06]  26(G27)  7 42  7  0  -4386.5  2046005.6 -0.1  2 0 1685 2494 1323
[08]  30(G31)  7 43  7  0    558.2  2045999.2  0.1  2 0 1471 2223 1070
[16]  37(B01)  f 39 19  0  -1116.1  4092002.7  0.3  2 0 1329 1467  557
[17]  38(B02)  7 20 23  0  -2126.9  4092005.5 -0.2  2 0  186  169  481
[18]  39(B03)  f 43 29  0  -1109.6  4092003.0  0.1  2 0 1022 2004 1104
[19]  40(B04) 1f 41 22  0  -1098.7  4092002.7  0.4  2 0 1103 1335  255
[20]  42(B06)  7 42 11  0   -260.7  4092000.6  0.0  2 0 1621 1993  858
[21]  43(B07)  7 43 13  0   -786.0  4092002.0 -0.0  2 0 1860 2520  778
[22]  45(B09)  7 43  7  0   -842.5  4092002.1  0.0  2 0 2220 2386  979
[24]  46(B10)  7 43 10  0   -978.7  4092002.5  0.0  2 0 1913 2589 1286
[25]  52(B16)  7 37  7  0   -287.0  4092000.6  0.1  2 0 1537 2205  877
[26]  54(B18)  7 31  7  0   -938.0  4092002.4  0.2  5 0 2173 3178 1399
[27]  55(B19)  7 29  7  0   2042.2  4091994.5  0.1  5 0  929 1191  645
[28]  57(B21)  7 26  7  0  -2355.9  4092006.1  0.7 10 0 1459 2132 1032
[29]  58(B22)  7 23  7  0    335.7  4091999.0  0.4 10 0 2577 2692 1139
[30]  63(B27)  1  7  7  0    115.9  4091999.5  0.1  1 0 1044 1332  491
[32]  75(N-6)  1  7  7  0 439376.7  1022003.9 -0.0  1 0   367  843 1599
[48]  37(B01)  1 18 20  1   -896.9 20460018.0  0.0  1 0  331  379  126
[50]  39(B03)  1 10 16  1   -615.1 20460021.1  0.0  1 0  385  224  152
[51]  40(B04)  1 22 24  0   -812.1 20460017.2  0.0  1 0  510  155  164
$GNGGA,023448.107,,,,,0,00,,,M,,,,0000*24
$GNRMC,023448.107,A,,,,,,,070180,,*27
$GPGSA,A,1,,,,,,,,,,,,,,,*1E
$BDGSA,A,1,,,,,,,,,,,,,,,*0F
$GLGSA,A,1,,,,,,,,,,,,,,,*02
$GPGSV,2,1,07,03,00,000,42,14,00,000,41,16,00,000,43,22,00,000,43*7F
$GPGSV,2,2,07,26,00,000,45,27,00,000,42,31,00,000,43*4D
$BDGSV,3,1,12,01,00,000,39,02,00,000,19,03,00,000,43,04,00,000,41*6D
$BDGSV,3,2,12,06,00,000,42,07,00,000,43,09,00,000,43,10,00,000,43*62
$BDGSV,3,3,12,16,00,000,36,18,00,000,31,19,00,000,29,21,00,000,25*65
$B3CN0,0,0,0,0,0,0,0,0,0,0,0,0,0,0*4C
---00000008--- Acq_st=3 0  2019-4-22 2:34:48 
[00]  02(G03)  f 43 10  0    743.6  2045999.0  0.0  2 0 1863 2002  700
[01]  13(G14)  7 41  7  0   1826.9  2045997.6 -0.0  2 0 1201 1991 1110
[02]  15(G16)  7 44  7  0  -1166.3  2046001.4  0.0  2 0 2459 3075 1498
[03]  21(G22)  7 43  7  0   1141.4  2045998.5 -0.0  2 0 1721 2851 1283
[05]  25(G26)  7 45  7  0    632.6  2045999.1  0.1  2 0 2860 4324 1619
[06]  26(G27)  7 42  9  0  -4378.6  2046005.6  0.0  2 0 2014 2602 1176
[08]  30(G31)  7 43  7  0    567.5  2045999.2 -0.0  2 0  994 2265  957
[16]  37(B01) 1f 41 10  0  -1110.0  4092002.7  0.7  2 0 1114 1106  472
[17]  38(B02)  7 22 10  0  -2412.8  4092006.5  0.0  2 0  234  204  220
[18]  39(B03) 1f 45 30  0  -1098.5  4092002.9  0.2  2 0 1224 2289 1368
[19]  40(B04) 1f 41 13  0  -1091.0  4092002.7 -0.1  2 0 1135 1333  331
[20]  42(B06)  7 41  8  0   -257.7  4092000.5 -0.1  2 0 1356 1789  652
[21]  43(B07)  7 43  8  0   -779.2  4092001.9 -0.0  2 0 1233 2001  964
[22]  45(B09)  7 43  7  0   -838.6  4092002.1  0.0  2 0 1927 1956  533
[24]  46(B10)  7 43  7  0   -973.7  4092002.4  0.0  2 0 1914 2743  999
[25]  52(B16)  7 43  7  0   -280.9  4092000.6  0.0  2 0 1588 2104  825
[26]  54(B18)  7 44  7  0   -930.6  4092002.4  0.0  2 0 2018 3251 1563
[27]  55(B19)  7 40  7  0   2050.7  4091994.5  0.1  2 0 1004 1260  707
[28]  57(B21)  7 43  7  0  -2350.5  4092006.1 -0.0  2 0 1440 1946  751
[29]  58(B22)  7 44  7  0    342.4  4091999.0 -0.0  2 0 2021 2343  719
[30]  63(B27)  7 27  7  0    131.3  4091999.6  0.0 10 0  698 1124  458
[32]  75(N-6)  1 31 15  0  -3614.7  1022002.3  0.8  1 0   769 1633 1039
[33]  76(N-5)  1 33 17  0    149.6  1022000.2  0.8  1 0  2355 3002 1230
[34]  78(N-3)  1 25 14  0  -3061.1  1022003.7  0.1  1 0   578  331  268
[35]  79(N-2)  1 22 15  0  -4889.8  1022004.6  0.0  1 0   293  610  487
[36]  83(N02)  1 24 10  0   -250.0  1022002.3  0.0  1 0   709 2366 2779
[37]  84(N03)  1 17  7  0     -0.0  1022002.1  0.0  1 0   363  472  786
[38]  85(N04)  1  7 14  0   2999.8  1022001.3  0.1  1 0   204  690 1560
[40]  86(N05)  1  7  7  0  -4949.4  1022004.9 -0.0  1 0   247  463 1551
[48]  37(B01)  1 10 10  1  -1238.0 20460020.3  0.0  1 0  379  757  709
[50]  39(B03)  1 13 10  1   -787.9 20460021.1 -0.0  1 0   74  634  160
[51]  40(B04)  1 17 18  1   -290.4 20460021.9  0.1  1 0  339  249  353
$GNGGA,023449.107,,,,,0,00,,,M,,,,0000*25
$GNRMC,023449.107,A,,,,,,,220419,,*24
$GPGSA,A,1,,,,,,,,,,,,,,,*1E
$BDGSA,A,1,,,,,,,,,,,,,,,*0F
$GLGSA,A,1,,,,,,,,,,,,,,,*02
$GPGSV,2,1,07,03,00,000,43,14,00,000,41,16,00,000,44,22,00,000,43*79
$GPGSV,2,2,07,26,00,000,45,27,00,000,42,31,00,000,43*4D
$BDGSV,3,1,12,01,00,000,41,02,00,000,22,03,00,000,45,04,00,000,41*6C
$BDGSV,3,2,12,06,00,000,41,07,00,000,43,09,00,000,43,10,00,000,43*61
$BDGSV,3,3,12,16,00,000,43,18,00,000,44,19,00,000,40,21,00,000,43*6A
$B3CN0,0,0,0,0,0,0,0,0,0,0,0,0,0,0*4C
---00000009--- Acq_st=7 0  2019-4-22 2:34:49 
[00]  02(G03)  f 42  7  0    737.0  2045999.0 -0.0  2 0 1872 1751  712
[01]  13(G14)  7 41  7  0   1815.1  2045997.6  0.0  2 0 1323 1480  380
[02]  15(G16)  7 43  7  0  -1177.4  2046001.5 -0.0  2 0 2219 3083  995
[03]  21(G22)  7 43  7  0   1130.5  2045998.4  0.0  2 0 1817 3245 1400
[05]  25(G26)  7 45  7  0    619.3  2045999.1 -0.0  2 0 2518 4126 1950
[06]  26(G27)  7 42  7  0  -4387.1  2046005.7 -0.0  2 0 1494 2835 1851
[08]  30(G31)  7 43  7  0    549.8  2045999.2  0.0  2 0 2018 2755 1729
[16]  37(B01) 1f 41 10  0  -1118.5  4092002.8  0.1  2 0 1577 1549  361
[18]  39(B03) 1f 41 31  0  -1115.1  4092002.9  0.1  2 0 1585 2316  918
[19]  40(B04) 1f 39 24  0  -1103.9  4092002.7 -0.6  2 0 1371 1245  570
[20]  42(B06)  7 42  7  0   -270.9  4092000.6 -0.0  2 0 1555 2040  952
[21]  43(B07)  7 43  8  0   -791.3  4092002.0 -0.0  2 0 1937 2376  628
[22]  45(B09)  7 43  7  0   -853.1  4092002.1  0.0  2 0 2215 2833  936
[24]  46(B10)  7 43  7  0   -987.7  4092002.5 -0.0  2 0 2053 2846 1223
[25]  52(B16)  7 43  7  0   -295.3  4092000.7 -0.0  2 0 2163 2456  922
[26]  54(B18)  7 44  7  0   -942.2  4092002.4  0.0  2 0 2412 3066 1580
[27]  55(B19)  7 40  9  0   2033.0  4091994.6 -0.0  2 0  908 1271  287
[28]  57(B21)  7 43  7  0  -2360.7  4092006.1  0.0  2 0 1585 2368  905
[29]  58(B22)  7 43  7  0    329.1  4091999.0 -0.0  2 0 2092 2909 1214
[30]  63(B27)  7 38  7  0    122.6  4091999.6  0.0  2 0 1062 1233  584
[32]  75(N-6)  7 35 11  0  -3625.2  1022002.3  0.2  2 0  1182 1262  422
[33]  76(N-5)  7 33 13  0    139.6  1021999.8  0.3  5 0  2433 3684 1867
[34]  78(N-3)  1 27 18  0  -3065.7  1022002.0  0.8  1 0   560  676  426
[35]  79(N-2)  7 11  7  0  -4907.5  1022003.0  0.5 10 0   434  725  523
[36]  83(N02)  1 49 16  0   -309.5  1022000.1  1.0  1 0  2075 2874 1529
[37]  84(N03)  1 25 15  0    -18.7  1022000.3  1.0  1 0  1004 1401  474
[38]  85(N04)  1 41 19  0   3051.0  1021997.9  1.0  1 0  1174 1223  300
[40]  86(N05)  1 28 18  0  -4821.9  1022003.4  1.0  1 0   782 1045  747
[48]  37(B01)  1 10 16  1   -494.4 20460021.4 -0.0  1 0  643  374  289
[50]  39(B03)  1 13 10  1   -967.0 20460018.4 -0.0  1 0  605  277  373
[51]  40(B04)  1 24 10  1     83.4 20460021.8  0.0  1 0  221  457  134
---00000010--- Acq_st=7 0  2019-4-22 2:34:49 
[00]  02(G03)  f 42  7  0    743.2  2045998.9  0.0  2 0 1627 2468 1185
[01]  13(G14)  f 41  7  0   1831.6  2045997.5 -0.0  2 0  661 1783  720
[02]  15(G16)  f 43  7  0  -1165.0  2046001.4  0.0  2 0 1870 3279 1504
[03]  21(G22)  f 43  7  0   1142.2  2045998.4 -0.1  2 0 1848 3061 1723
[05]  25(G26)  f 45  9  0    630.0  2045999.1  0.0  2 0 2276 4095 2118
[06]  26(G27)  f 42  7  0  -4380.6  2046005.6  0.0  2 0 1480 1971 1283
[08]  30(G31)  f 43  7  0    563.2  2045999.2 -0.1  2 0 1304 2256  907
[16]  37(B01) 1f 40 21  0  -1104.0  4092002.7 -0.5  2 0 1374 1701  603
[18]  39(B03) 1f 43 30  0  -1104.6  4092002.8 -0.0  2 0 1840 2728 1450
[19]  40(B04) 1f 40 36  0  -1090.2  4092002.6 -0.2  2 0 1311 1189  379
[20]  42(B06)  7 41  7  0   -255.9  4092000.6  0.0  2 0 1964 1904  810
[21]  43(B07)  7 43  7  0   -781.0  4092001.9 -0.0  2 0 1349 1869  493
[22]  45(B09)  7 44  7  0   -838.4  4092002.1  0.0  2 0 1857 2381  884
[24]  46(B10)  7 43  7  0   -976.3  4092002.4  0.0  2 0 1884 2624  984
[25]  52(B16)  7 43  7  0   -281.9  4092000.6 -0.0  2 0 1640 2631 1400
[26]  54(B18)  7 44  7  0   -930.7  4092002.3  0.0  2 0 2524 3326 1418
[27]  55(B19)  7 40  9  0   2045.5  4091994.5  0.0  2 0 1091 1295  374
[28]  57(B21)  7 43  7  0  -2351.3  4092006.0  0.0  2 0 1639 1895  864
[29]  58(B22)  7 44  7  0    340.0  4091999.0 -0.0  2 0 1836 2637  827
[30]  63(B27)  7 38  7  0    130.1  4091999.5 -0.2  2 0  584  984  571
[32]  75(N-6)  7 45 18  0  -3612.3  1022002.2  0.0  2 0  1173 1632 1004
[33]  76(N-5)  7 48 18  0    153.2  1021999.8  0.0  2 0  1993 3207 1387
[34]  78(N-3)  7 23  7  0  -3067.2  1022001.9  0.6 10 0   330  612  225
[35]  79(N-2)  7 36 17  0  -4893.7  1022003.0  0.1  2 0   428  814  390
[36]  83(N02)  1 50 16  0   -297.3  1022000.0  1.0  1 0  1570 2868 1234
[37]  84(N03)  1 28 15  0     -6.2  1021999.5  0.9  1 0   799 1304  663
[38]  85(N04)  1 42 21  0   3062.9  1021997.5  1.0  1 0  1053 1710 1090
[40]  86(N05)  1 31 19  0  -4810.5  1022002.9  1.0  1 0   911 1229  565
[48]  37(B01)  1 16 10  1   -684.8 20460026.1  0.1  1 0  376  203   94
[50]  39(B03)  1 22 24  0   -445.8 20460019.7  0.1  1 0  141  180  268
[51]  40(B04)  1 21 23  0    616.7 20460018.6  0.1  1 0  504 1010  649
$GNGGA,023449.983,2944.9068,N,10633.0961,E,1,10,1.2,322.8,M,,,,0000*17
$GNRMC,023449.983,A,2944.9068,N,10633.0961,E,0.09,0.00,220419,,*17
$GPGSA,A,3,03,14,16,22,26,27,31,,,,,,2.3,1.2,2.0*30
$BDGSA,A,3,01,03,04,,,,,,,,,,2.3,1.2,2.0*25
$GLGSA,A,3,,,,,,,,,,,,,2.3,1.2,2.0*2E
$GPGSV,2,1,07,03,00,000,42,14,00,000,41,16,00,000,43,22,00,000,43*7F
$GPGSV,2,2,07,26,00,000,45,27,00,000,42,31,00,000,43*4D
$BDGSV,3,1,12,01,00,000,40,03,00,000,43,04,00,000,40,06,00,000,41*6B
$BDGSV,3,2,12,07,00,000,43,09,00,000,44,10,00,000,43,16,00,000,43*65
$BDGSV,3,3,12,18,00,000,44,19,00,000,40,21,00,000,43,22,00,000,44*6A
$B3CN0,0,0,0,0,0,0,0,0,0,0,0,0,0,0*4C
---00000011--- Acq_st=3 0  2019-4-22 2:34:50 
[00]  02(G03)  f 42  7  0    741.3  2045999.0  0.0  2 0 2048 2457 1384
[01]  13(G14)  f 41  7  0   1818.6  2045997.6 -0.0  2 0 1250 1908  868
[02]  15(G16)  f 44  7  0  -1169.9  2046001.5  0.0  2 0 2316 3013 1319
[03]  21(G22)  f 43  7  0   1136.5  2045998.5  0.1  2 0 1472 2602 1404
[05]  25(G26)  f 44  7  0    627.1  2045999.1  0.0  2 0 2368 3461 1253
[06]  26(G27)  f 42  9  0  -4385.8  2046005.6 -0.0  2 0 1738 2158 1349
[08]  30(G31)  f 43  7  0    558.1  2045999.2  0.0  2 0 1821 2861 1361
[16]  37(B01) 1f 40 21  0  -1112.5  4092002.7 -0.3  2 0 1115 1158  461
[18]  39(B03) 1f 43 28  0  -1105.4  4092002.8  0.0  2 0 1494 2113  911
[19]  40(B04) 1f 41 23  0  -1099.3  4092002.8 -0.6  2 0 1260 1419  568
[20]  42(B06)  7 42  7  0   -264.5  4092000.6 -0.1  2 0 1665 1730  570
[21]  43(B07)  7 43  7  0   -785.6  4092001.9  0.0  2 0 1886 2578 1560
[22]  45(B09)  7 43  7  0   -842.1  4092002.1  0.0  2 0 2279 2649 1020
[24]  46(B10)  7 43  7  0   -979.4  4092002.5  0.0  2 0 1690 2421  695
[25]  52(B16)  7 43  7  0   -288.0  4092000.6  0.0  2 0 1685 2121  892
[26]  54(B18)  7 44  7  0   -937.5  4092002.4 -0.0  2 0 1812 2923 1379
[27]  55(B19)  7 40  7  0   2041.8  4091994.5 -0.0  2 0 1693 2016  619
[28]  57(B21)  7 43  7  0  -2358.0  4092006.0  0.1  2 0 1780 1955  605
[29]  58(B22)  7 44 11  0    337.1  4091999.0  0.0  2 0 2235 3090 1379
[30]  63(B27)  7 38  7  0    124.1  4091999.5  0.4  2 0 1298 1109  389
[32]  75(N-6)  7 44 18  0  -3617.5  1022002.3 -0.1  2 0   838 1814  807
[33]  76(N-5)  7 48 18  0    148.7  1021999.8  0.0  2 0  1939 3555 1686
[34]  78(N-3)  7 36 19  0  -3070.0  1022001.9  0.1  2 0   340  701  635
[35]  79(N-2)  7 37 17  0  -4898.3  1022002.9  0.0  2 0   714  724  188
[36]  83(N02)  7 48 17  0   -299.8  1022000.2  0.0  2 0  2016 3399 1730
[37]  84(N03)  7 42 11  0     -8.1  1021999.9 -0.1  2 0   813 1480  507
[38]  85(N04)  7 42 19  0   3059.7  1021998.0 -0.0  2 0   831 1217  535
[40]  86(N05)  7 38 17  0  -4815.0  1022003.1  0.0  2 0   633 1062  734
Refix G03: 2,  95708.923688, 742
Refix G08: 2,  95708.917889, -4825
Refix G14: 2,  95708.924300, 1821
Refix G16: 2,  95708.933122, -1169
Refix G22: 2,  95708.921235, 1135
Refix G23: 2,  95708.925381, -3883
Refix G26: 2,  95708.930889, 626
Refix G27: 2,  95708.925511, -4386
Refix G31: 2,  95708.924616, 558
Refix G32: 2,  95708.918738, 2433
$GNGGA,023451.000,2944.9069,N,10633.0958,E,1,10,0.9,323.4,M,,,,0000*10
$GNRMC,023451.000,A,2944.9069,N,10633.0958,E,0.17,0.00,220419,,*18
$GPGSA,A,3,03,14,16,22,26,27,31,,,,,,1.3,0.9,0.9*32
$BDGSA,A,3,01,03,04,,,,,,,,,,1.3,0.9,0.9*27
$GLGSA,A,3,,,,,,,,,,,,,1.3,0.9,0.9*2C
$GPGSV,2,1,07,03,00,000,42,14,00,000,41,16,00,000,44,22,00,000,43*78
$GPGSV,2,2,07,26,00,000,44,27,00,000,42,31,00,000,43*4C
$BDGSV,3,1,12,01,00,000,40,03,00,000,43,04,00,000,41,06,00,000,42*69
$BDGSV,3,2,12,07,00,000,43,09,00,000,43,10,00,000,43,16,00,000,43*62
$BDGSV,3,3,12,18,00,000,44,19,00,000,40,21,00,000,43,22,00,000,44*6A
$B3CN0,0,0,0,0,0,0,0,0,0,0,0,0,0,0*4C
---00000012--- Acq_st=3 0  2019-4-22 2:34:51 
[00]  02(G03)  f 42  7  0    741.9  2045999.0 -0.0  2 0 2000 2843 1560
[01]  13(G14)  f 40  7  0   1819.3  2045997.6  0.0  2 0 1295 1903  792
[02]  15(G16)  f 45  7  0  -1173.2  2046001.5  0.0  2 0 2284 3009 1368
[03]  21(G22)  f 43  7  0   1134.9  2045998.5 -0.1  2 0 1648 2743 1580
[04]  22(G23)  1  7  7  0  -4000.0  2046006.6  0.1  1 0 1130 2344 1488
[05]  25(G26)  f 45  7  0    624.5  2045999.1  0.0  2 0 2773 4184 1736
[06]  26(G27)  f 42  7  0  -4388.1  2046005.6  0.0  2 0 1297 2260 1005
[08]  30(G31)  f 43  7  0    555.2  2045999.2 -0.0  2 0 1938 2589 1489
[16]  37(B01) 1f 40 10  0  -1113.0  4092002.7 -0.3  2 0 1170 1271  692
[18]  39(B03) 1f 43 30  0  -1108.7  4092002.7  0.2  2 0 1390 1542  112
[19]  40(B04) 1f 40 36  0  -1099.3  4092002.7 -0.2  2 0  895 1500  740
[20]  42(B06) 1f 41 11  0   -267.9  4092000.6  0.0  2 0 1587 2136 1269
[21]  43(B07) 1f 43 10  0   -788.3  4092001.9  0.0  2 0 2030 2497  961
[22]  45(B09) 1f 42  7  0   -842.3  4092002.1 -0.0  2 0 1160 1610  476
[24]  46(B10) 1f 43  7  0   -981.5  4092002.4  0.0  2 0 2421 2809 1177
[25]  52(B16) 1f 43  7  0   -289.5  4092000.6 -0.0  2 0 1945 2369  731
[26]  54(B18) 1f 44  7  0   -941.1  4092002.4  0.0  2 0 1831 2777 1222
[27]  55(B19) 1f 40  7  0   2038.0  4091994.5 -0.1  2 0 1586 1758  211
[28]  57(B21) 1f 42  7  0  -2358.5  4092006.1  0.0  2 0 1873 2002  630
[29]  58(B22) 1f 44  7  0    333.4  4091999.0  0.0  2 0 3026 3337 1137
[30]  63(B27) 1f 38  7  0    125.6  4091999.6 -0.1  2 0  780  965  326
[32]  75(N-6)  7 45 16  0  -3618.1  1022002.3 -0.1  2 0   875 1680  923
[33]  76(N-5)  7 48 14  0    147.5  1021999.9 -0.0  2 0  2184 3672 1894
[34]  78(N-3)  7 37 16  0  -3071.2  1022001.9  0.1  2 0   162  619  190
[35]  79(N-2)  7 37 17  0  -4902.2  1022003.1  0.2  2 0   327  691  385
[36]  83(N02)  7 48 16  0   -301.1  1022000.2 -0.1  2 0  1802 3098 1422
[37]  84(N03)  7 42 16  0    -10.3  1022000.0  0.1  2 0   696 1072  426
[38]  85(N04)  7 42 19  0   3058.2  1021998.0  0.1  2 0   572 1312  730
[40]  86(N05)  7 41 15  0  -4815.2  1022003.1  0.2  2 0   441 1155  696
[48]  37(B01)  1 13 10  1  -1016.3 20460021.3  0.1  1 0  110  139  562
[50]  39(B03)  1 20 24  1   -674.9 20460020.0 -0.1  1 0  179  170  522
[51]  40(B04)  1 20 16  1   -770.3 20460018.9  0.0  1 0  601  678  786
Refix G03: 2,  95709.923687, 739
Refix G08: 2,  95709.917892, -4828
Refix G14: 2,  95709.924299, 1819
Refix G16: 2,  95709.933122, -1171
Refix G22: 2,  95709.921234, 1133
Refix G23: 2,  95709.925383, -3886
Refix G26: 2,  95709.930888, 624
Refix G27: 2,  95709.925514, -4388
Refix G31: 2,  95709.924615, 556
Refix G32: 2,  95709.918737, 2431
$GNGGA,023452.000,2944.9074,N,10633.0943,E,1,18,0.7,323.9,M,,,,0000*1E
$GNRMC,023452.000,A,2944.9074,N,10633.0943,E,0.20,0.00,220419,,*19
$GPGSA,A,3,03,14,16,22,26,27,31,,,,,,0.8,0.7,0.4*3B
$BDGSA,A,3,01,03,04,06,07,09,10,16,19,21,22,,0.8,0.7,0.4*2B
$GLGSA,A,3,,,,,,,,,,,,,0.8,0.7,0.4*25
$GPGSV,3,1,10,03,28,247,42,14,29,139,40,16,76,287,45,22,22,226,43*7E
$GPGSV,3,2,10,26,60,024,45,27,34,167,42,31,34,070,43,08,10,190,00*7C
$GPGSV,3,3,10,23,38,315,00,32,12,143,00*71
$BDGSV,3,1,12,01,40,126,40,03,54,172,43,04,23,110,40,06,52,157,41*6A
$BDGSV,3,2,12,07,72,357,43,09,80,196,42,10,65,280,43,16,60,163,43*6A
$BDGSV,3,3,12,18,00,000,44,19,21,185,40,21,24,304,42,22,45,243,44*61
$B3CN0,0,0,0,0,0,0,0,0,0,0,0,0,0,0*4C
---00000013--- Acq_st=3 0  2019-4-22 2:34:52 
[00]  02(G03)  f 43  7  0    745.4  2045999.0  0.0  2 0 2257 2476 1161
[01]  13(G14)  f 40  7  0   1818.4  2045997.6  0.0  2 0 1359 1903  859
[02]  15(G16)  f 44 11  0  -1171.7  2046001.5 -0.1  2 0 2623 3579 1724
[03]  21(G22)  f 44  7  0   1137.3  2045998.5  0.1  2 0 2141 2754 1018
[04]  22(G23)  1 36  7  0  -3889.5  2046004.8  0.9  1 0 1888 2509 1018
[05]  25(G26)  f 45  7  0    623.4  2045999.1 -0.0  2 0 2573 4080 1817
[06]  26(G27)  f 42  7  0  -4389.5  2046005.6 -0.0  2 0 1440 2491 1117
[08]  30(G31)  f 43  7  0    556.5  2045999.2  0.0  2 0 1975 2867 1499
[09]  31(G32)  1 23  7  0   2436.8  2045997.1  0.2  1 0  581 1070  478
[16]  37(B01) 1f 40 23  0  -1113.6  4092002.8 -0.3  2 0  630 1092  531
[17]  38(B02)  1 39 24  0  -1071.2  4092003.8  1.0  1 0 1036 1114  214
[18]  39(B03) 1f 43 29  0  -1110.7  4092002.8  0.0  2 0 1812 2404 1150
[19]  40(B04) 1f 40 36  0  -1099.2  4092002.8  0.4  2 0 1163 1138  226
[20]  42(B06) 1f 41  7  0   -264.1  4092000.6 -0.0  2 0 1530 1561  377
[21]  43(B07) 1f 43  7  0   -788.3  4092002.0 -0.0  2 0 1621 2405  972
[22]  45(B09) 1f 43  7  0   -841.9  4092002.1  0.0  2 0 1805 2400 1071
[24]  46(B10) 1f 43  7  0   -984.5  4092002.5  0.0  2 0 2111 2846  834
[25]  52(B16) 1f 43  7  0   -287.1  4092000.6  0.1  2 0 1921 2719 1069
[26]  54(B18) 1f 44  7  0   -939.0  4092002.4  0.0  2 0 2129 2970  947
[27]  55(B19) 1f 40  9  0   2040.0  4091994.5  0.1  2 0  195  633  808
[28]  57(B21) 1f 42  7  0  -2355.7  4092006.1  0.0  2 0 1313 1919 1083
[29]  58(B22) 1f 44  7  0    336.3  4091999.0 -0.0  2 0 2254 3141 1309
[30]  63(B27) 1f 38  7  0    129.7  4091999.5 -0.3  2 0  995  662  161
[32]  75(N-6)  f 40 11  0  -3616.8  1022002.3  0.1  2 0   664 1792  791
[33]  76(N-5)  f 41  7  0    149.5  1021999.9  0.0  2 0  1995 3290 1517
[34]  78(N-3)  7 37 17  0  -3071.5  1022002.0  0.1  2 0   340  758  632
[35]  79(N-2)  f 35  8  0  -4899.1  1022003.1 -0.1  2 0   681  783  403
[36]  83(N02)  7 48 18  0   -299.5  1022000.1 -0.0  2 0  1849 3524 1584
[37]  84(N03)  7 42 14  0     -8.2  1022000.0 -0.1  2 0   993 1584  610
[38]  85(N04)  7 42 19  0   3059.4  1021998.0 -0.0  2 0   764 1064  756
[40]  86(N05)  7 41 16  0  -4814.9  1022003.1 -0.1  2 0   785 1069  400
[48]  37(B01)  7 19 10  1   -996.2 20460014.9 -0.1  2 0  508  588  139
[50]  39(B03)  1 24 16  1   -523.1 20460015.7  0.2  1 0  677  868  791
[51]  40(B04)  1 23 24  1   -679.8 20460021.1  0.1  1 0  453  117  363
[52]  42(B06)  1  7  7  0   -641.2 20460002.4 -0.0  1 0  396  343   60
[53]  43(B07)  1  7  7  0   -476.4 20460010.5 -0.0  1 0  613  471  388
[54]  45(B09)  1  7  7  0   -449.5 20460011.1  0.1  1 0  564  352  680
[56]  46(B10)  1  7  7  0   -615.2 20460014.7 -0.0  1 0  444  209  329
[57]  52(B16)  1  7  7  0    161.3 20460004.7 -0.2  1 0  568  608  535
[58]  54(B18)  1  7  7  0   -464.7 20460014.7  0.1  1 0  532  385  123
[59]  55(B19)  1  7  7  0   1484.1 20459968.1 -0.1  1 0  386  223   80
[60]  57(B21)  1  7  7  0  -1935.3 20460037.3 -0.0  1 0  442  457  227
[61]  58(B22)  1  7  7  0    806.1 20459994.6 -0.2  1 0  310  256  248
[62]  63(B27)  1  7  7  0   -242.9 20459998.3  0.1  1 0  284   99  146
Refix G03: 2,  95710.923687, 741
Refix G08: 2,  95710.917896, -4826
Refix G14: 2,  95710.924298, 1820
Refix G16: 2,  95710.933123, -1170
Refix G22: 2,  95710.921234, 1135
Refix G23: 2,  95710.925385, -3885
Refix G26: 2,  95710.930888, 624
Refix G27: 2,  95710.925517, -4386
Refix G31: 2,  95710.924615, 556
Refix G32: 2,  95710.918735, 2432
$GNGGA,023453.000,2944.9073,N,10633.0941,E,1,18,0.7,324.2,M,,,,0000*16
$GNRMC,023453.000,A,2944.9073,N,10633.0941,E,0.32,0.00,220419,,*1E
$GPGSA,A,3,03,14,16,22,26,27,31,,,,,,0.8,0.7,0.4*3B
$BDGSA,A,3,01,03,04,06,07,09,10,16,19,21,22,,0.8,0.7,0.4*2B
$GLGSA,A,3,,,,,,,,,,,,,0.8,0.7,0.4*25
$GPGSV,3,1,10,03,28,247,43,14,29,139,40,16,76,287,44,22,22,226,44*79
$GPGSV,3,2,10,26,60,024,45,27,34,167,42,31,34,070,43,08,10,190,00*7C
$GPGSV,3,3,10,23,38,315,00,32,12,143,00*71
$BDGSV,3,1,12,01,40,126,40,03,54,172,43,04,23,110,40,06,52,157,41*6A
$BDGSV,3,2,12,07,72,357,43,09,80,196,43,10,65,280,43,16,60,163,43*6B
$BDGSV,3,3,12,18,00,000,44,19,21,185,40,21,24,304,42,22,45,243,44*61
$B3CN0,18,0,0,0,0,0,0,0,0,0,0,0,0,0*75
---00000014--- Acq_st=3 0  2019-4-22 2:34:53 
[00]  02(G03)  f 42  7  0    748.5  2045999.0 -0.0  2 0 1685 2563 1167
[01]  13(G14)  f 41  7  0   1826.2  2045997.5 -0.0  2 0 1350 2015 1256
[02]  15(G16)  f 44  7  0  -1162.4  2046001.5  0.0  2 0 2190 3042 1557
[03]  21(G22)  f 44  7  0   1142.4  2045998.5 -0.0  2 0 1696 3046  881
[04]  22(G23)  7 35  7  0  -3878.1  2046005.0  0.1  2 0 1435 2840 1746
[05]  25(G26)  f 46  9  0    633.5  2045999.1  0.0  2 0 2697 3952 1519
[06]  26(G27)  f 43  7  0  -4378.1  2046005.6 -0.0  2 0 1539 2131  796
[08]  30(G31)  f 43  7  0    566.8  2045999.2  0.0  2 0 2297 3177 1377
[09]  31(G32)  7 25  7  0   2437.6  2045996.8  0.4 10 0  997  972  457
[16]  37(B01) 1f 41 21  0  -1105.6  4092002.6 -0.5  2 0 1360 1442  323
[17]  38(B02)  7 29 17  0  -1057.9  4092002.5  0.0  2 0 1600  731  279
[18]  39(B03) 1f 43 31  0  -1101.6  4092002.8  0.1  2 0 1447 2277 1388
[19]  40(B04) 1f 41 22  0  -1091.8  4092002.7  0.2  2 0  675 1235  635
[20]  42(B06) 1f 41  7  0   -254.7  4092000.6  0.0  2 0 1811 2066  531
[21]  43(B07) 1f 43 12  0   -777.6  4092001.9 -0.0  2 0 2180 2937 1398
[22]  45(B09) 1f 44  7  0   -835.3  4092002.1  0.0  2 0 1964 2646 1397
[24]  46(B10) 1f 43  7  0   -974.9  4092002.4 -0.0  2 0 1620 2440 1347
[25]  52(B16) 1f 43  7  0   -280.9  4092000.6 -0.0  2 0 1676 2253  925
[26]  54(B18) 1f 44  7  0   -931.6  4092002.3  0.0  2 0 2505 3051 1224
[27]  55(B19) 1f 40  7  0   2047.0  4091994.5 -0.0  2 0 1110 1563  602
[28]  57(B21) 1f 42  7  0  -2348.6  4092006.0 -0.1  2 0 1587 1961  896
[29]  58(B22) 1f 44  9  0    342.4  4091999.0  0.0  2 0 2011 2967 1177
[30]  63(B27) 1f 38  7  0    132.3  4091999.5 -0.0  2 0 1282 1475  757
[32]  75(N-6)  f 43  7  0  -3608.7  1022002.3 -0.0  2 0  1077 1669  660
[33]  76(N-5)  f 46  7  0    157.3  1021999.9  0.0  2 0  1725 3333 1758
[34]  78(N-3)  7 37 17  0  -3062.3  1022001.9  0.1  2 0   389  844  606
[35]  79(N-2)  f 37  7  0  -4893.8  1022003.1 -0.0  2 0   560  466   67
[36]  83(N02)  7 48 18  0   -292.5  1022000.2 -0.0  2 0  2104 3400 1437
[37]  84(N03)  7 43 15  0      1.8  1022000.0 -0.1  2 0   818 1494  944
[38]  85(N04)  7 42 19  0   3068.3  1021998.0  0.1  2 0   793 1375  724
[40]  86(N05)  7 42 19  0  -4806.6  1022003.0 -0.1  2 0  1066 1466  444
[48]  37(B01)  7 10 36  1  -1582.6 20460027.5 -0.1  2 0  284  243  554
[50]  39(B03)  1 20 19  1   -756.9 20460025.5  0.1  1 0  610  525  738
[51]  40(B04)  1 24 24  1   -889.2 20460022.6 -0.1  1 0  527  748  806
[52]  42(B06)  1  8 11  0  -1464.7 20460002.4 -0.1  1 0  422  551  478
[53]  43(B07)  1  7 12  0   -154.6 20460010.9 -0.1  1 0  157  903  905
[54]  45(B09)  1  7  7  0   -122.6 20460013.0  0.1  1 0  132  264  343
[56]  46(B10)  1  7  7  0   -303.4 20460015.4  0.2  1 0  453  533  739
[57]  52(B16)  1  7  9  0     24.9 20460005.3  0.1  1 0  370  495  298
[58]  54(B18)  1  7  7  0     79.9 20460016.7  0.0  1 0  634  428  518
[59]  55(B19)  1  7  7  0   1444.5 20459968.6 -0.0  1 0  681  637  595
[60]  57(B21)  1  7  8  0  -1816.8 20460037.7  0.1  1 0  654  458  149
[61]  58(B22)  1  7  7  0   1282.0 20459995.9 -0.0  1 0   67  505  152
[62]  63(B27)  1  7  7  0   -454.9 20459997.9  0.1  1 0  607  319  402
Refix G03: 2,  95711.923686, 748
Refix G08: 2,  95711.917899, -4820
Refix G14: 2,  95711.924297, 1828
Refix G16: 2,  95711.933124, -1162
Refix G22: 2,  95711.921233, 1141
Refix G23: 2,  95711.925388, -3878
Refix G26: 2,  95711.930887, 632
Refix G27: 2,  95711.925520, -4379
Refix G31: 2,  95711.924615, 564
Refix G32: 2,  95711.918734, 2439
$GNGGA,023454.000,2944.9072,N,10633.0940,E,1,18,0.7,324.7,M,,,,0000*14
$GNRMC,023454.000,A,2944.9072,N,10633.0940,E,0.24,0.00,220419,,*1E
$GPGSA,A,3,03,14,16,22,26,27,31,,,,,,0.8,0.7,0.4*3B
$BDGSA,A,3,01,03,04,06,07,09,10,16,19,21,22,,0.8,0.7,0.4*2B
$GLGSA,A,3,,,,,,,,,,,,,0.8,0.7,0.4*25
$GPGSV,3,1,10,03,28,247,42,14,29,139,41,16,76,287,44,22,22,226,44*79
$GPGSV,3,2,10,23,38,315,35,26,60,024,46,27,34,167,43,31,34,070,43*74
$GPGSV,3,3,10,32,12,143,25,08,10,190,00*7A
$BDGSV,3,1,12,01,40,126,40,02,45,218,29,03,54,172,43,04,23,110,41*6F
$BDGSV,3,2,12,06,52,157,41,07,72,357,43,09,80,196,44,10,65,280,43*69
$BDGSV,3,3,12,16,60,163,43,18,00,000,44,19,21,185,40,21,24,304,42*67
$B3CN0,0,0,0,0,0,0,0,0,0,0,0,0,0,0*4C
---00000015--- Acq_st=3 0  2019-4-22 2:34:54 
[00]  02(G03)  f 42  7  0    741.0  2045999.0 -0.0  2 0 1206 2028 1139
[01]  13(G14)  f 41  7  0   1826.9  2045997.5 -0.1  2 0  870 1314  529
[02]  15(G16)  f 44  7  0  -1164.3  2046001.5 -0.0  2 0 2293 3551 2022
[03]  21(G22)  f 43  7  0   1141.6  2045998.5 -0.0  2 0 1953 2421 1322
[04]  22(G23)  7 43  7  0  -3878.3  2046004.9  0.0  2 0 1445 2753 1290
[05]  25(G26)  f 45  7  0    631.7  2045999.1 -0.0  2 0 2007 3575 1181
[06]  26(G27)  f 43 11  0  -4381.4  2046005.6 -0.0  2 0 1316 2271  750
[08]  30(G31)  f 43  7  0    563.1  2045999.2  0.1  2 0 1481 2552  720
[09]  31(G32)  7 36  7  0   2438.0  2045996.8  0.0  2 0 1027  897  533
[16]  37(B01) 1f 40 14  0  -1107.9  4092002.7 -0.0  2 0  861 1217  401
[17]  38(B02)  7 31 28  0  -1067.7  4092002.5 -0.3  2 0 1144  782   88
[18]  39(B03) 1f 42 31  0  -1107.1  4092002.8 -0.3  2 0 2000 2447 1110
[19]  40(B04) 1f 40 18  0  -1095.2  4092002.7  0.3  2 0 1123 1864  876
[20]  42(B06) 1f 42  7  0   -260.5  4092000.6  0.0  2 0 1444 2035  809
[21]  43(B07) 1f 43  9  0   -782.6  4092001.9  0.0  2 0 2014 2837 1309
[22]  45(B09) 1f 43  7  0   -839.7  4092002.1 -0.1  2 0 2382 2194  686
[24]  46(B10) 1f 43  7  0   -977.5  4092002.4  0.0  2 0 2006 2567 1157
[25]  52(B16) 1f 43  7  0   -283.5  4092000.6 -0.0  2 0 2061 2696 1268
[26]  54(B18) 1f 44  7  0   -937.0  4092002.3  0.0  2 0 2505 2861 1263
[27]  55(B19) 1f 40  7  0   2047.5  4091994.5 -0.0  2 0 1783 1905 1042
[28]  57(B21) 1f 42  7  0  -2353.9  4092006.0 -0.0  2 0 1800 2098  786
[29]  58(B22) 1f 44  7  0    339.2  4091999.0 -0.0  2 0 2426 3293 1791
[30]  63(B27) 1f 39  7  0    134.6  4091999.5  0.2  2 0 1369 1634  657
[32]  75(N-6)  f 43  7  0  -3611.3  1022002.3 -0.0  2 0  1177 1668  719
[33]  76(N-5)  f 46  7  0    155.2  1021999.9 -0.0  2 0  2191 3591 1494
[34]  78(N-3)  f 35  7  0  -3065.4  1022001.9  0.2  2 0   345  771  303
[35]  79(N-2)  f 37  7  0  -4894.8  1022003.0 -0.3  2 0   852  988  434
[36]  83(N02)  f 41  7  0   -296.1  1022000.2  0.1  2 0  1820 3211 1526
[37]  84(N03)  f 39  7  0     -1.4  1022000.0  0.1  2 0   906 1830  816
[38]  85(N04)  f 39 14  0   3064.3  1021998.0  0.0  2 0   709  792  364
[40]  86(N05)  f 39  7  0  -4810.6  1022003.1 -0.2  2 0   900 1600  892
[48]  37(B01)  7 10 10  1  -1634.2 20460025.9  0.1  2 0  274  531  328
[50]  39(B03)  1 19 10  0   -894.8 20460022.0  0.1  1 0  569  324  362
[51]  40(B04)  1 22 26  0   -456.7 20460018.7 -0.0  1 0  159  706  267
[52]  42(B06)  1  7  7  0  -1730.8 20460004.2 -0.1  1 0  243  332  420
[53]  43(B07)  1  7  7  0   -169.4 20460010.5  0.1  1 0  500  631  868
[54]  45(B09)  1  7  7  0   -148.1 20460013.6 -0.1  1 0  486  342  111
[56]  46(B10)  1  7  7  0     71.7 20460016.1  0.2  1 0  125  355  535
[57]  52(B16)  1  7  7  0   -485.6 20460003.4  0.1  1 0  610  316  387
[58]  54(B18)  1  7  7  0    506.3 20460015.5 -0.2  1 0  458  430  351
[59]  55(B19)  1  7  7  0    882.9 20459968.3  0.0  1 0  608   47  140
[60]  57(B21)  1  7  7  0  -2123.9 20460039.8  0.1  1 0  271  362  342
[61]  58(B22)  1  7  9  0   1357.4 20459994.2  0.2  1 0  505  203  235
[62]  63(B27)  1 10  7  0   -145.3 20459998.6 -0.0  1 0  279  239  329
Refix G03: 2,  95712.923686, 747
Refix G08: 2,  95712.917902, -4821
Refix G14: 2,  95712.924296, 1827
Refix G16: 2,  95712.933125, -1163
Refix G22: 2,  95712.921232, 1140
Refix G23: 2,  95712.925390, -3879
Refix G26: 2,  95712.930887, 631
Refix G27: 2,  95712.925522, -4381
Refix G31: 2,  95712.924614, 562
Refix G32: 2,  95712.918732, 2438
$GNGGA,023455.000,2944.9071,N,10633.0940,E,1,18,0.7,324.6,M,,,,0000*17
$GNRMC,023455.000,A,2944.9071,N,10633.0940,E,0.08,0.00,220419,,*12
$GPGSA,A,3,03,14,16,22,26,27,31,,,,,,0.8,0.7,0.4*3B
$BDGSA,A,3,01,03,04,06,07,09,10,16,19,21,22,,0.8,0.7,0.4*2B
$GLGSA,A,3,,,,,,,,,,,,,0.8,0.7,0.4*25
$GPGSV,3,1,10,03,28,247,42,14,29,139,41,16,76,287,44,22,22,226,43*7E
$GPGSV,3,2,10,23,38,315,43,26,60,024,45,27,34,167,43,31,34,070,43*76
$GPGSV,3,3,10,32,12,143,36,08,10,190,00*78
$BDGSV,3,1,12,01,40,126,40,02,45,218,32,03,54,172,42,04,23,110,40*65
$BDGSV,3,2,12,06,52,157,42,07,72,357,43,09,80,196,43,10,65,280,43*6D
$BDGSV,3,3,12,16,60,163,43,18,00,000,44,19,21,185,40,21,24,304,42*67
$B3CN0,0,0,0,0,0,0,0,0,0,0,0,0,0,0*4C
---00000016--- Acq_st=7 0  2019-4-22 2:34:55 
[00]  02(G03)  f 42  7  0    762.5  2045998.9 -0.0  2 0 1609 2823 1135
[01]  13(G14)  f 41  7  0   1835.8  2045997.6  0.1  2 0 1239 1908 1123
[02]  15(G16)  f 45  7  0  -1150.3  2046001.4 -0.1  2 0 2143 3390 1340
[03]  21(G22)  f 44  8  0   1150.5  2045998.5  0.0  2 0 1424 2698 1156
[04]  22(G23)  f 43 12  0  -3866.5  2046004.9 -0.0  2 0 1718 3526 2237
[05]  25(G26)  f 45 11  0    640.5  2045999.1  0.0  2 0 2797 3826 1513
[06]  26(G27)  f 43 11  0  -4371.3  2046005.6  0.0  2 0 1975 3120 1077
[08]  30(G31)  f 43  7  0    572.7  2045999.2 -0.0  2 0 2176 3122 1294
[09]  31(G32)  f 35  7  0   2445.0  2045996.8  0.2  2 0  106  385 1099
[16]  37(B01) 1f 40 22  0  -1101.1  4092002.7  0.0  2 0 1157 1521  755
[17]  38(B02)  f 33 27  0  -1054.6  4092002.5 -0.2  2 0 1446  379  355
[18]  39(B03) 1f 43 30  0  -1095.3  4092002.8  0.1  2 0 1220 1659  910
[19]  40(B04) 1f 40 23  0  -1084.7  4092002.7 -0.1  2 0 1024 1132  269
[20]  42(B06) 1f 42  9  0   -249.3  4092000.5  0.1  2 0 1541 2299 1191
[21]  43(B07) 1f 43 12  0   -773.2  4092001.9  0.0  2 0 1401 1617  529
[22]  45(B09) 1f 43  7  0   -825.8  4092002.1 -0.0  2 0 2143 2618  873
[24]  46(B10) 1f 43  7  0   -966.1  4092002.4  0.0  2 0 2049 2422  668
[25]  52(B16) 1f 43  7  0   -270.9  4092000.6  0.0  2 0 1315 1835  665
[26]  54(B18) 1f 44  7  0   -922.6  4092002.3 -0.0  2 0 2203 3239 1162
[27]  55(B19) 1f 40  7  0   2052.5  4091994.5  0.0  2 0 1146 1220  521
[28]  57(B21) 1f 43  7  0  -2338.6  4092006.0 -0.1  2 0 1813 2140 1214
[29]  58(B22) 1f 44  7  0    353.8  4091999.0 -0.0  2 0 2410 2990 1649
[30]  63(B27) 1f 39  7  0    143.5  4091999.5  0.0  2 0  760 1046  599
[32]  75(N-6)  f 43  7  0  -3598.3  1022002.3  0.1  2 0   966 1788 1226
[33]  76(N-5)  f 46  7  0    169.1  1021999.9 -0.0  2 0  2119 3595 1549
[34]  78(N-3)  f 37  7  0  -3054.4  1022001.9  0.0  2 0   527  788  185
[35]  79(N-2)  f 37  7  0  -4878.5  1022003.0  0.2  2 0   621  839  504
[36]  83(N02)  f 46  7  0   -282.9  1022000.1  0.0  2 0  1900 3219 1439
[37]  84(N03)  f 43  7  0     11.5  1021999.9 -0.1  2 0   921 1250  822
[38]  85(N04)  f 41  7  0   3075.7  1021998.0 -0.1  2 0   693 1321  924
[40]  86(N05)  f 42  7  0  -4797.2  1022002.9  0.0  2 0   735 1264  236
[48]  37(B01)  7 10 10  1  -1901.7 20460029.3 -0.1  2 0  520  268  322
[52]  42(B06)  1  8  7  0  -1693.8 20460004.1 -0.0  1 0  146  483  535
[53]  43(B07)  1  7  7  0    104.8 20460010.7 -0.1  1 0  481  247  128
[54]  45(B09)  1  7  7  0   -307.8 20460012.7 -0.1  1 0  435  145  213
[56]  46(B10)  1  7  7  0    231.5 20460013.8  0.0  1 0  370  195  385
[57]  52(B16)  1  7  7  0   -119.1 20460004.6 -0.1  1 0  367  512  929
[58]  54(B18)  1  7  7  0    741.4 20460016.8 -0.0  1 0  883  679  786
[59]  55(B19)  1  7  7  0   1075.8 20459967.0  0.0  1 0  371  357  349
[60]  57(B21)  1  7  7  0  -2996.7 20460038.8  0.0  1 0  514  411  546
[61]  58(B22)  1  8  7  0    980.8 20459996.4 -0.0  1 0   71  357  498
[62]  63(B27)  1  7  7  0   -331.2 20459998.8  0.2  1 0  454  521  983
Refix G03: 2,  95713.923685, 758
Refix G08: 2,  95713.917905, -4812
Refix G14: 2,  95713.924294, 1836
Refix G16: 2,  95713.933125, -1151
Refix G22: 2,  95713.921231, 1150
Refix G23: 2,  95713.925393, -3868
Refix G26: 2,  95713.930886, 642
Refix G27: 2,  95713.925525, -4370
Refix G31: 2,  95713.924614, 572
Refix G32: 2,  95713.918730, 2447
$GNGGA,023456.000,2944.9071,N,10633.0940,E,1,20,0.7,324.6,M,,,,0000*1F
$GNRMC,023456.000,A,2944.9071,N,10633.0940,E,0.31,0.00,220419,,*1B
$GPGSA,A,3,03,14,16,22,23,26,27,31,32,,,,0.8,0.7,0.4*3B
$BDGSA,A,3,01,03,04,06,07,09,10,16,19,21,22,,0.8,0.7,0.4*2B
$GLGSA,A,3,,,,,,,,,,,,,0.8,0.7,0.4*25
$GPGSV,3,1,10,03,28,247,42,14,29,139,41,16,76,287,45,22,22,226,44*78
$GPGSV,3,2,10,23,38,315,43,26,60,024,45,27,34,167,43,31,34,070,43*76
$GPGSV,3,3,10,32,12,143,35,08,10,190,00*7B
$BDGSV,3,1,12,01,40,126,40,02,45,218,33,03,54,172,43,04,23,110,40*65
$BDGSV,3,2,12,06,52,157,42,07,72,357,43,09,80,196,43,10,65,280,43*6D
$BDGSV,3,3,12,16,60,163,43,18,00,000,44,19,21,185,40,21,24,304,43*66
$B3CN0,0,0,0,0,0,0,0,0,0,0,0,0,0,0*4C
---00000017--- Acq_st=3 0  2019-4-22 2:34:56 
[00]  02(G03)  f 42  7  0    760.4  2045998.9  0.0  2 0 1436 2497  860
[01]  13(G14)  f 41  7  0   1844.5  2045997.6  0.0  2 0 1760 2494 1390
[02]  15(G16)  f 45  7  0  -1150.9  2046001.4  0.0  2 0 1822 2923 1407
[03]  21(G22)  f 44 11  0   1154.8  2045998.4  0.0  2 0 1122 2058  816
[04]  22(G23)  f 43  7  0  -3863.6  2046005.0  0.0  2 0 1610 3077 1680
[05]  25(G26)  f 45  7  0    646.6  2045999.1  0.0  2 0 2503 4007 1550
[06]  26(G27)  f 43 12  0  -4369.9  2046005.6 -0.0  2 0 1701 2970 1486
[08]  30(G31)  f 43  7  0    580.6  2045999.2 -0.0  2 0 1962 2416 1011
[09]  31(G32)  f 36  7  0   2448.3  2045996.8  0.1  2 0  696 1499 1007
[10]  07(G08)  1  7  7  0  -4750.0  2046006.7  0.0  1 0  551  219  359
[16]  37(B01) 1f 40 19  0  -1092.2  4092002.8 -0.9  2 0  840  770   34
[17]  38(B02) 1f 34 24  0  -1052.8  4092002.5 -0.2  2 0 1308  849  568
[18]  39(B03) 1f 43 31  0  -1089.7  4092002.7  0.0  2 0 1572 2112  953
[19]  40(B04) 1f 40 21  0  -1078.1  4092002.8 -0.0  2 0  711 1466  463
[20]  42(B06) 1f 42  8  0   -244.5  4092000.5 -0.0  2 0 1678 2387 1009
[21]  43(B07) 1f 43 13  0   -769.8  4092001.9  0.0  2 0 2187 2565 1052
[22]  45(B09) 1f 43  7  0   -828.1  4092002.0 -0.0  2 0 1804 2285  885
[24]  46(B10) 1f 43  7  0   -963.4  4092002.4 -0.1  2 0 1868 2514 1400
[25]  52(B16) 1f 43  7  0   -270.8  4092000.6 -0.0  2 0 2097 2526  858
[26]  54(B18) 1f 44  7  0   -918.9  4092002.3 -0.1  2 0 2879 3578 1461
[27]  55(B19) 1f 40  7  0   2059.9  4091994.5 -0.0  2 0 1203 1215  111
[28]  57(B21) 1f 43  7  0  -2334.0  4092006.0  0.0  2 0 1832 2217 1014
[29]  58(B22) 1f 44  7  0    355.5  4091998.9  0.0  2 0 2372 2914 1119
[30]  63(B27) 1f 38  7  0    148.3  4091999.5 -0.0  2 0 1227 1490  901
[32]  75(N-6)  f 43  7  0  -3595.8  1022002.3 -0.0  2 0   727 1646  718
[33]  76(N-5)  f 46  7  0    170.2  1021999.9 -0.1  2 0  2434 3834 1955
[34]  78(N-3)  f 37  7  0  -3051.7  1022001.9  0.2  2 0    73  661  377
[35]  79(N-2)  f 38  7  0  -4881.1  1022003.1 -0.1  2 0   419  360  156
[36]  83(N02)  f 45  7  0   -281.5  1022000.2  0.0  2 0  1970 3320 1555
[37]  84(N03)  f 42  7  0     12.9  1021999.9 -0.1  2 0   686 1392  549
[38]  85(N04)  f 41  7  0   3078.4  1021998.0 -0.1  2 0   606 1039  575
[40]  86(N05)  f 41  7  0  -4794.7  1022003.0  0.0  2 0   997 1406  332
[50]  39(B03)  1 22 10  1   -659.6 20460016.5  0.1  1 0  378  294  667
[51]  40(B04)  1 23 22  1   -520.8 20460018.8  0.0  1 0  340  168  318
Refix G03: 2,  95714.923685, 760
Refix G08: 2,  95714.917908, -4810
Refix G14: 2,  95714.924293, 1840
Refix G16: 2,  95714.933126, -1148
Refix G22: 2,  95714.921231, 1153
Refix G23: 2,  95714.925395, -3865
Refix G26: 2,  95714.930886, 645
Refix G27: 2,  95714.925528, -4367
Refix G31: 2,  95714.924613, 575
Refix G32: 2,  95714.918729, 2450
$GNGGA,023457.000,2944.9070,N,10633.0936,E,1,21,0.6,324.6,M,,,,0000*1E
$GNRMC,023457.000,A,2944.9070,N,10633.0936,E,0.10,0.00,220419,,*19
$GPGSA,A,3,03,14,16,22,23,26,27,31,32,,,,0.8,0.6,0.4*3A
$BDGSA,A,3,01,02,03,04,06,07,09,10,16,19,21,22,0.8,0.6,0.4*28
$GLGSA,A,3,,,,,,,,,,,,,0.8,0.6,0.4*24
$GPGSV,3,1,10,03,28,247,42,14,29,139,41,16,76,287,45,22,22,226,44*78
$GPGSV,3,2,10,23,38,315,43,26,60,024,45,27,34,167,43,31,34,070,43*76
$GPGSV,3,3,10,32,12,143,36,08,10,190,00*78
$BDGSV,3,1,12,01,40,126,40,02,45,218,34,03,54,172,43,04,23,110,40*62
$BDGSV,3,2,12,06,52,157,42,07,72,357,43,09,80,196,43,10,65,280,43*6D
$BDGSV,3,3,12,16,60,163,43,18,00,000,44,19,21,185,40,21,24,304,43*66
$B3CN0,0,0,0,0,0,0,0,0,0,0,0,0,0,0*4C
---00000018--- Acq_st=3 0  2019-4-22 2:34:57 
[00]  02(G03)  f 42  7  0    755.0  2045999.0  0.1  2 0 1574 2349  852
[01]  13(G14)  f 41  7  0   1831.3  2045997.5  0.0  2 0 1260 1849  829
[02]  15(G16)  f 44  7  0  -1156.4  2046001.4 -0.0  2 0 1983 3342 2360
[03]  21(G22)  f 43  7  0   1144.7  2045998.5 -0.0  2 0 1878 3165 1257
[04]  22(G23)  f 43  7  0  -3870.7  2046005.0 -0.0  2 0 2234 2811  980
[05]  25(G26)  f 44  7  0    639.0  2045999.1  0.0  2 0 2252 4084 2138
[06]  26(G27)  f 43  7  0  -4376.3  2046005.6 -0.1  2 0  900 2109  923
[08]  30(G31)  f 43  7  0    569.2  2045999.2 -0.1  2 0 1772 2931 1194
[09]  31(G32)  f 36  7  0   2444.5  2045996.8 -0.8  2 0  323  928  778
[10]  07(G08)  1  7  7  0  -4257.4  2046007.3 -0.1  1 0   32  174  415
[16]  37(B01) 1f 41 18  0  -1105.1  4092002.7  0.3  2 0 1630 1922 1014
[17]  38(B02) 1f 36 23  0  -1056.6  4092002.6 -0.3  2 0 1480  845  262
[18]  39(B03) 1f 45 29  0  -1098.8  4092002.8  0.4  2 0 1764 1961  502
[19]  40(B04) 1f 41 10  0  -1086.7  4092002.7 -0.5  2 0 1681 1892  735
[20]  42(B06) 1f 42  7  0   -253.9  4092000.5  0.1  2 0 1457 2079  860
[21]  43(B07) 1f 43 14  0   -777.2  4092001.9 -0.0  2 0 2048 2445 1054
[22]  45(B09) 1f 43  7  0   -833.9  4092002.1  0.0  2 0 2054 2089  865
[24]  46(B10) 1f 43 10  0   -967.2  4092002.4 -0.0  2 0 2173 2893  878
[25]  52(B16) 1f 43  7  0   -275.8  4092000.6 -0.0  2 0 1879 2318  693
[26]  54(B18) 1f 44  7  0   -928.9  4092002.3  0.1  2 0 2541 2993  603
[27]  55(B19) 1f 40  7  0   2054.1  4091994.5  0.0  2 0 1340 1625  915
[28]  57(B21) 1f 42  7  0  -2341.5  4092006.0  0.0  2 0 1667 2125  608
[29]  58(B22) 1f 44  7  0    348.8  4091998.9 -0.1  2 0 2631 3184 1088
[30]  63(B27) 1f 39  7  0    142.7  4091999.5  0.1  2 0  526  893  592
[32]  75(N-6)  f 43  7  0  -3603.6  1022002.2  0.0  2 0  1054 2065  953
[33]  76(N-5)  f 47  7  0    163.7  1021999.9  0.0  2 0  2066 3705 1444
[34]  78(N-3)  f 37  7  0  -3055.9  1022001.9  0.0  2 0   425  620  309
[35]  79(N-2)  f 37  7  0  -4889.2  1022003.1 -0.2  2 0   605  624  340
[36]  83(N02)  f 45  7  0   -288.5  1022000.2 -0.0  2 0  1981 3710 1607
[37]  84(N03)  f 42  7  0      6.0  1022000.0  0.1  2 0   886 1523  638
[38]  85(N04)  f 42 10  0   3071.9  1021998.0 -0.0  2 0   789 1620  877
[40]  86(N05)  f 42  7  0  -4803.1  1022003.1 -0.1  2 0  1029 1627  761
[48]  37(B01)  1 10 18  0   -670.3 20460018.1 -0.1  1 0  663  599  665
[50]  39(B03)  1 22 16  1   -129.5 20460018.2  0.0  1 0  520 1028  943
[51]  40(B04)  1 22 24  1   -433.6 20460022.0  0.1  1 0  475  584  747
[52]  42(B06)  1  7  7  0    111.9 20460005.6  0.0  1 0  400  439  673
[53]  43(B07)  1  7  7  0   -327.5 20460009.4 -0.0  1 0  987 1106  721
[54]  45(B09)  1  7  7  0   -514.7 20460012.9 -0.1  1 0 1025  217  493
[56]  46(B10)  1  7  7  0   -518.8 20460014.5 -0.1  1 0  635  888  634
[57]  52(B16)  1 11  8  0   -112.7 20460003.3  0.0  1 0  151  185   64
[58]  54(B18)  1  8  7  0   -524.6 20460012.9  0.1  1 0  620  430  416
[59]  55(B19)  1  7  7  0   1733.3 20459968.5  0.2  1 0  200  388  444
[60]  57(B21)  1  7  7  0  -1974.7 20460037.5 -0.4  1 0  366   70  304
[61]  58(B22)  1  7  7  0    186.5 20459995.9  0.1  1 0  426  524  424
[62]  63(B27)  1  7  7  0    158.9 20459998.5  0.0  1 0  193  192  197
Refix G03: 2,  95715.923684, 754
Refix G08: 2,  95715.917911, -4816
Refix G14: 2,  95715.924292, 1833
Refix G16: 2,  95715.933127, -1156
Refix G22: 2,  95715.921230, 1146
Refix G23: 2,  95715.925398, -3871
Refix G26: 2,  95715.930886, 638
Refix G27: 2,  95715.925531, -4374
Refix G31: 2,  95715.924613, 569
Refix G32: 2,  95715.918727, 2444
$GNGGA,023458.000,2944.9067,N,10633.0933,E,1,21,0.6,324.7,M,,,,0000*13
$GNRMC,023458.000,A,2944.9067,N,10633.0933,E,0.39,0.00,220419,,*1E
$GPGSA,A,3,03,14,16,22,23,26,27,31,32,,,,0.8,0.6,0.4*3A
$BDGSA,A,3,01,02,03,04,06,07,09,10,16,19,21,22,0.8,0.6,0.4*28
$GLGSA,A,3,,,,,,,,,,,,,0.8,0.6,0.4*24
$GPGSV,3,1,10,03,28,247,42,14,29,139,41,16,76,287,44,22,22,226,43*7E
$GPGSV,3,2,10,23,38,315,43,26,60,024,44,27,34,167,43,31,34,070,43*77
$GPGSV,3,3,10,32,12,143,36,08,10,190,00*78
$BDGSV,3,1,12,01,40,126,41,02,45,218,36,03,54,172,45,04,23,110,41*66
$BDGSV,3,2,12,06,52,157,42,07,72,357,43,09,80,196,43,10,65,280,43*6D
$BDGSV,3,3,12,16,60,163,43,18,00,000,44,19,21,185,40,21,24,304,42*67
$B3CN0,0,0,0,0,0,0,0,0,0,0,0,0,0,0*4C
---00000019--- Acq_st=3 0  2019-4-22 2:34:58 
[00]  02(G03)  f 41  7  0    748.6  2045999.0  0.1  2 0 1770 2675 1016
[01]  13(G14)  f 41  7  0   1830.4  2045997.5  0.1  2 0 1314 2115 1269
[02]  15(G16)  f 44  7  0  -1160.4  2046001.4 -0.1  2 0 1803 3267 1937
[03]  21(G22)  f 43  7  0   1141.8  2045998.5 -0.0  2 0 1840 3162 1658
[04]  22(G23)  f 43  7  0  -3877.0  2046005.0  0.0  2 0 1993 2875 1054
[05]  25(G26)  f 45  7  0    635.1  2045999.1  0.1  2 0 2461 3630 1563
[06]  26(G27)  f 43  7  0  -4379.7  2046005.6  0.0  2 0 1474 2629 1642
[08]  30(G31)  f 43  7  0    565.8  2045999.2  0.0  2 0 1879 3056 1925
[09]  31(G32)  f 37  7  0   2437.1  2045996.8  0.2  2 0 1093 1478  811
[10]  07(G08)  1  7  8  0  -4383.4  2046006.5 -0.1  1 0  404  378  524
[16]  37(B01) 1f 40 10  0  -1105.4  4092002.8  0.4  2 0 1266 1756  755
[17]  38(B02) 1f 37 27  0  -1067.3  4092002.5 -0.7  2 0  997  192  218
[18]  39(B03) 1f 43 30  0  -1101.6  4092002.8  0.1  2 0 1705 1950  674
[19]  40(B04) 1f 39 23  0  -1099.9  4092002.8  0.0  2 0 1108 1322  454
[20]  42(B06) 1f 42 11  0   -260.6  4092000.6 -0.0  2 0 1449 2023 1018
[21]  43(B07) 1f 44 11  0   -780.8  4092001.9  0.1  2 0 1593 2630 1310
[22]  45(B09) 1f 43  7  0   -836.2  4092002.0  0.0  2 0 1064 1890  480
[24]  46(B10) 1f 43 11  0   -975.5  4092002.4  0.1  2 0 1954 2424  964
[25]  52(B16) 1f 43  7  0   -280.6  4092000.6  0.0  2 0 2096 2706 1364
[26]  54(B18) 1f 44  7  0   -932.9  4092002.3 -0.0  2 0 1786 2762 1212
[27]  55(B19) 1f 40  7  0   2046.3  4091994.5  0.1  2 0  897 1407  822
[28]  57(B21) 1f 42  8  0  -2349.7  4092006.1 -0.1  2 0 1558 1614  151
[29]  58(B22) 1f 44  7  0    345.0  4091999.0  0.1  2 0 2588 2671  637
[30]  63(B27) 1f 39  7  0    138.6  4091999.5 -0.1  2 0 1206 1243  493
[32]  75(N-6)  f 44  7  0  -3606.7  1022002.3 -0.0  2 0   954 1802  580
[33]  76(N-5)  f 47  7  0    160.8  1021999.9 -0.0  2 0  2206 3564 1831
[34]  78(N-3)  f 37  7  0  -3060.4  1022001.9 -0.0  2 0   379  571  121
[35]  79(N-2)  f 38  7  0  -4894.0  1022003.0 -0.3  2 0   306  840  410
[36]  83(N02)  f 45  7  0   -292.6  1022000.2  0.0  2 0  1969 3441 1511
[37]  84(N03)  f 42  7  0      3.3  1022000.0 -0.0  2 0   706 1494  709
[38]  85(N04)  f 41 10  0   3067.9  1021998.0  0.0  2 0   848 1411  481
[40]  86(N05)  f 42  7  0  -4806.5  1022003.0  0.0  2 0   874 1397  810
[48]  37(B01)  1 10 14  0   -978.8 20460021.7 -0.0  1 0  394  265  475
[49]  38(B02)  1 10 10  1   -856.0 20460016.9  0.2  1 0  262  358  330
[50]  39(B03)  1 23 18  0   -141.1 20460019.2 -0.0  1 0  179  102  246
[51]  40(B04)  1 23 22  1   -764.8 20460016.4  0.1  1 0  227  555  660
[52]  42(B06)  1  7  7  0    416.2 20460003.8 -0.0  1 0  556  700  475
[53]  43(B07)  1  7  7  0   -206.5 20460011.9  0.0  1 0  321   33  295
[54]  45(B09)  1  7  7  0   -801.9 20460013.1 -0.0  1 0  177  368  251
[56]  46(B10)  1  7  7  0   -691.5 20460012.9 -0.2  1 0  709  583  134
[57]  52(B16)  1  7  8  0   -119.7 20460003.7 -0.2  1 0  421  513  801
[58]  54(B18)  1  7  7  0   -545.1 20460015.4 -0.1  1 0  807  713  423
[59]  55(B19)  1  7  7  0   1992.6 20459966.2  0.2  1 0  281  611  514
[60]  57(B21)  1  7  7  0  -2049.3 20460036.5  0.0  1 0  160  521  284
[61]  58(B22)  1  7  7  0    151.8 20459992.6  0.2  1 0  184  704  554
[62]  63(B27)  1  7  7  0    570.1 20459997.4 -0.1  1 0  599  922  638
Refix G03: 2,  95716.923684, 750
Refix G08: 2,  95716.917914, -4820
Refix G14: 2,  95716.924291, 1829
Refix G16: 2,  95716.933127, -1160
Refix G22: 2,  95716.921229, 1142
Refix G23: 2,  95716.925400, -3876
Refix G26: 2,  95716.930885, 633
Refix G27: 2,  95716.925533, -4379
Refix G31: 2,  95716.924613, 564
Refix G32: 2,  95716.918726, 2440
$GNGGA,023459.000,2944.9067,N,10633.0932,E,1,21,0.6,324.7,M,,,,0000*13
$GNRMC,023459.000,A,2944.9067,N,10633.0932,E,0.29,0.00,220419,,*1F
$GPGSA,A,3,03,14,16,22,23,26,27,31,32,,,,0.8,0.6,0.4*3A
$BDGSA,A,3,01,02,03,04,06,07,09,10,16,19,21,22,0.8,0.6,0.4*28
$GLGSA,A,3,,,,,,,,,,,,,0.8,0.6,0.4*24
$GPGSV,3,1,10,03,28,247,41,14,29,139,41,16,76,287,44,22,22,226,43*7D
$GPGSV,3,2,10,23,38,315,43,26,60,024,45,27,34,167,43,31,34,070,43*76
$GPGSV,3,3,10,32,12,143,37,08,10,190,00*79
$BDGSV,3,1,12,01,40,126,40,02,45,218,37,03,54,172,43,04,23,110,39*6F
$BDGSV,3,2,12,06,52,157,42,07,72,357,44,09,80,196,43,10,65,280,43*6A
$BDGSV,3,3,12,16,60,163,43,18,00,000,44,19,21,185,40,21,24,304,42*67
$B3CN0,0,0,0,0,0,0,0,0,0,0,0,0,0,0*4C
---00000020--- Acq_st=3 0  2019-4-22 2:34:59 
[00]  02(G03)  f 42  7  0    754.4  2045999.0  0.0  2 0 2071 3197 1376
[01]  13(G14)  f 41  8  0   1829.8  2045997.6 -0.0  2 0 1077 1772  937
[02]  15(G16)  f 44  7  0  -1160.7  2046001.4  0.0  2 0 1767 2936 1215
[03]  21(G22)  f 43  7  0   1140.2  2045998.5  0.1  2 0 1536 3312 1318
[04]  22(G23)  f 44 10  0  -3876.7  2046005.0 -0.0  2 0 2561 3032 1255
[05]  25(G26)  f 45  7  0    633.8  2045999.1 -0.0  2 0 2641 3938 1603
[06]  26(G27)  f 43  9  0  -4378.1  2046005.6 -0.0  2 0 1221 2054  923
[08]  30(G31)  f 43  7  0    563.4  2045999.2 -0.0  2 0 2107 2926 1521
[09]  31(G32)  f 37  8  0   2434.2  2045996.8  0.3  2 0  441 1173  330
[10]  07(G08)  1  7  7  0  -4400.3  2046006.0  0.1  1 0  441  390  186
[16]  37(B01) 1f 41 23  0  -1108.8  4092002.9  0.2  2 0 1634 1824  843
[17]  38(B02) 1f 39 24  0  -1059.6  4092002.6  0.4  2 0 1359 1462  837
[18]  39(B03) 1f 45 30  0  -1103.6  4092002.7  0.6  2 0 1249 1709  807
[19]  40(B04) 1f 41 36  0  -1092.3  4092002.8 -0.2  2 0  951 1643  840
[20]  42(B06) 1f 42  7  0   -255.7  4092000.5  0.0  2 0  932 1389  984
[21]  43(B07) 1f 43 11  0   -782.5  4092001.9 -0.0  2 0 2053 2424  932
[22]  45(B09) 1f 43  9  0   -839.0  4092002.1  0.0  2 0 2231 2879 1093
[24]  46(B10) 1f 43  8  0   -975.6  4092002.4 -0.0  2 0 1590 2448  858
[25]  52(B16) 1f 43  8  0   -282.2  4092000.6 -0.0  2 0 1512 2228 1031
[26]  54(B18) 1f 44  7  0   -933.9  4092002.3  0.0  2 0 2132 2735 1065
[27]  55(B19) 1f 40  7  0   2044.7  4091994.5 -0.0  2 0 1348 1388  681
[28]  57(B21) 1f 43  7  0  -2349.1  4092006.0 -0.0  2 0 2076 2886 1492
[29]  58(B22) 1f 44  7  0    344.5  4091999.0 -0.0  2 0 2116 2934 1516
[30]  63(B27) 1f 39  7  0    137.5  4091999.5 -0.1  2 0 1151 1674  804
[32]  75(N-6)  f 44  7  0  -3606.9  1022002.3  0.1  2 0  1288 1750  771
[33]  76(N-5)  f 47  7  0    160.2  1021999.9 -0.0  2 0  1843 3296 1554
[34]  78(N-3)  f 37  7  0  -3061.1  1022001.9 -0.1  2 0   774  521  211
[35]  79(N-2)  f 37  7  0  -4893.6  1022003.1  0.2  2 0   480  757  975
[36]  83(N02)  f 46  7  0   -294.3  1022000.2  0.0  2 0  1916 3111 1612
[37]  84(N03)  f 42  7  0      2.9  1022000.0 -0.0  2 0   961 1305  488
[38]  85(N04)  f 42  7  0   3066.6  1021998.0 -0.0  2 0  1032 1627  514
[40]  86(N05)  f 42  7  0  -4809.0  1022003.1 -0.1  2 0   744 1262  675
[48]  37(B01)  1 10 10  1   -855.2 20460017.8 -0.1  1 0  594  543  434
[49]  38(B02)  1 10 10  1  -1031.5 20460018.3  0.1  1 0 1198  354  410
[50]  39(B03)  1 17 10  0     86.7 20460024.5  0.2  1 0  193  498  783
[51]  40(B04)  1 16 19  0   -870.2 20460023.6  0.1  1 0  817  959  601
[52]  42(B06)  1  7  7  0    457.2 20460002.7 -0.0  1 0  208  791 1174
[53]  43(B07)  1  7  7  0   -253.2 20460011.5  0.0  1 0  422  389  598
[54]  45(B09)  1  7  7  0  -1034.0 20460011.5 -0.0  1 0  265  419  582
[56]  46(B10)  1  7  7  0   -772.4 20460014.6 -0.1  1 0  568  161  404
[57]  52(B16)  1  7  7  0    -98.1 20460005.5 -0.2  1 0  325  476  548
[58]  54(B18)  1  7  7  0   -708.1 20460013.9 -0.1  1 0  881  580   70
[59]  55(B19)  1  7  7  0   2012.1 20459968.4  0.1  1 0  820  454  671
[60]  57(B21)  1  7  7  0  -2103.9 20460036.8  0.1  1 0  196  287  497
[61]  58(B22)  1  7  7  0    467.0 20459994.4  0.1  1 0  396  524  701
[62]  63(B27)  1  7  7  0    409.1 20459996.7 -0.1  1 0  300  414  453
Refix G03: 2,  95717.923683, 749
Refix G08: 2,  95717.917917, -4822
Refix G14: 2,  95717.924290, 1828
Refix G16: 2,  95717.933128, -1160
Refix G22: 2,  95717.921228, 1141
Refix G23: 2,  95717.925402, -3877
Refix G26: 2,  95717.930885, 633
Refix G27: 2,  95717.925536, -4380
Refix G31: 2,  95717.924612, 563
Refix G32: 2,  95717.918724, 2438
$GNGGA,023500.000,2944.9066,N,10633.0932,E,1,21,0.6,324.7,M,,,,0000*1F
$GNRMC,023500.000,A,2944.9066,N,10633.0932,E,0.38,0.00,220419,,*13
$GPGSA,A,3,03,14,16,22,23,26,27,31,32,,,,0.8,0.6,0.4*3A
$BDGSA,A,3,01,02,03,04,06,07,09,10,16,19,21,22,0.8,0.6,0.4*28
$GLGSA,A,3,,,,,,,,,,,,,0.8,0.6,0.4*24
$GPGSV,3,1,10,03,28,247,42,14,29,139,41,16,76,287,44,22,22,226,43*7E
$GPGSV,3,2,10,23,38,315,44,26,60,024,45,27,34,167,43,31,34,070,43*71
$GPGSV,3,3,10,32,12,143,37,08,10,190,00*79
$BDGSV,3,1,12,01,40,126,41,02,45,218,39,03,54,172,43,04,23,110,41*6F
$BDGSV,3,2,12,06,52,157,42,07,72,357,43,09,80,196,43,10,65,280,43*6D
$BDGSV,3,3,12,16,60,163,43,18,00,000,44,19,21,185,40,21,24,304,43*66
$B3CN0,0,0,0,0,0,0,0,0,0,0,0,0,0,0*4C
---00000021--- Acq_st=3 0  2019-4-22 2:35:0 
[00]  02(G03)  f 41  7  0    753.4  2045999.0 -0.0  2 0 1834 2533 1393
[01]  13(G14)  f 42  7  0   1828.2  2045997.5 -0.1  2 0 1740 1990  258
[02]  15(G16)  f 44  7  0  -1160.9  2046001.4  0.0  2 0 1887 3432 1581
[03]  21(G22)  f 43  8  0   1142.1  2045998.4 -0.0  2 0 1497 2317  423
[04]  22(G23)  f 43  8  0  -3872.3  2046005.0  0.0  2 0 1631 2423 1297
[05]  25(G26)  f 45  7  0    633.6  2045999.1 -0.0  2 0 3173 4212 1496
[06]  26(G27)  f 43  7  0  -4378.7  2046005.6  0.1  2 0 1973 2583 1242
[08]  30(G31)  f 43  7  0    562.3  2045999.2 -0.0  2 0 1761 2968 1498
[09]  31(G32)  f 36 11  0   2436.1  2045996.8  0.4  2 0  206  654  221
[10]  07(G08)  1  7  7  0  -4418.0  2046005.6 -0.0  1 0  852  446  121
[16]  37(B01) 1f 40 23  0  -1109.5  4092002.8 -0.7  2 0 1407 2221 1291
[17]  38(B02) 1f 39 10  0  -1059.4  4092002.6 -0.7  2 0 1128 1110  110
[18]  39(B03) 1f 43 31  0  -1104.0  4092002.7  0.2  2 0 1782 2110  766
[19]  40(B04) 1f 40 10  0  -1091.7  4092002.6 -0.4  2 0  965 1146  547
[20]  42(B06) 1f 42 12  0   -259.5  4092000.5 -0.0  2 0 1579 1957  505
[21]  43(B07) 1f 43  7  0   -781.0  4092001.9  0.0  2 0 2004 2799  954
[22]  45(B09) 1f 43  7  0   -832.8  4092002.0 -0.0  2 0 2222 2390  831
[24]  46(B10) 1f 43  9  0   -977.4  4092002.4 -0.0  2 0 1901 2457 1264
[25]  52(B16) 1f 43  7  0   -279.0  4092000.6  0.0  2 0 1707 2456 1136
[26]  54(B18) 1f 44  7  0   -932.2  4092002.3  0.0  2 0 2155 2667  793
[27]  55(B19) 1f 40  7  0   2050.3  4091994.5  0.2  2 0 1180 1432  790
[28]  57(B21) 1f 42  7  0  -2349.9  4092006.0  0.0  2 0 1691 2370  995
[29]  58(B22) 1f 44 10  0    344.1  4091999.0  0.0  2 0 2712 3478 1260
[30]  63(B27) 1f 39  7  0    133.8  4091999.5 -0.0  2 0 1094 1012  109
[32]  75(N-6)  f 44 10  0  -3605.4  1022002.3  0.0  2 0   793 1592  777
