SD initialized success
Create debug.log Failed! 3
bbram_blkflag = 1
rtcflag = 0
BBRAM Block OK: 01 EPHflag: 282714cd 300012df, rtc 00
Hot-start nowtime:day = 24,minute = 0,seconds = 18.00
GPS Pred_Dopp 1  -504.35
sv_pvt.vx:169.662476,sv_pvt.vy:-1839.092163,sv_pvt.vz:2463.074463
vel[0]:0.210000, vel[1]:-0.490000, vel[2]:-0.200000
-0.582843 0.607533 0.539628,df:-209.450000
BD Pred_Dopp 1 -1073.69
BD Pred_Dopp 2 -1118.35
GPS Pred_Dopp 3 -3542.74
sv_pvt.vx:-913.745178,sv_pvt.vy:22.795166,sv_pvt.vz:3020.269531
vel[0]:0.210000, vel[1]:-0.490000, vel[2]:-0.200000
-0.858458 0.300093 -0.415925,df:-209.450000
BD Pred_Dopp 3 -1091.10
GPS Pred_Dopp 4  1148.30
sv_pvt.vx:-1593.037720,sv_pvt.vy:-1225.042969,sv_pvt.vz:-2192.306396
vel[0]:0.210000, vel[1]:-0.490000, vel[2]:-0.200000
0.292315 0.601335 -0.743605,df:-209.450000
BD Pred_Dopp 4 -1088.77
BD Pred_Dopp 5 -1127.15
GPS Pred_Dopp 7  1515.02
sv_pvt.vx:-277.588165,sv_pvt.vy:-319.390747,sv_pvt.vz:-3185.628906
vel[0]:0.210000, vel[1]:-0.490000, vel[2]:-0.200000
-0.243173 0.942465 -0.229404,df:-209.450000
BD Pred_Dopp 7 -1165.14
GPS Pred_Dopp 8  1453.82
sv_pvt.vx:-1682.890625,sv_pvt.vy:-1607.419556,sv_pvt.vz:-1727.558350
vel[0]:0.210000, vel[1]:-0.490000, vel[2]:-0.200000
-0.737957 -0.216607 0.639141,df:-209.450000
BD Pred_Dopp 8 -1410.09
BD Pred_Dopp 10 -1498.56
GPS Pred_Dopp 11   600.95
sv_pvt.vx:-782.761536,sv_pvt.vy:-2415.856201,sv_pvt.vz:1212.899048
vel[0]:0.210000, vel[1]:-0.490000, vel[2]:-0.200000
-0.493949 0.410911 0.766268,df:-209.450000
GPS Pred_Dopp 13  -666.34
sv_pvt.vx:1013.507202,sv_pvt.vy:1446.690186,sv_pvt.vz:-2484.276367
vel[0]:0.210000, vel[1]:-0.490000, vel[2]:-0.200000
0.893173 0.155829 0.421852,df:-209.450000
BD Pred_Dopp 13 -1908.01
GPS Pred_Dopp 17 -2527.92
sv_pvt.vx:-898.234924,sv_pvt.vy:-638.678406,sv_pvt.vz:2941.609375
vel[0]:0.210000, vel[1]:-0.490000, vel[2]:-0.200000
0.653100 0.710752 0.261326,df:-209.450000
GPS Pred_Dopp 18  1198.14
sv_pvt.vx:238.819092,sv_pvt.vy:-2562.656494,sv_pvt.vz:1342.018677
vel[0]:0.210000, vel[1]:-0.490000, vel[2]:-0.200000
-0.635206 0.165332 0.754439,df:-209.450000
GPS Pred_Dopp 19 -3698.06
sv_pvt.vx:-197.863480,sv_pvt.vy:112.980263,sv_pvt.vz:3227.910156
vel[0]:0.210000, vel[1]:-0.490000, vel[2]:-0.200000
0.803550 0.582120 -0.124270,df:-209.450000
GPS Pred_Dopp 22 -2628.54
sv_pvt.vx:-36.667027,sv_pvt.vy:-411.519501,sv_pvt.vz:3097.917969
vel[0]:0.210000, vel[1]:-0.490000, vel[2]:-0.200000
-0.981583 0.172218 -0.082681,df:-209.450000
GPS Pred_Dopp 28 -2898.79
sv_pvt.vx:-2627.935791,sv_pvt.vy:637.483765,sv_pvt.vz:102.557724
vel[0]:0.210000, vel[1]:-0.490000, vel[2]:-0.200000
0.264007 0.410671 0.872725,df:-209.450000
BD Pred_Dopp 29 -2304.20
GPS Pred_Dopp 30  -560.06
sv_pvt.vx:-597.566040,sv_pvt.vy:1065.277588,sv_pvt.vz:-2838.240967
vel[0]:0.210000, vel[1]:-0.490000, vel[2]:-0.200000
0.115153 0.948338 0.295626,df:-209.450000
BD Pred_Dopp 30   229.69
GPS 0 Init Dop:  -254, 4
GPS 1 Init Dop: 10000,80
GPS 2 Init Dop: -3292, 4
GPS 3 Init Dop:  1398, 4
GPS 4 Init Dop: 10000,80
GPS 5 Init Dop: 10000,80
GPS 6 Init Dop:  1765, 4
GPS 7 Init Dop:  1703, 4
GPS 8 Init Dop: 10000,80
GPS 9 Init Dop: 10000,80
GPS10 Init Dop:   850, 4
GPS11 Init Dop: 10000,80
GPS12 Init Dop:  -416, 4
GPS13 Init Dop: 10000,80
GPS14 Init Dop: 10000,80
GPS15 Init Dop: 10000,80
GPS16 Init Dop: -2277, 4
GPS17 Init Dop:  1448, 4
GPS18 Init Dop: -3448, 4
GPS19 Init Dop: 10000,80
GPS20 Init Dop: 10000,80
GPS21 Init Dop: -2378, 4
GPS22 Init Dop: 10000,80
GPS23 Init Dop: 10000,80
GPS24 Init Dop: 10000,80
GPS25 Init Dop: 10000,80
GPS26 Init Dop: 10000,80
GPS27 Init Dop: -2648, 4
GPS28 Init Dop: 10000,80
GPS29 Init Dop:  -310, 4
GPS30 Init Dop: 10000,80
GPS31 Init Dop: 10000,80
BDS 0 Init Dop:  -823, 4
BDS 1 Init Dop:  -868, 4
BDS 2 Init Dop:  -841, 4
BDS 3 Init Dop:  -838, 4
BDS 4 Init Dop:  -877, 4
BDS 5 Init Dop: 10000,80
BDS 6 Init Dop:  -915, 4
BDS 7 Init Dop: -1160, 4
BDS 8 Init Dop: 10000,80
BDS 9 Init Dop: -1248, 4
BDS10 Init Dop: 10000,80
BDS11 Init Dop: 10000,80
BDS12 Init Dop: -1658, 4
BDS13 Init Dop: 10000,80
BDS14 Init Dop: 10000,80
BDS15 Init Dop: 10000,80
BDS16 Init Dop: 10000,80
BDS17 Init Dop: 10000,80
BDS18 Init Dop: 10000,80
BDS19 Init Dop: 10000,80
BDS20 Init Dop: 10000,80
BDS21 Init Dop: 10000,80
BDS22 Init Dop: 10000,80
BDS23 Init Dop: 10000,80
BDS24 Init Dop: 10000,80
BDS25 Init Dop: 10000,80
BDS26 Init Dop: 10000,80
BDS27 Init Dop: 10000,80
BDS28 Init Dop: -2054, 4
BDS29 Init Dop:   479, 4
BDS30 Init Dop: 10000,80
BDS31 Init Dop: 10000,80
Good luck!
ch0 satid=0 freq=-504 acq ok!
ch2 satid=6 freq=1515 acq ok!
ch3 satid=10 freq=600 acq ok!
ch4 satid=16 freq=-2527 acq ok!
ch5 satid=17 freq=1198 acq ok!
ch6 satid=21 freq=-2628 acq ok!
$GNGGA,000000.000,,,,,0,00,,,M,,,,0000*2B
$GNRMC,000000.000,A,,,,,,,060180,,*29
$GPGSA,A,1,,,,,,,,,,,,,,,*1E
$BDGSA,A,1,,,,,,,,,,,,,,,*0F
$GLGSA,A,1,,,,,,,,,,,,,,,*02
$B3CN0,0,0,0,0,0,0,0,0,0,0,0,0,0,0*4C
---00000001--- Acq_st=3 0  2019-4-24 8:0:19 
[00]  00(G01)  1 31  7  0   -495.6  2046001.3  0.4  1 0 2777 4448 1923
[01]  02(G03)  1 28  7  0  -3537.8  2046005.2  0.1  1 0  389 1410 1131
[02]  06(G07)  1 29  7  0   1523.6  2045998.1  0.1  1 0 2488 3549 1329
[03]  10(G11)  1 26  7  0    606.1  2046000.3 -0.1  1 0 1972 3222 1370
[04]  16(G17)  1  8  7  0  -2527.0  2046004.8  0.0  1 0  220  253  828
[05]  17(G18)  1 12  7  0   1198.0  2046001.4  0.0  1 0  155  975 3158
[06]  21(G22)  1  0  0  0  -2628.0  2046003.0  0.0  1 0  288  372  906
ch8 satid=27 freq=-2898 acq ok!
ch9 satid=29 freq=-560 acq ok!
ch18 satid=39 freq=-841 acq ok!
ch21 satid=43 freq=-1165 acq ok!
ch22 satid=44 freq=-1410 acq ok!
$GNGGA,080019.959,,,,,0,00,,,M,,,,0000*2E
$GNRMC,080019.959,A,,,,,,,090180,,*23
$GPGSA,A,1,,,,,,,,,,,,,,,*1E
$BDGSA,A,1,,,,,,,,,,,,,,,*0F
$GLGSA,A,1,,,,,,,,,,,,,,,*02
$B3CN0,0,0,0,0,0,0,0,0,0,0,0,0,0,0*4C
---00000002--- Acq_st=3 0  2019-4-24 8:0:20 
[00]  00(G01)  f 26  7  0   -493.8  2046000.6  0.6 10 0 3032 4007 1339
[01]  02(G03)  7 23  7  0  -3534.2  2046004.6  0.4 10 0 1236 1083  151
[02]  06(G07)  7 17  7  0   1525.3  2045997.9  0.9 10 0 2044 3291 1909
[03]  10(G11)  1 29  8  0    608.4  2045998.9  0.9  1 0 1944 2678  923
[04]  16(G17)  1 31  7  0  -2515.1  2046003.9  0.6  1 0  942 1017  715
[05]  17(G18)  1 29  7  0   1208.8  2045998.3  0.6  1 0 1696 1820  958
[06]  21(G22)  1 34  7  0  -2621.4  2046004.3  0.4  1 0  715 1380  405
[08]  27(G28)  1 28  7  0  -2889.6  2046005.6  0.0  1 0  916 1983 1910
[09]  29(G30)  1 23  7  0   -555.5  2046002.8  0.1  1 0 1683 3856 4166
[16]  37(B01)  1 39 10  0  -1069.6  4092004.3  0.9  1 0  632 1408 1553
[17]  38(B02)  1 17 24  1   -868.0  4092001.8 -0.3  1 0  123  367  659
[18]  39(B03)  1 19 26  1   -841.0  4092002.3 -0.1  1 0  398 1144 2062
[19]  40(B04)  1 10 10  0  -1338.0  4092003.0  0.1  1 0  699  916  596
[20]  41(B05)  1 36 10  0  -1377.0  4092004.3 -0.1  1 0  513  489  806
[21]  43(B07)  1  7  7  0  -1165.0  4092005.2 -0.1  1 0  344  919 2268
[22]  44(B08)  1  7  7  0  -1410.0  4092005.3  0.0  1 0  581 1161 2481
ch24 satid=46 freq=-1498 acq ok!
ch25 satid=49 freq=-2158 acq ok!
$GNGGA,080020.959,,,,,0,00,,,M,,,,0000*24
$GNRMC,080020.959,A,,,,,,,090180,,*29
$GPGSA,A,1,,,,,,,,,,,,,,,*1E
$BDGSA,A,1,,,,,,,,,,,,,,,*0F
$GLGSA,A,1,,,,,,,,,,,,,,,*02
$GPGSV,1,1,03,01,00,000,26,03,00,000,23,07,00,000,17*4C
$B3CN0,0,0,0,0,0,0,0,0,0,0,0,0,0,0*4C
---00000003--- Acq_st=3 0  2019-4-24 8:0:21 
[00]  00(G01)  f 45  7  0   -488.8  2046000.5  0.1  2 0 2748 4016 1126
[01]  02(G03)  7 37  7  0  -3532.0  2046004.5  0.1  2 0 1540 1338  202
[02]  06(G07)  7 45  7  0   1527.5  2045998.0  0.0  2 0 2129 2990 1474
[03]  10(G11)  7 38  9  0    614.1  2045999.1  0.1  2 0 2137 3223 1144
[04]  16(G17)  7 29  7  0  -2522.6  2046003.1  0.0  5 0  496 1259 1006
[05]  17(G18)  7 30  7  0   1209.8  2045998.3  0.4  5 0 1942 2403  951
[06]  21(G22)  7 27  7  0  -2614.4  2046003.3  0.5 10 0 1344 1383  270
[08]  27(G28)  7 35  7  0  -2888.4  2046003.7  1.0  2 0 1692 2626 1295
[09]  29(G30)  1 30  7  0   -548.1  2046000.7  1.0  1 0 2509 3587 1200
[16]  37(B01)  f 41 10  0  -1059.0  4092002.7 -0.1  2 0 1148 1923  746
[17]  38(B02)  1 10 10  0   -528.3  4092003.6 -0.1  1 0 1007  445  634
[18]  39(B03) 19 43 31  0  -1075.9  4092003.8  1.0  1 0 1450 2203  834
[19]  40(B04)  1 10 10  1  -1579.4  4092003.0  0.2  1 0  679  691  389
[20]  41(B05)  1 10 10  0  -1632.2  4092004.3  0.3  1 0  902  749  232
[21]  43(B07)  1  7  7  0  -1158.2  4092003.1  0.3  1 0 1668 1743  394
[22]  44(B08)  1  7  7  0  -1400.9  4092003.9  0.3  1 0 1414 2400 1095
[24]  46(B10)  1  7  7  0  -1486.5  4092004.8 -0.0  1 0 2112 3497 1638
[25]  49(B13)  1  7  7  0  -2398.0  4092007.2  0.1  1 0 1085 1517 1204
$GNGGA,080021.959,,,,,0,00,,,M,,,,0000*25
$GNRMC,080021.959,A,,,,,,,090180,,*28
$GPGSA,A,1,,,,,,,,,,,,,,,*1E
$BDGSA,A,1,,,,,,,,,,,,,,,*0F
$GLGSA,A,1,,,,,,,,,,,,,,,*02
$GPGSV,2,1,07,01,00,000,45,03,00,000,37,07,00,000,45,11,00,000,38*77
$GPGSV,2,2,07,17,00,000,29,18,00,000,30,22,00,000,27*4C
$BDGSV,1,1,01,01,00,000,41*5D
$B3CN0,0,0,0,0,0,0,0,0,0,0,0,0,0,0*4C
---00000004--- Acq_st=3 0  2019-4-24 8:0:22 
[00]  00(G01)  f 45  7  0   -492.4  2046000.6 -0.0  2 0 3543 5206 1928
[01]  02(G03)  7 36  9  0  -3537.8  2046004.6  0.1  2 0  202  663  516
[02]  06(G07)  7 44  7  0   1528.8  2045998.0  0.0  2 0 2306 3749 2193
[03]  10(G11)  7 44  7  0    612.7  2045999.1 -0.0  2 0 2146 3270 1566
[04]  16(G17)  7 37  7  0  -2525.6  2046003.2 -0.1  2 0 1260 1443  818
[05]  17(G18)  7 42  7  0   1206.9  2045998.3 -0.1  2 0 1868 2902 1376
[06]  21(G22)  7 38  7  0  -2620.6  2046003.3  0.1  2 0 1069 2259  699
[08]  27(G28)  7 41  7  0  -2891.3  2046003.7  0.0  2 0 1961 2921  830
[09]  29(G30)  7 38  7  0   -547.3  2046000.6  0.1  2 0 2984 4815 2266
[16]  37(B01)  f 40 17  0  -1064.7  4092002.8  0.3  2 0  961 1850  853
[17]  38(B02)  1 10 10  0   -611.1  4092004.1 -0.2  1 0  509  388  161
[18]  39(B03) 1f 43 31  0  -1083.4  4092002.7 -0.1  2 0 1204 1901  908
[19]  40(B04)  1 10 10  1  -1587.3  4092003.1  0.1  1 0  619  239   63
[20]  41(B05)  1 10 13  1  -1726.4  4092003.5  0.0  1 0  612  307  357
[21]  43(B07)  7 29  7  0  -1158.3  4092002.9  0.2 10 0 1870 2073  947
[22]  44(B08)  7 29  7  0  -1403.3  4092003.6  0.2 10 0 1491 2067  906
[24]  46(B10)  7 25  7  0  -1490.1  4092003.8 -0.2 10 0 1699 2302 1025
[25]  49(B13)  1 24  7  0  -2408.0  4092004.9  0.5  1 0  791 1247  421
[48]  37(B01)  1 20 20  1   -995.8 20460015.7 -0.1  1 0  743  247  315
ch26 satid=65 freq=-2304 acq ok!
ch27 satid=66 freq=-21 acq ok!
$GNGGA,080022.959,,,,,0,00,,,M,,,,0000*26
$GNRMC,080022.959,A,,,,,,,090180,,*2B
$GPGSA,A,1,,,,,,,,,,,,,,,*1E
$BDGSA,A,1,,,,,,,,,,,,,,,*0F
$GLGSA,A,1,,,,,,,,,,,,,,,*02
$GPGSV,3,1,09,01,00,000,45,03,00,000,36,07,00,000,44,11,00,000,44*73
$GPGSV,3,2,09,17,00,000,37,18,00,000,42,22,00,000,38,28,00,000,40*79
$GPGSV,3,3,09,30,00,000,38*48
$BDGSV,2,1,05,01,00,000,40,03,00,000,43,07,00,000,28,08,00,000,28*60
$BDGSV,2,2,05,10,00,000,25*5B
$B3CN0,0,0,0,0,0,0,0,0,0,0,0,0,0,0*4C
---00000005--- Acq_st=3 0  2019-4-24 8:0:23 
[00]  00(G01)  f 45  7  0   -490.0  2046000.6 -0.0  2 0 2808 4512 1999
[01]  02(G03)  7 36  7  0  -3538.2  2046004.6  0.3  2 0  800 1178  315
[02]  06(G07)  7 44  7  0   1528.1  2045997.9 -0.0  2 0 2491 3726 1521
[03]  10(G11)  7 44  7  0    615.5  2045999.1 -0.0  2 0 1984 3448 1488
[04]  16(G17)  7 38  7  0  -2517.7  2046003.2 -0.0  2 0 1290 1054  387
[05]  17(G18)  7 42  7  0   1211.3  2045998.3 -0.0  2 0  942 1879  999
[06]  21(G22)  7 38  7  0  -2612.4  2046003.3  0.1  2 0 1202 2190  907
[08]  27(G28)  7 42  7  0  -2889.5  2046003.7  0.0  2 0 1928 2981 1303
[09]  29(G30)  7 45  7  0   -544.8  2046000.6  0.0  2 0 3437 5199 1710
[16]  37(B01)  f 40 16  0  -1062.5  4092002.6 -0.2  2 0 1245 1707  532
[17]  38(B02)  1 10 10  0   -615.3  4092002.9 -0.1  1 0 1106 1187  958
[18]  39(B03) 1f 42 31  0  -1078.2  4092002.8 -0.1  2 0 1659 2081 1281
[19]  40(B04)  1 10 14  1  -1567.6  4092007.1 -0.3  1 0  321  219  399
[20]  41(B05)  1 10 10  0  -1494.9  4092004.0 -0.1  1 0  590  305   21
[21]  43(B07)  7 43  7  0  -1159.0  4092002.9 -0.0  2 0 2083 2651 1376
[22]  44(B08)  7 43  7  0  -1401.4  4092003.5 -0.0  2 0 2012 2847 1639
[24]  46(B10)  7 44  7  0  -1487.2  4092003.8 -0.0  2 0 2231 2578  762
[25]  49(B13)  1 26  7  0  -2401.0  4092004.6  0.6  1 0  563 1358  397
[26]  65(B29)  1  7  7  0  -2304.0  4092008.4  0.0  1 0  532  454 1995
[27]  66(B30)  1  7  7  0    -21.0  4091998.1  0.0  1 0 2973 2502  871
[48]  37(B01)  1 36 18  0   -697.6 20460015.7  0.2  1 0  279  300   32
[50]  39(B03)  1 18 24  1   -733.1 20460015.6  0.0  1 0  201  542  348
ch32 satid=77 freq=-3000 acq ok!
ch33 satid=78 freq=2500 acq ok!
ch34 satid=79 freq=250 acq ok!
$GNGGA,080023.959,,,,,0,00,,,M,,,,0000*27
$GNRMC,080023.959,A,,,,,,,090180,,*2A
$GPGSA,A,1,,,,,,,,,,,,,,,*1E
$BDGSA,A,1,,,,,,,,,,,,,,,*0F
$GLGSA,A,1,,,,,,,,,,,,,,,*02
$GPGSV,3,1,09,01,00,000,45,03,00,000,36,07,00,000,44,11,00,000,44*73
$GPGSV,3,2,09,17,00,000,38,18,00,000,42,22,00,000,38,28,00,000,42*74
$GPGSV,3,3,09,30,00,000,45*42
$BDGSV,2,1,05,01,00,000,39,03,00,000,42,07,00,000,43,08,00,000,43*6F
$BDGSV,2,2,05,10,00,000,44*5C
$B3CN0,0,0,0,0,0,0,0,0,0,0,0,0,0,0*4C
---00000006--- Acq_st=1 0  2019-4-24 8:0:24 
[00]  00(G01)  f 45  7  0   -492.9  2046000.6  0.0  2 0 3479 5174 2252
[01]  02(G03)  7 36  7  0  -3537.8  2046004.5  0.0  2 0 1282 1231  432
[02]  06(G07)  7 44  7  0   1527.1  2045998.0  0.0  2 0 2467 3658 2067
[03]  10(G11)  7 44 12  0    612.7  2045999.1  0.1  2 0 2257 3503 1666
[04]  16(G17)  7 39  7  0  -2520.2  2046003.2  0.2  2 0  848 1092  635
[05]  17(G18)  7 42  7  0   1211.8  2045998.3  0.0  2 0 2546 3039 1682
[06]  21(G22)  7 39  7  0  -2620.9  2046003.3  0.1  2 0 1108 1412  696
[08]  27(G28)  7 43  9  0  -2887.6  2046003.7 -0.0  2 0 1784 2608 1393
[09]  29(G30)  7 45  7  0   -545.6  2046000.6 -0.0  2 0 3762 4935 2336
[16]  37(B01) 1f 40 10  0  -1065.2  4092002.7 -0.0  2 0  658 1362  495
[17]  38(B02)  1 10 10  0   -612.3  4092003.0  0.1  1 0  800 1193  352
[18]  39(B03) 1f 42 31  0  -1081.2  4092002.7  0.1  2 0 1620 1830  897
[19]  40(B04)  1 10 16  0  -1432.4  4092005.9 -0.3  1 0  285  209  114
[20]  41(B05)  1 36 20  0   -897.1  4092005.2 -0.1  1 0  261  280  160
[21]  43(B07)  7 42  7  0  -1156.8  4092002.9  0.0  2 0 1917 2253  917
[22]  44(B08)  7 42  9  0  -1403.7  4092003.6  0.0  2 0 1780 2205  785
[24]  46(B10)  7 43 12  0  -1491.5  4092003.8 -0.0  2 0 1864 2450  780
[25]  49(B13)  1 26  7  0  -2404.0  4092004.8  0.6  1 0  470 1295  678
[26]  65(B29)  1  7  7  0  -2297.2  4092006.2  0.2  1 0 2075 2328  932
[27]  66(B30)  1 14 12  0   -265.5  4091999.2  0.6  1 0 1419 2450 1374
[32]  77(N-4)  1 25 28  0  -3000.0  1022004.2  0.2  1 0   565 1177 2423
[33]  78(N-3)  1 24 22  0   2500.0  1022000.2  0.0  1 0   789 1644 1083
[34]  79(N-2)  1 23  7  0    250.0  1022002.8  0.1  1 0   139  977 1928
[35]  81(N00)  1  7  7  0  -5251.7  1022003.4  0.0  1 0   114  188  231
[48]  37(B01)  1 10 10  0   -938.7 20460020.3 -0.2  1 0   90  200  342
[50]  39(B03)  1 22 24  1  -1104.6 20460017.4  0.2  1 0  772  326  290
ch36 satid=83 freq=1250 acq ok!
$GNGGA,080024.959,,,,,0,00,,,M,,,,0000*20
$GNRMC,080024.959,A,,,,,,,090180,,*2D
$GPGSA,A,1,,,,,,,,,,,,,,,*1E
$BDGSA,A,1,,,,,,,,,,,,,,,*0F
$GLGSA,A,1,,,,,,,,,,,,,,,*02
$GPGSV,3,1,09,01,00,000,45,03,00,000,36,07,00,000,44,11,00,000,44*73
$GPGSV,3,2,09,17,00,000,39,18,00,000,42,22,00,000,39,28,00,000,43*75
$GPGSV,3,3,09,30,00,000,45*42
$BDGSV,2,1,05,01,00,000,40,03,00,000,43,07,00,000,42,08,00,000,42*60
$BDGSV,2,2,05,10,00,000,43*5B
$B3CN0,0,0,0,0,0,0,0,0,0,0,0,0,0,0*4C
---00000007--- Acq_st=7 0  2019-4-24 8:0:25 
[00]  00(G01)  f 45  7  0   -491.0  2046000.6 -0.0  2 0 2632 4288 2180
[01]  02(G03)  7 36  7  0  -3546.1  2046004.5 -0.3  2 0 1105 1467  619
[02]  06(G07)  7 44  7  0   1523.6  2045998.0  0.0  2 0 2400 3563 1742
[03]  10(G11)  7 43  8  0    611.0  2045999.1 -0.1  2 0 2486 3240 1179
[04]  16(G17)  7 38  7  0  -2522.5  2046003.2 -0.1  2 0 1246  915  146
[05]  17(G18)  7 42  7  0   1208.4  2045998.4  0.0  2 0 1810 2357 1241
[06]  21(G22)  7 38  7  0  -2619.0  2046003.3 -0.1  2 0  829 1933 1078
[08]  27(G28)  7 43 11  0  -2888.1  2046003.7 -0.1  2 0 1548 2534 1151
[09]  29(G30)  7 45  7  0   -549.1  2046000.7  0.0  2 0 2780 5133 2629
[16]  37(B01) 1f 40 22  0  -1067.5  4092002.6  0.1  2 0 1175 1569  407
[18]  39(B03) 1f 42 33  0  -1083.3  4092002.8  0.2  2 0 1446 1915  786
[20]  41(B05)  7 21 27  1  -1021.0  4092002.9  0.1  2 0  121  419 1002
[21]  43(B07)  7 42  7  0  -1159.0  4092002.9 -0.0  2 0 1497 1803  733
[22]  44(B08)  7 42  7  0  -1402.7  4092003.6  0.0  2 0 1245 1587  198
[24]  46(B10)  7 43  7  0  -1490.5  4092003.8 -0.0  2 0 1634 2502 1320
[26]  65(B29)  7 30  7  0  -2300.6  4092005.9  0.2  5 0 2711 2778 1117
[27]  66(B30)  1 19  7  0   -267.9  4091999.4  1.0  1 0 1435 2347 1329
[32]  77(N-4)  1 23  7  0  -3047.8  1022001.9  1.0  1 0  1735 2298  872
[33]  78(N-3)  1 25 12  0   2437.9  1021998.0  1.0  1 0  1303 1432  621
[34]  79(N-2)  1 26 23  0    201.7  1022000.0  1.0  1 0  1220 1697  842
[35]  81(N00)  1 23 21  0  -5022.2  1022005.3 -0.1  1 0   170  463  360
[36]  83(N02)  1 23  8  0   1255.3  1021999.2  0.7  1 0  1598 1494  454
[48]  37(B01)  7 13 10  1  -1819.6 20460029.9 -0.1  2 0  968  572  488
[50]  39(B03)  1 20 10  0   -523.9 20460018.7  0.1  1 0  143  453  434
$GNGGA,080025.827,2944.9091,N,10633.0862,E,1,11,1.1,322.8,M,,,,0000*19
$GNRMC,080025.827,A,2944.9091,N,10633.0862,E,0.39,0.00,090180,,*14
$GPGSA,A,3,01,03,07,11,17,18,22,28,30,,,,2.1,1.1,1.8*3B
$BDGSA,A,3,01,03,,,,,,,,,,,2.1,1.1,1.8*2B
$GLGSA,A,3,,,,,,,,,,,,,2.1,1.1,1.8*24
$GPGSV,3,1,09,01,00,000,45,03,00,000,36,07,00,000,44,11,00,000,43*74
$GPGSV,3,2,09,17,00,000,38,18,00,000,42,22,00,000,38,28,00,000,43*75
$GPGSV,3,3,09,30,00,000,45*42
$BDGSV,2,1,07,01,00,000,40,03,00,000,42,05,00,000,20,07,00,000,42*6A
$BDGSV,2,2,07,08,00,000,42,10,00,000,43,29,00,000,29*57
$B3CN0,16,0,0,0,0,0,0,0,0,0,0,0,0,0*7B
---00000008--- Acq_st=3 0  2000-1-9 8:0:26 
[00]  00(G01)  f 45  7  0   -487.1  2046000.6 -0.0  2 0 2466 4486 1829
[01]  02(G03)  f 36  7  0  -3535.9  2046004.5  0.1  2 0  665 2089 1340
[02]  06(G07)  f 44  7  0   1534.6  2045997.9 -0.0  2 0 2222 2866  747
[03]  10(G11)  f 43  7  0    619.7  2045999.1  0.0  2 0 1923 3498 2038
[04]  16(G17)  f 38  9  0  -2513.3  2046003.1  0.2  2 0  926 1130  776
[05]  17(G18)  f 42  7  0   1214.8  2045998.4 -0.0  2 0 1500 3157 2054
[06]  21(G22)  f 39  7  0  -2611.9  2046003.4 -0.0  2 0  371 1144  948
[08]  27(G28)  f 43  7  0  -2880.4  2046003.7  0.0  2 0 1426 2896 1747
[09]  29(G30)  f 45  7  0   -540.5  2046000.6  0.0  2 0 3029 5035 2383
[10]  03(G04)  1 21  7  0   1159.2  2045999.1  0.1  1 0 1304 1090  475
[16]  37(B01) 1f 41 23  0  -1062.5  4092002.5 -0.5  2 0 1366 1676  437
[18]  39(B03) 1f 42 31  0  -1076.2  4092002.7 -0.1  2 0 1509 2036  819
[20]  41(B05)  7 18 28  1  -1011.1  4092002.8 -0.0  2 0  654  780  369
[21]  43(B07)  7 42  7  0  -1149.6  4092002.9 -0.0  2 0 1857 2016  758
[22]  44(B08)  7 43  7  0  -1396.4  4092003.5 -0.0  2 0 1852 2223  989
[24]  46(B10)  7 44  7  0  -1485.5  4092003.8 -0.1  2 0 1516 2435 1181
[26]  65(B29)  7 44  7  0  -2291.8  4092005.9  0.0  2 0 2083 2637 1701
[27]  66(B30)  1 18  7  0   -261.0  4091999.2  1.0  1 0 1667 2567 1309
[32]  77(N-4)  7 46  9  0  -3037.9  1022001.9 -0.3  2 0  1969 2177  596
[33]  78(N-3)  7 45  7  0   2446.3  1021998.3 -0.4  2 0  1127 1656 1015
[34]  79(N-2)  7 45  7  0    210.8  1021999.7  0.1  2 0  1351 1744  877
[35]  81(N00)  7 35 13  0  -5085.2  1022003.2 -0.0  2 0   254  303  140
[36]  83(N02)  7 32 14  0   1264.4  1021999.1  0.1  5 0  1465 1907 1133
[48]  37(B01)  7 10 10  0  -1777.1 20460029.9 -0.2  2 0   79  303  202
[50]  39(B03)  1 26 18  0     72.4 20460023.8 -0.0  1 0  185  277  150
---00000009--- Acq_st=3 0  2000-1-9 8:0:27 
[00]  00(G01)  f 45  7  0   -484.2  2046000.6  0.0  2 0 2716 5102 2393
[01]  02(G03)  f 35  7  0  -3527.0  2046004.6  0.0  2 0  814  760  585
[02]  06(G07)  f 44  7  0   1533.2  2045997.9  0.0  2 0 2761 3343 1400
[03]  10(G11)  f 43  7  0    619.1  2045999.1 -0.0  2 0 1783 3176 1326
[04]  16(G17)  f 38  7  0  -2507.9  2046003.2 -0.2  2 0  916 1037  456
[05]  17(G18)  f 43  7  0   1217.0  2045998.4  0.1  2 0 1935 3144 1491
[06]  21(G22)  f 39  7  0  -2612.2  2046003.3  0.1  2 0  463 1096  237
[08]  27(G28)  f 43  7  0  -2883.5  2046003.7  0.0  2 0 1916 2597 1196
[09]  29(G30)  f 45 10  0   -541.2  2046000.6  0.0  2 0 3243 4785 2299
[10]  03(G04)  7 19  7  0   1153.7  2045998.4  0.6 10 0  208  592  704
[16]  37(B01) 1f 40 10  0  -1060.2  4092002.6  0.4  2 0 1152 1604  729
[18]  39(B03) 1f 43 31  0  -1081.0  4092002.7  0.5  2 0 1879 2371  748
[20]  41(B05)  7 14 10  0  -1240.1  4092003.3  0.0  2 0  225  314  381
[21]  43(B07)  7 42  7  0  -1153.8  4092002.9 -0.0  2 0 1579 2148 1272
[22]  44(B08)  7 42 11  0  -1399.3  4092003.5 -0.0  2 0 1620 2240 1548
[24]  46(B10)  7 43  7  0  -1485.1  4092003.8 -0.0  2 0 1644 2172  477
[26]  65(B29)  7 44  7  0  -2293.0  4092005.9 -0.0  2 0 2164 3056 1103
[27]  66(B30)  1 16  8  0   -260.9  4091999.3  1.0  1 0 1509 2759 1388
[32]  77(N-4)  7 46  7  0  -3038.6  1022001.9  0.2  2 0  1719 2322 1315
[33]  78(N-3)  7 46 13  0   2446.3  1021998.4 -0.1  2 0  1235 1708  878
[34]  79(N-2)  7 45 11  0    210.6  1021999.8 -0.0  2 0  1173 1765  639
[35]  81(N00)  7 35  9  0  -5085.3  1022003.2 -0.3  2 0   224  479  248
[36]  83(N02)  7 44 14  0   1266.7  1021999.1 -0.0  2 0  1001 1645  717
[48]  37(B01)  7 13 10  1  -1925.1 20460032.2  0.1  2 0  317  372  226
calculate DOP row 0,[ -0.11  -0.95  -0.29   1.00]
calculate DOP row 1,[  0.58  -0.61  -0.54   1.00]
calculate DOP row 2,[  0.24  -0.94   0.23   1.00]
calculate DOP row 3,[  0.49  -0.41  -0.77   1.00]
calculate DOP row 4,[  0.63  -0.16  -0.75   1.00]
calculate DOP row 5,[ -0.26  -0.41  -0.87   1.00]
calculate DOP row 6,[  0.36  -0.93   0.07   0.00]
calculate DOP row 7,[  0.81  -0.58   0.06   0.00]
calculate DOP row 8,[  0.98  -0.17   0.08   1.00]
calculate DOP row 9,[ -0.65  -0.71  -0.26   1.00]
calculate DOP row 10,[  0.86  -0.30   0.41   1.00]
DOP:  0.34   0.53   0.64   0.41
Refix G01: 2, 288044.931872, -478
Refix G03: 2, 288044.919608, -3526
Refix G07: 2, 288044.929082, 1537
Refix G08: 2, 288044.920032, 1470
Refix G11: 2, 288044.930562, 624
Refix G13: 2, 288044.916510, -646
Refix G17: 2, 288044.924514, -2507
Refix G18: 2, 288044.928386, 1221
Refix G19: 2, 288044.918505, -3680
Refix G22: 2, 288044.920450, -2609
Refix G28: 2, 288044.926812, -2879
Refix G30: 2, 288044.931352, -534
$GNGGA,080027.000,2944.9069,N,10633.0902,E,1,11,0.9,320.7,M,,,,0000*12
$GNRMC,080027.000,A,2944.9069,N,10633.0902,E,0.14,0.00,240419,,*1E
$GPGSA,A,3,01,03,07,11,17,18,22,28,30,,,,1.2,0.9,0.8*33
$BDGSA,A,3,01,03,,,,,,,,,,,1.2,0.9,0.8*23
$GLGSA,A,3,,,,,,,,,,,,,1.2,0.9,0.8*2C
$GPGSV,3,1,10,01,00,000,45,03,00,000,35,07,00,000,44,11,00,000,43*7F
$GPGSV,3,2,10,17,00,000,38,18,00,000,43,22,00,000,39,28,00,000,43*7D
$GPGSV,3,3,10,30,00,000,45,04,00,000,19*76
$BDGSV,2,1,06,01,00,000,40,03,00,000,43,07,00,000,42,08,00,000,42*63
$BDGSV,2,2,06,10,00,000,43,29,00,000,44*63
$B3CN0,0,0,0,0,0,0,0,0,0,0,0,0,0,0*4C
---00000010--- Acq_st=3 0  2019-4-24 8:0:27 
[00]  00(G01)  f 46  7  0   -486.3  2046000.6 -0.0  2 0 2418 4211 2159
[01]  02(G03)  f 34  7  0  -3540.4  2046004.6  0.2  2 0  909  891  518
[02]  06(G07)  f 44  7  0   1530.3  2045997.9 -0.0  2 0 2022 3274 1567
[03]  10(G11)  f 43  7  0    620.2  2045999.1 -0.0  2 0 1762 2854 1429
[04]  16(G17)  f 39  7  0  -2508.4  2046003.2  0.1  2 0 1059 1295  496
[05]  17(G18)  f 43  7  0   1215.2  2045998.3 -0.0  2 0 1555 2586 1039
[06]  21(G22)  f 39  7  0  -2608.8  2046003.3  0.1  2 0  901 1407  291
[08]  27(G28)  f 43  7  0  -2884.4  2046003.7 -0.0  2 0  978 2464 1287
[09]  29(G30)  f 45  7  0   -541.5  2046000.6 -0.0  2 0 3192 4638 1787
[10]  03(G04)  7 34  7  0   1151.7  2045998.4 -0.1  5 0  449  822  587
[16]  37(B01) 1f 41 22  0  -1060.1  4092002.6  0.1  2 0 1176 1422  481
[17]  38(B02)  1 25 26  1  -1111.5  4092004.7  0.6  1 0 1109 1588  917
[18]  39(B03) 1f 42 31  0  -1079.0  4092002.7 -0.3  2 0 1375 1748  663
[19]  40(B04)  1 10 20  1   -617.3  4092002.2 -0.1  1 0  534  420  769
[20]  41(B05)  7 10 10  0  -1474.6  4092003.8  0.1  2 0  425  516  226
[21]  43(B07) 1f 42  7  0  -1153.2  4092002.9  0.0  2 0 1618 2177 1032
[22]  44(B08) 1f 42  7  0  -1398.1  4092003.6 -0.0  2 0 1127 1713  517
[24]  46(B10) 1f 43  7  0  -1486.5  4092003.8  0.0  2 0 2025 2487  720
[26]  65(B29) 1f 43  7  0  -2292.0  4092005.9  0.0  2 0 2339 2997 1008
[32]  77(N-4)  7 46  7  0  -3038.0  1022001.9  0.1  2 0  1363 2115 1123
[33]  78(N-3)  7 46 17  0   2444.8  1021998.4  0.0  2 0  1260 1895  815
[34]  79(N-2)  7 45  7  0    211.0  1021999.8  0.0  2 0  1230 1828  831
[35]  81(N00)  7 35  7  0  -5084.3  1022003.1  0.1  2 0   300  645  359
[36]  83(N02)  7 45 18  0   1266.1  1021999.1  0.1  2 0   851 1575  813
[48]  37(B01)  7 10 10  0  -2260.8 20460036.8 -0.1  2 0  590  359  275
[50]  39(B03)  1 20 21  1   -694.9 20460016.4  0.1  1 0  752  761  265
ch25 satid=49 freq=-2000 acq ok!
calculate DOP row 0,[  0.58  -0.61  -0.54   1.00]
calculate DOP row 1,[ -0.11  -0.95  -0.29   1.00]
calculate DOP row 2,[  0.24  -0.94   0.23   1.00]
calculate DOP row 3,[  0.49  -0.41  -0.77   1.00]
calculate DOP row 4,[  0.63  -0.16  -0.75   1.00]
calculate DOP row 5,[ -0.26  -0.41  -0.87   1.00]
calculate DOP row 6,[  0.36  -0.93   0.07   0.00]
calculate DOP row 7,[  0.24  -0.69  -0.68   0.00]
calculate DOP row 8,[ -0.42  -0.86  -0.29   0.00]
calculate DOP row 9,[  0.63  -0.66  -0.41   0.00]
calculate DOP row 10,[  0.29  -0.89  -0.36   0.00]
calculate DOP row 11,[  0.81  -0.58   0.06   0.00]
calculate DOP row 12,[ -0.65  -0.71  -0.26   1.00]
calculate DOP row 13,[  0.98  -0.17   0.08   1.00]
calculate DOP row 14,[  0.86  -0.30   0.41   1.00]
DOP:  0.26   0.26   0.43   0.21
Refix G01: 2, 288045.931872, -487
Refix G03: 2, 288045.919610, -3531
Refix G07: 2, 288045.929081, 1529
Refix G08: 2, 288045.920031, 1464
Refix G11: 2, 288045.930561, 615
Refix G13: 2, 288045.916511, -649
Refix G17: 2, 288045.924516, -2514
Refix G18: 2, 288045.928385, 1214
Refix G19: 2, 288045.918507, -3684
Refix G22: 2, 288045.920452, -2615
Refix G28: 2, 288045.926814, -2887
Refix G30: 2, 288045.931352, -543
$GNGGA,080028.000,2944.9066,N,10633.0907,E,1,15,0.9,318.1,M,,,,0000*1E
$GNRMC,080028.000,A,2944.9066,N,10633.0907,E,0.17,0.00,240419,,*18
$GPGSA,A,3,01,03,07,11,17,18,22,28,30,,,,1.0,0.9,0.5*3C
$BDGSA,A,3,01,03,07,08,10,29,,,,,,,1.0,0.9,0.5*29
$GLGSA,A,3,,,,,,,,,,,,,1.0,0.9,0.5*23
$GPGSV,3,1,12,01,66,075,46,03,14,130,34,07,46,182,44,11,57,041,43*74
$GPGSV,3,2,12,17,34,268,39,18,41,048,43,22,20,107,39,28,45,328,43*70
$GPGSV,3,3,12,30,65,244,45,04,00,000,34,08,18,054,00,13,06,294,00*71
$BDGSV,3,1,11,01,40,125,41,03,55,171,42,07,65,096,42,08,81,169,42*6A
$BDGSV,3,2,11,10,76,007,43,29,49,260,43,02,46,219,00,04,23,109,00*6B
$BDGSV,3,3,11,05,27,244,00,13,54,205,00,30,61,015,00*5E
$B3CN0,0,0,0,0,0,0,0,0,0,0,0,0,0,0*4C
---00000011--- Acq_st=3 0  2019-4-24 8:0:28 
[00]  00(G01)  f 46  9  0   -480.0  2046000.6  0.0  2 0 3111 4848 2065
[01]  02(G03)  f 35  9  0  -3526.6  2046004.5 -0.0  2 0  588  771  537
[02]  06(G07)  f 45  7  0   1537.4  2045997.9 -0.1  2 0 2497 3591 1490
[03]  10(G11)  f 44  7  0    623.3  2045999.1  0.0  2 0 2327 3262 1487
[04]  16(G17)  f 38  7  0  -2515.3  2046003.2  0.1  2 0  180  691  464
[05]  17(G18)  f 43  7  0   1220.5  2045998.3 -0.0  2 0 2037 2749 1423
[06]  21(G22)  f 38  7  0  -2612.0  2046003.4  0.0  2 0  476  835  639
[08]  27(G28)  f 42  7  0  -2879.9  2046003.7 -0.0  2 0 1913 3130 1488
[09]  29(G30)  f 46  7  0   -538.8  2046000.7  0.0  2 0 3302 4987 2381
[10]  03(G04)  7 35  7  0   1154.0  2045998.4 -0.1  2 0  733 1176  924
[16]  37(B01) 1f 41 21  0  -1053.5  4092002.7 -0.4  2 0 1372 1782  759
[17]  38(B02)  7 39 26  0  -1101.0  4092002.6  0.4  2 0 1331 1036  205
[18]  39(B03) 1f 45 31  0  -1074.4  4092002.7  0.3  2 0 1807 1520  566
[19]  40(B04)  1 10 14  1   -500.3  4092003.5 -0.1  1 0  170  623  764
[20]  41(B05)  7 13 25  1  -1774.9  4092004.4 -0.1  2 0  192  275  123
[21]  43(B07) 1f 43  7  0  -1149.4  4092002.9 -0.0  2 0 1723 2562 1235
[22]  44(B08) 1f 43  8  0  -1397.0  4092003.5 -0.0  2 0 1872 2354  772
[24]  46(B10) 1f 43  7  0  -1484.0  4092003.8 -0.0  2 0 1669 2633 1398
[25]  49(B13)  1  9  7  0  -1893.4  4092005.5  0.5  1 0 1507 2258  861
[26]  65(B29) 1f 43  7  0  -2288.2  4092005.9  0.0  2 0 2366 2714 1145
[32]  77(N-4)  f 37  7  0  -3031.7  1022001.9  0.0  2 0  1290 2193 1311
[33]  78(N-3)  f 37  7  0   2450.0  1021998.4 -0.0  2 0   939 1619  978
[34]  79(N-2)  f 37  7  0    216.1  1021999.8 -0.0  2 0  1100 1734  442
[35]  81(N00)  f 33  7  0  -5078.6  1022003.1 -0.1  5 0   369  554  350
[36]  83(N02)  f 37  7  0   1270.4  1021999.1  0.1  2 0   616 1660  656
[50]  39(B03)  1 22 10  1   -551.3 20460021.3 -0.0  1 0  442   34  287
[53]  43(B07)  1  7  7  0  -1095.4 20460016.3 -0.1  1 0  171  140  416
[54]  44(B08)  1  7  7  0   -830.8 20460021.5 -0.1  1 0  229  455  185
[56]  46(B10)  1  7  7  0  -1518.5 20460022.7 -0.1  1 0  381  384  423
[58]  65(B29)  1  7  7  0  -1347.4 20460036.1 -0.1  1 0  601  755   50
calculate DOP row 0,[  0.58  -0.61  -0.54   1.00]
calculate DOP row 1,[ -0.11  -0.95  -0.29   1.00]
calculate DOP row 2,[  0.24  -0.94   0.23   1.00]
calculate DOP row 3,[  0.49  -0.41  -0.77   1.00]
calculate DOP row 4,[ -0.42  -0.86  -0.29   0.00]
calculate DOP row 5,[  0.63  -0.16  -0.75   1.00]
calculate DOP row 6,[  0.63  -0.66  -0.41   0.00]
calculate DOP row 7,[  0.24  -0.69  -0.68   0.00]
calculate DOP row 8,[ -0.26  -0.41  -0.87   1.00]
calculate DOP row 9,[  0.29  -0.89  -0.36   0.00]
calculate DOP row 10,[  0.36  -0.93   0.07   0.00]
calculate DOP row 11,[  0.81  -0.58   0.06   0.00]
calculate DOP row 12,[ -0.65  -0.71  -0.26   1.00]
calculate DOP row 13,[  0.98  -0.17   0.08   1.00]
calculate DOP row 14,[  0.86  -0.30   0.41   1.00]
DOP:  0.26   0.26   0.43   0.21
Refix G01: 2, 288046.931873, -482
Refix G03: 2, 288046.919613, -3527
Refix G07: 2, 288046.929080, 1534
Refix G08: 2, 288046.920030, 1467
Refix G11: 2, 288046.930561, 619
Refix G13: 2, 288046.916511, -646
Refix G17: 2, 288046.924518, -2511
Refix G18: 2, 288046.928384, 1217
Refix G19: 2, 288046.918509, -3681
Refix G22: 2, 288046.920453, -2611
Refix G28: 2, 288046.926816, -2884
Refix G30: 2, 288046.931352, -538
$GNGGA,080029.000,2944.9064,N,10633.0909,E,1,15,0.9,317.7,M,,,,0000*1A
$GNRMC,080029.000,A,2944.9064,N,10633.0909,E,0.23,0.00,240419,,*12
$GPGSA,A,3,01,03,07,11,17,18,22,28,30,,,,1.0,0.9,0.5*3C
$BDGSA,A,3,01,03,07,08,10,29,,,,,,,1.0,0.9,0.5*29
$GLGSA,A,3,,,,,,,,,,,,,1.0,0.9,0.5*23
$GPGSV,3,1,12,01,66,075,46,03,14,130,35,07,46,182,45,11,57,041,44*73
$GPGSV,3,2,12,17,34,268,38,18,41,048,43,22,20,107,38,28,45,328,42*71
$GPGSV,3,3,12,30,65,244,46,04,00,000,35,08,18,054,00,13,06,294,00*73
$BDGSV,3,1,11,01,40,125,41,02,46,219,39,03,55,171,45,07,65,096,43*65
$BDGSV,3,2,11,08,81,169,43,10,76,007,43,29,49,260,43,04,23,109,00*69
$BDGSV,3,3,11,05,27,244,00,13,54,205,00,30,61,015,00*5E
$B3CN0,0,0,0,0,0,0,0,0,0,0,0,0,0,0*4C
---00000012--- Acq_st=3 0  2019-4-24 8:0:29 
[00]  00(G01)  f 46  7  0   -485.5  2046000.6 -0.0  2 0 2663 4377 1907
[01]  02(G03)  f 36  7  0  -3529.7  2046004.6  0.0  2 0  858 1346  871
[02]  06(G07)  f 44  7  0   1533.2  2045997.9  0.1  2 0 2561 3865 2030
[03]  10(G11)  f 44  7  0    617.8  2045999.1 -0.1  2 0 1790 2924 1692
[04]  16(G17)  f 38  7  0  -2515.8  2046003.1  0.2  2 0 1992 2596 1611
[05]  17(G18)  f 43  7  0   1215.4  2045998.4  0.1  2 0 2099 2424  905
[06]  21(G22)  f 38  9  0  -2616.7  2046003.3 -0.0  2 0  922 1273  402
[08]  27(G28)  f 42  7  0  -2885.5  2046003.7 -0.0  2 0 1655 2469  847
[09]  29(G30)  f 46 10  0   -541.5  2046000.6 -0.0  2 0 2752 4772 2451
[10]  03(G04)  7 35  7  0   1157.7  2045998.4  0.2  2 0  375  664  503
[16]  37(B01) 1f 40 10  0  -1062.0  4092002.6 -0.0  2 0 1119 1251  416
[17]  38(B02) 1f 37 24  0  -1108.2  4092002.8  0.2  2 0  738  740  415
[18]  39(B03) 1f 43 31  0  -1078.1  4092002.8 -0.1  2 0 1736 1793  683
[19]  40(B04)  1 10 18  0   -569.0  4092003.9  0.3  1 0 1036 1243  599
[20]  41(B05)  7 10 29  1  -2000.0  4092005.2 -0.0  2 0  224  318  286
[21]  43(B07) 1f 43  7  0  -1154.4  4092002.9 -0.0  2 0 1699 2228 1111
[22]  44(B08) 1f 42  7  0  -1402.2  4092003.6 -0.0  2 0 1505 2474 1091
[24]  46(B10) 1f 43  7  0  -1489.9  4092003.8 -0.0  2 0 1997 2609 1256
[25]  49(B13)  7 26  7  0  -1897.7  4092004.8  0.4 10 0 1267 1595  688
[26]  65(B29) 1f 43  7  0  -2291.3  4092005.9  0.0  2 0 2031 2857 1502
[32]  77(N-4)  f 46  7  0  -3038.9  1022001.9  0.1  2 0  1110 2037 1062
[33]  78(N-3)  f 45 12  0   2444.0  1021998.4 -0.0  2 0  1070 1963  839
[34]  79(N-2)  f 44  7  0    210.0  1021999.8  0.1  2 0  1189 1719  754
[35]  81(N00)  f 34  7  0  -5088.1  1022003.2  0.1  2 0   182  598  332
[36]  83(N02)  f 44  7  0   1264.7  1021999.1 -0.1  2 0  1095 1445  529
[48]  37(B01)  1 10 10  0   -889.5 20460016.9  0.0  1 0  364  266  123
[50]  39(B03)  1 13 22  1    432.5 20460018.2 -0.0  1 0  282  153  397
[53]  43(B07)  1  7  7  0   -982.5 20460017.6 -0.1  1 0  422  235  215
[54]  44(B08)  1  7  7  0   -611.5 20460021.6 -0.1  1 0  621  662  370
[56]  46(B10)  1  7  7  0  -1075.8 20460022.9  0.0  1 0  394 1096  390
[58]  65(B29)  1  7  8  0  -1367.1 20460035.7  0.1  1 0  566  196  592
calculate DOP row 0,[  0.58  -0.61  -0.54   1.00]
calculate DOP row 1,[ -0.11  -0.95  -0.29   1.00]
calculate DOP row 2,[  0.24  -0.94   0.23   1.00]
calculate DOP row 3,[  0.49  -0.41  -0.77   1.00]
calculate DOP row 4,[  0.63  -0.16  -0.75   1.00]
calculate DOP row 5,[  0.36  -0.93   0.07   0.00]
calculate DOP row 6,[  0.63  -0.66  -0.41   0.00]
calculate DOP row 7,[  0.29  -0.89  -0.36   0.00]
calculate DOP row 8,[  0.24  -0.69  -0.68   0.00]
calculate DOP row 9,[ -0.42  -0.86  -0.29   0.00]
calculate DOP row 10,[ -0.26  -0.41  -0.87   1.00]
calculate DOP row 11,[  0.81  -0.58   0.06   0.00]
calculate DOP row 12,[ -0.16  -0.98   0.10   0.00]
calculate DOP row 13,[ -0.65  -0.71  -0.26   1.00]
calculate DOP row 14,[  0.98  -0.17   0.08   1.00]
calculate DOP row 15,[  0.86  -0.30   0.41   1.00]
DOP:  0.26   0.20   0.41   0.20
Refix G01: 2, 288047.931873, -485
Refix G03: 2, 288047.919615, -3529
Refix G07: 2, 288047.929079, 1532
Refix G08: 2, 288047.920029, 1465
Refix G11: 2, 288047.930560, 617
Refix G13: 2, 288047.916511, -647
Refix G17: 2, 288047.924519, -2513
Refix G18: 2, 288047.928383, 1215
Refix G19: 2, 288047.918512, -3683
Refix G22: 2, 288047.920455, -2613
Refix G28: 2, 288047.926818, -2886
Refix G30: 2, 288047.931353, -541
$GNGGA,080030.000,2944.9063,N,10633.0906,E,1,16,0.8,316.9,M,,,,0000*17
$GNRMC,080030.000,A,2944.9063,N,10633.0906,E,0.18,0.00,240419,,*1A
$GPGSA,A,3,01,03,07,11,17,18,22,28,30,,,,0.9,0.8,0.4*34
$BDGSA,A,3,01,02,03,07,08,10,29,,,,,,0.9,0.8,0.4*23
$GLGSA,A,3,,,,,,,,,,,,,0.9,0.8,0.4*2B
$GPGSV,3,1,12,01,66,075,46,03,14,130,36,07,46,182,44,11,57,041,44*71
$GPGSV,3,2,12,17,34,268,38,18,41,048,43,22,20,107,38,28,45,328,42*71
$GPGSV,3,3,12,30,65,244,46,04,00,000,35,08,18,054,00,13,06,294,00*73
$BDGSV,3,1,11,01,40,125,40,02,46,219,37,03,55,171,43,07,65,096,43*6C
$BDGSV,3,2,11,08,81,169,42,10,76,007,43,13,54,205,26,29,49,260,43*65
$BDGSV,3,3,11,04,23,109,00,05,27,244,00,30,61,015,00*57
$B3CN0,0,0,0,0,0,0,0,0,0,0,0,0,0,0*4C
---00000013--- Acq_st=3 0  2019-4-24 8:0:30 
[00]  00(G01)  f 46 11  0   -485.3  2046000.6  0.0  2 0 3183 4663 2195
[01]  02(G03)  f 36  7  0  -3535.4  2046004.6 -0.1  2 0  850 1516  451
[02]  06(G07)  f 44  8  0   1532.1  2045997.9 -0.0  2 0 2415 2951 1015
[03]  10(G11)  f 44  7  0    616.2  2045999.1  0.0  2 0 1721 2640 1354
[04]  16(G17)  f 39  7  0  -2516.5  2046003.2 -0.3  2 0  784 1289  320
[05]  17(G18)  f 43  7  0   1215.6  2045998.4  0.1  2 0 2030 2778 1702
[06]  21(G22)  f 39  7  0  -2616.4  2046003.3 -0.1  2 0 1030 1445  530
[08]  27(G28)  f 43  9  0  -2885.7  2046003.7 -0.0  2 0 1761 2688 1111
[09]  29(G30)  f 46  8  0   -541.2  2046000.6 -0.0  2 0 2660 4243 1978
[10]  03(G04)  7 36  7  0   1159.0  2045998.4  0.2  2 0  760 1293  441
[16]  37(B01) 1f 41 20  0  -1063.9  4092002.7 -0.8  2 0 1587 1909  923
[17]  38(B02) 1f 40 19  0  -1108.7  4092002.8  0.5  2 0 1256 1187   70
[18]  39(B03) 1f 43 30  0  -1078.5  4092002.7 -0.4  2 0 1653 2178  906
[19]  40(B04)  1 10 10  0   -703.3  4092003.2  0.3  1 0  447  101  345
[20]  41(B05)  7 10 31  1  -2001.6  4092005.5  0.0  2 0  508  403  186
[21]  43(B07) 1f 43 11  0  -1156.0  4092002.9  0.0  2 0 2316 2539  992
[22]  44(B08) 1f 43  9  0  -1399.7  4092003.5 -0.0  2 0 1436 1851  822
[24]  46(B10) 1f 44  8  0  -1489.0  4092003.8  0.0  2 0 2110 2713 1179
[25]  49(B13)  7 42  7  0  -1897.3  4092004.9 -0.0  2 0 1684 2239 1098
[26]  65(B29) 1f 43  8  0  -2292.5  4092005.9 -0.0  2 0 2371 2851 1378
[27]  63(B27)  1  7  7  0   1665.8  4091997.3  0.0  1 0  728  764  400
[32]  77(N-4)  f 46  7  0  -3038.0  1022001.9 -0.1  2 0  1320 2497 1386
[33]  78(N-3)  f 45  7  0   2444.7  1021998.4  0.1  2 0  1380 2060 1118
[34]  79(N-2)  f 45  7  0    211.6  1021999.8 -0.0  2 0  1209 2058 1169
[35]  81(N00)  f 35  7  0  -5085.0  1022003.2 -0.1  2 0   735  240  147
[36]  83(N02)  f 44  7  0   1265.4  1021999.2  0.0  2 0   989 1702  771
[48]  37(B01)  1 19 10  1   -735.3 20460025.2 -0.1  1 0  242  514  376
[49]  38(B02)  1 10 10  1  -1336.4 20460018.1  0.0  1 0  189   80  115
[50]  39(B03)  1 22 10  0    139.5 20460018.7  0.2  1 0  728  382  190
[53]  43(B07)  1  7 10  0  -1271.9 20460017.9  0.1  1 0  263  375  175
[54]  44(B08)  1  7  8  0   -205.6 20460022.5 -0.1  1 0  278  458  711
[56]  46(B10)  1  7  7  0   -646.7 20460021.6  0.1  1 0  744 1015  668
[58]  65(B29)  1  8  7  0  -1386.6 20460036.7  0.1  1 0  289  356  247
calculate DOP row 0,[  0.58  -0.61  -0.54   1.00]
calculate DOP row 1,[ -0.11  -0.95  -0.29   1.00]
calculate DOP row 2,[  0.24  -0.94   0.23   1.00]
calculate DOP row 3,[  0.49  -0.41  -0.77   1.00]
calculate DOP row 4,[  0.63  -0.16  -0.76   1.00]
calculate DOP row 5,[ -0.26  -0.41  -0.87   1.00]
calculate DOP row 6,[  0.36  -0.93   0.07   0.00]
calculate DOP row 7,[  0.63  -0.66  -0.41   0.00]
calculate DOP row 8,[  0.29  -0.89  -0.36   0.00]
calculate DOP row 9,[  0.24  -0.69  -0.68   0.00]
calculate DOP row 10,[ -0.42  -0.86  -0.29   0.00]
calculate DOP row 11,[ -0.16  -0.98   0.10   0.00]
calculate DOP row 12,[  0.81  -0.58   0.06   0.00]
calculate DOP row 13,[ -0.65  -0.71  -0.26   1.00]
calculate DOP row 14,[  0.98  -0.17   0.08   1.00]
calculate DOP row 15,[  0.86  -0.30   0.41   1.00]
DOP:  0.26   0.20   0.41   0.20
Refix G01: 2, 288048.931873, -483
Refix G03: 2, 288048.919617, -3530
Refix G07: 2, 288048.929078, 1532
Refix G08: 2, 288048.920028, 1465
Refix G11: 2, 288048.930560, 618
Refix G13: 2, 288048.916512, -646
Refix G17: 2, 288048.924521, -2512
Refix G18: 2, 288048.928382, 1216
Refix G19: 2, 288048.918514, -3682
Refix G22: 2, 288048.920456, -2613
Refix G28: 2, 288048.926820, -2886
Refix G30: 2, 288048.931353, -539
$GNGGA,080031.000,2944.9062,N,10633.0904,E,1,16,0.8,316.4,M,,,,0000*18
$GNRMC,080031.000,A,2944.9062,N,10633.0904,E,0.09,0.00,240419,,*18
$GPGSA,A,3,01,03,07,11,17,18,22,28,30,,,,0.9,0.8,0.4*34
$BDGSA,A,3,01,02,03,07,08,10,29,,,,,,0.9,0.8,0.4*23
$GLGSA,A,3,,,,,,,,,,,,,0.9,0.8,0.4*2B
$GPGSV,3,1,12,01,66,075,46,03,14,130,36,07,46,182,44,11,57,041,44*71
$GPGSV,3,2,12,17,34,268,39,18,41,048,43,22,20,107,39,28,45,328,43*70
$GPGSV,3,3,12,30,65,244,46,04,00,000,36,08,18,054,00,13,06,294,00*70
$BDGSV,3,1,11,01,40,125,41,02,46,219,40,03,55,171,43,07,65,096,43*6D
$BDGSV,3,2,11,08,81,169,43,10,76,007,44,13,54,205,42,29,49,260,43*61
$BDGSV,3,3,11,04,23,109,00,05,27,244,00,30,61,015,00*57
$B3CN0,0,0,0,0,0,0,0,0,0,0,0,0,0,0*4C
---00000014--- Acq_st=7 0  2019-4-24 8:0:31 
[00]  00(G01)  f 46  7  0   -495.6  2046000.6  0.0  2 0 3021 4573 1825
[01]  02(G03)  f 34  7  0  -3548.5  2046004.5  0.1  2 0  446 1156  566
[02]  06(G07)  f 44  7  0   1519.4  2045997.9  0.1  2 0 2527 3862 1926
[03]  10(G11)  f 44  7  0    606.7  2045999.2  0.0  2 0 1773 2427 1279
[04]  16(G17)  f 39  7  0  -2527.2  2046003.2  0.0  2 0  781 1743  624
[05]  17(G18)  f 43  7  0   1205.2  2045998.4  0.0  2 0 1622 2982 1476
[06]  21(G22)  f 39  7  0  -2626.7  2046003.3  0.3  2 0 1066 1610  439
[08]  27(G28)  f 43 11  0  -2899.2  2046003.7  0.1  2 0 1363 2958 1642
[09]  29(G30)  f 46  7  0   -551.1  2046000.7 -0.0  2 0 3065 5130 2401
[10]  03(G04)  f 36 10  0   1145.7  2045998.4 -0.1  2 0  845 1176  404
[16]  37(B01) 1f 40 19  0  -1074.0  4092002.7  0.0  2 0 1539 1611  957
[17]  38(B02) 1f 40 26  0  -1119.4  4092002.7  0.0  2 0  903 1244  372
[18]  39(B03) 1f 43 31  0  -1094.6  4092002.8 -0.3  2 0 1531 2303 1190
[20]  41(B05)  7 10 10  0  -2276.4  4092006.1 -0.0  2 0  203  431  487
[21]  43(B07) 1f 43  8  0  -1165.2  4092002.9 -0.0  2 0 1423 1948  817
[22]  44(B08) 1f 42  7  0  -1413.3  4092003.6 -0.1  2 0 1449 2101  859
[24]  46(B10) 1f 43  7  0  -1501.0  4092003.8  0.0  2 0 1626 1810  444
[25]  49(B13)  7 42  7  0  -1906.9  4092004.9  0.0  2 0 1287 2028  897
[26]  65(B29) 1f 43  7  0  -2304.5  4092005.9 -0.0  2 0 1880 2555 1162
[27]  63(B27)  7 12  7  0   1620.7  4091995.6  0.4 10 0  901 1303 1077
[32]  77(N-4)  f 46  7  0  -3049.9  1022001.9 -0.0  2 0  1145 2268  807
[33]  78(N-3)  f 45  7  0   2431.5  1021998.4 -0.1  2 0  1183 1915 1156
[34]  79(N-2)  f 44  7  0    199.0  1021999.9  0.0  2 0   875 1542  686
[35]  81(N00)  f 34  7  0  -5097.1  1022003.1 -0.0  2 0   457  802  238
[36]  83(N02)  f 43  7  0   1253.4  1021999.1 -0.0  2 0  1090 1782  949
[48]  37(B01)  7 10 20  0   -956.7 20460016.2 -0.2  2 0  342  360  630
[49]  38(B02)  1 14 10  1   -941.1 20460020.0  0.0  1 0  940  871  514
[53]  43(B07)  1  7  9  0  -1638.0 20460017.9 -0.1  1 0  394  465  275
[54]  44(B08)  1  7  8  0   -187.1 20460023.4 -0.1  1 0  329  407  455
[56]  46(B10)  1  7  7  0   -950.1 20460023.0 -0.1  1 0  390  280  320
[58]  65(B29)  1  7  8  0  -1452.2 20460035.5  0.1  1 0  141  275  459
calculate DOP row 0,[  0.58  -0.61  -0.54   1.00]
calculate DOP row 1,[ -0.11  -0.95  -0.29   1.00]
calculate DOP row 2,[  0.24  -0.94   0.23   1.00]
calculate DOP row 3,[  0.49  -0.41  -0.77   1.00]
calculate DOP row 4,[  0.63  -0.16  -0.76   1.00]
calculate DOP row 5,[ -0.26  -0.41  -0.87   1.00]
calculate DOP row 6,[  0.36  -0.93   0.07   0.00]
calculate DOP row 7,[  0.63  -0.66  -0.41   0.00]
calculate DOP row 8,[  0.29  -0.89  -0.36   0.00]
calculate DOP row 9,[  0.24  -0.69  -0.68   0.00]
calculate DOP row 10,[ -0.42  -0.86  -0.29   0.00]
calculate DOP row 11,[  0.81  -0.58   0.06   0.00]
calculate DOP row 12,[ -0.65  -0.71  -0.26   1.00]
calculate DOP row 13,[ -0.16  -0.98   0.10   0.00]
calculate DOP row 14,[  0.98  -0.17   0.08   1.00]
calculate DOP row 15,[  0.86  -0.30   0.41   1.00]
DOP:  0.26   0.20   0.41   0.20
Refix G01: 2, 288049.931874, -494
Refix G03: 2, 288049.919619, -3539
Refix G07: 2, 288049.929077, 1521
Refix G08: 2, 288049.920027, 1456
Refix G11: 2, 288049.930559, 607
Refix G13: 2, 288049.916512, -654
Refix G17: 2, 288049.924522, -2522
Refix G18: 2, 288049.928382, 1207
Refix G19: 2, 288049.918516, -3691
Refix G22: 2, 288049.920458, -2621
Refix G28: 2, 288049.926821, -2896
Refix G30: 2, 288049.931353, -551
$GNGGA,080032.000,2944.9063,N,10633.0904,E,1,16,0.8,315.7,M,,,,0000*1A
$GNRMC,080032.000,A,2944.9063,N,10633.0904,E,0.19,0.00,240419,,*1B
$GPGSA,A,3,01,03,07,11,17,18,22,28,30,,,,0.9,0.8,0.4*34
$BDGSA,A,3,01,02,03,07,08,10,29,,,,,,0.9,0.8,0.4*23
$GLGSA,A,3,,,,,,,,,,,,,0.9,0.8,0.4*2B
$GPGSV,3,1,12,01,66,075,46,03,14,130,34,07,46,182,44,11,57,041,44*73
$GPGSV,3,2,12,17,34,268,39,18,41,048,43,22,20,107,39,28,45,328,43*70
$GPGSV,3,3,12,30,65,244,46,04,00,000,36,08,18,054,00,13,06,294,00*70
$BDGSV,3,1,11,01,40,125,40,02,46,219,40,03,55,171,43,07,65,096,43*6C
$BDGSV,3,2,11,08,81,169,42,10,76,007,43,13,54,205,42,29,49,260,43*67
$BDGSV,3,3,11,04,23,109,00,05,27,244,00,30,61,015,00*57
$B3CN0,0,0,0,0,0,0,0,0,0,0,0,0,0,0*4C
---00000015--- Acq_st=7 0  2019-4-24 8:0:32 
[00]  00(G01)  f 46  7  0   -483.5  2046000.6 -0.0  2 0 3093 4832 2006
[01]  02(G03)  f 34 12  0  -3540.7  2046004.6 -0.0  2 0  518  924  612
[02]  06(G07)  f 44  7  0   1532.6  2045997.9 -0.0  2 0 2350 3920 2008
[03]  10(G11)  f 44 10  0    618.3  2045999.1 -0.0  2 0 2081 3269 1572
[04]  16(G17)  f 38  7  0  -2517.6  2046003.2 -0.0  2 0 1593 1530  628
[05]  17(G18)  f 43  7  0   1217.9  2045998.4 -0.1  2 0 1638 2926 1426
[06]  21(G22)  f 38  8  0  -2614.7  2046003.3 -0.2  2 0  230  628  250
[08]  27(G28)  f 43  8  0  -2888.5  2046003.7 -0.0  2 0 1956 2243  680
[09]  29(G30)  f 46  7  0   -540.2  2046000.6 -0.0  2 0 3292 5301 2693
[10]  03(G04)  f 35  7  0   1158.8  2045998.5  0.2  2 0  495 1056  815
[16]  37(B01) 1f 40 18  0  -1061.2  4092002.5 -0.4  2 0 1257 1269  499
[17]  38(B02) 1f 40 17  0  -1109.7  4092002.8 -0.5  2 0 1014 1187  281
[18]  39(B03) 1f 43 31  0  -1082.0  4092002.7  0.4  2 0 1909 2276  994
[20]  41(B05)  7 10 10  0  -2291.4  4092005.8 -0.0  2 0  373  445  551
[21]  43(B07) 1f 43  8  0  -1153.4  4092002.9  0.0  2 0 1343 1977  742
[22]  44(B08) 1f 43  7  0  -1397.0  4092003.5 -0.0  2 0 1746 2550  992
[24]  46(B10) 1f 43  7  0  -1489.8  4092003.8 -0.0  2 0 1864 2680  789
[25]  49(B13)  7 43  7  0  -1898.8  4092004.8  0.0  2 0 1910 2091  548
[26]  65(B29) 1f 44  7  0  -2293.5  4092005.9  0.0  2 0 2098 2816 1342
[27]  63(B27)  7 36  7  0   1635.8  4091995.6 -0.1  2 0  684  728  531
[32]  77(N-4) 8f 46  7  0  -3037.3  1022001.9 -0.1  2 0  1285 1935  565
[33]  78(N-3) 8f 45  7  0   2443.8  1021998.4  0.1  2 0  1126 1802  797
[34]  79(N-2) 8f 44  7  0    211.8  1021999.8 -0.1  2 0  1037 1698  827
[35]  81(N00) 8f 34  7  0  -5088.7  1022003.2 -0.0  2 0   384  520  231
[36]  83(N02) 8f 44  7  0   1265.7  1021999.1  0.0  2 0  1345 1863  638
[48]  37(B01)  7 20 10  1  -1168.3 20460019.7  0.1  2 0  574  286   62
[49]  38(B02)  1 16 10  1   -869.5 20460023.6 -0.1  1 0  851  701  348
[50]  39(B03)  1 19 10  1   -958.7 20460017.5  0.1  1 0  492  159  244
calculate DOP row 0,[  0.58  -0.61  -0.54   1.00]
calculate DOP row 1,[ -0.11  -0.95  -0.29   1.00]
calculate DOP row 2,[  0.24  -0.94   0.23   1.00]
calculate DOP row 3,[  0.49  -0.41  -0.77   1.00]
calculate DOP row 4,[ -0.42  -0.86  -0.29   0.00]
calculate DOP row 5,[  0.63  -0.16  -0.76   1.00]
calculate DOP row 6,[ -0.26  -0.41  -0.87   1.00]
calculate DOP row 7,[  0.63  -0.66  -0.41   0.00]
calculate DOP row 8,[  0.29  -0.89  -0.36   0.00]
calculate DOP row 9,[  0.24  -0.69  -0.68   0.00]
calculate DOP row 10,[  0.36  -0.93   0.07   0.00]
calculate DOP row 11,[  0.81  -0.58   0.06   0.00]
calculate DOP row 12,[ -0.16  -0.98   0.10   0.00]
calculate DOP row 13,[ -0.65  -0.71  -0.26   1.00]
calculate DOP row 14,[  0.98  -0.17   0.08   1.00]
calculate DOP row 15,[  0.86  -0.30   0.41   1.00]
DOP:  0.26   0.20   0.41   0.20
Refix G01: 2, 288050.931874, -484
Refix G03: 2, 288050.919621, -3532
Refix G07: 2, 288050.929076, 1531
Refix G08: 2, 288050.920026, 1462
Refix G11: 2, 288050.930559, 617
Refix G13: 2, 288050.916513, -649
Refix G17: 2, 288050.924524, -2514
Refix G18: 2, 288050.928381, 1215
Refix G19: 2, 288050.918519, -3685
Refix G22: 2, 288050.920460, -2615
Refix G28: 2, 288050.926823, -2888
Refix G30: 2, 288050.931354, -540
$GNGGA,080033.000,2944.9063,N,10633.0905,E,1,16,0.8,315.7,M,,,,0000*1A
$GNRMC,080033.000,A,2944.9063,N,10633.0905,E,0.05,0.00,240419,,*16
$GPGSA,A,3,01,03,07,11,17,18,22,28,30,,,,0.9,0.8,0.4*34
$BDGSA,A,3,01,02,03,07,08,10,29,,,,,,0.9,0.8,0.4*23
$GLGSA,A,3,,,,,,,,,,,,,0.9,0.8,0.4*2B
$GPGSV,3,1,12,01,66,075,46,03,14,130,34,07,46,182,44,11,57,041,44*73
$GPGSV,3,2,12,17,34,268,38,18,41,048,43,22,20,107,38,28,45,328,43*70
$GPGSV,3,3,12,30,65,244,46,04,00,000,35,08,18,054,00,13,06,294,00*73
$BDGSV,3,1,12,01,40,125,40,02,46,219,40,03,55,171,43,07,65,096,43*6F
$BDGSV,3,2,12,08,81,169,43,10,76,007,43,13,54,205,43,29,49,260,44*63
$BDGSV,3,3,12,27,00,000,36,04,23,109,00,05,27,244,00,30,61,015,00*64
$B3CN0,20,0,0,0,0,0,0,0,0,0,0,0,0,0*7E
---00000016--- Acq_st=7 0  2019-4-24 8:0:33 
[00]  00(G01)  f 45  7  0   -488.3  2046000.6  0.0  2 0 2594 4680 2413
[01]  02(G03)  f 34  7  0  -3535.1  2046004.6 -0.2  2 0  236  926  525
[02]  06(G07)  f 44  9  0   1528.6  2045998.0 -0.0  2 0 2467 3331 1526
[03]  10(G11)  f 44  8  0    612.1  2045999.1  0.0  2 0 2058 3171 1193
[04]  16(G17)  f 38  7  0  -2515.7  2046003.2 -0.0  2 0 1090 1215  459
[05]  17(G18)  f 43  7  0   1211.9  2045998.4  0.0  2 0 1810 2376 1002
[06]  21(G22)  f 38  7  0  -2617.2  2046003.3 -0.0  2 0  930 1591  410
[08]  27(G28)  f 43  7  0  -2890.3  2046003.7  0.1  2 0 1383 2802 1464
[09]  29(G30)  f 46  7  0   -543.8  2046000.6  0.0  2 0 3183 4820 2162
[10]  03(G04)  f 35  7  0   1146.5  2045998.4 -0.0  2 0 1269 1761  881
[16]  37(B01) 1f 40 10  0  -1070.3  4092002.7  0.8  2 0 1299 1833 1001
[17]  38(B02) 1f 40 20  0  -1117.9  4092002.8  0.5  2 0  798 1083  812
[18]  39(B03) 1f 45 32  0  -1087.9  4092002.7  0.1  2 0 1769 2288  959
[20]  41(B05)  7 14 10  0  -2647.7  4092007.0  0.0  2 0  358  331  326
[21]  43(B07) 1f 43  7  0  -1160.0  4092002.9  0.0  2 0 1979 2307  805
[22]  44(B08) 1f 43 10  0  -1404.4  4092003.5 -0.0  2 0 2266 2349  284
[24]  46(B10) 1f 43  7  0  -1495.4  4092003.8  0.0  2 0 1808 2494 1097
[25]  49(B13) 1f 42  7  0  -1902.9  4092004.8 -0.0  2 0  997 1806  391
[26]  65(B29) 1f 44  7  0  -2295.6  4092005.9  0.1  2 0 2726 3100 1691
[27]  63(B27) 1f 35  7  0   1638.3  4091995.6  0.0  2 0  681  997  447
[32]  77(N-4) 8f 46  7  0  -3042.1  1022001.9  0.1  2 0  1170 2312 1205
[33]  78(N-3) 8f 45 10  0   2439.3  1021998.4 -0.0  2 0  1173 1580  818
[34]  79(N-2) 8f 44  7  0    206.7  1021999.8 -0.1  2 0   652 1561  872
[35]  81(N00) 8f 35  7  0  -5091.4  1022003.1 -0.0  2 0   357  511  100
[36]  83(N02) 8f 44  7  0   1261.6  1021999.2  0.0  2 0  1059 1991 1170
[48]  37(B01)  7 18 10  1  -1319.5 20460021.1  0.0  2 0  980  233  440
[49]  38(B02)  1 10 10  1  -1031.2 20460022.8  0.2  1 0  538  539  496
[50]  39(B03)  1 23 18  0  -1452.0 20460020.7 -0.0  1 0  174  351  350
[53]  43(B07)  1  7  7  0   -746.4 20460017.7  0.1  1 0  663   55  133
[54]  44(B08)  1  7  7  0   -869.1 20460021.9 -0.0  1 0  410   59   42
[56]  46(B10)  1  7  7  0  -1625.1 20460023.9 -0.0  1 0  654  769  469
[58]  65(B29)  1  7  7  0  -1612.9 20460037.5 -0.0  1 0  112  171  451
calculate DOP row 0,[ -0.11  -0.95  -0.29   1.00]
calculate DOP row 1,[  0.58  -0.61  -0.54   1.00]
calculate DOP row 2,[  0.24  -0.94   0.23   1.00]
calculate DOP row 3,[  0.49  -0.41  -0.77   1.00]
calculate DOP row 4,[ -0.42  -0.86  -0.29   0.00]
calculate DOP row 5,[  0.63  -0.16  -0.76   1.00]
calculate DOP row 6,[ -0.26  -0.41  -0.87   1.00]
calculate DOP row 7,[  0.36  -0.93   0.07   0.00]
calculate DOP row 8,[  0.63  -0.66  -0.41   0.00]
calculate DOP row 9,[  0.29  -0.89  -0.36   0.00]
calculate DOP row 10,[  0.24  -0.69  -0.68   0.00]
calculate DOP row 11,[  0.04  -1.00   0.05   0.00]
calculate DOP row 12,[ -0.16  -0.98   0.10   0.00]
calculate DOP row 13,[  0.81  -0.58   0.06   0.00]
calculate DOP row 14,[ -0.65  -0.71  -0.26   1.00]
calculate DOP row 15,[  0.98  -0.17   0.08   1.00]
calculate DOP row 16,[  0.86  -0.30   0.41   1.00]
DOP:  0.26   0.17   0.40   0.20
Refix G01: 2, 288051.931874, -485
Refix G03: 2, 288051.919624, -3534
Refix G07: 2, 288051.929075, 1529
Refix G08: 2, 288051.920025, 1460
Refix G11: 2, 288051.930559, 616
Refix G13: 2, 288051.916513, -650
Refix G17: 2, 288051.924525, -2516
Refix G18: 2, 288051.928380, 1214
Refix G19: 2, 288051.918521, -3687
Refix G22: 2, 288051.920461, -2616
Refix G28: 2, 288051.926825, -2890
Refix G30: 2, 288051.931354, -542
$GNGGA,080034.000,2944.9063,N,10633.0906,E,1,17,0.8,315.2,M,,,,0000*1A
$GNRMC,080034.000,A,2944.9063,N,10633.0906,E,0.19,0.00,240419,,*1F
$GPGSA,A,3,01,03,07,11,17,18,22,28,30,,,,0.9,0.8,0.4*34
$BDGSA,A,3,01,02,03,07,08,10,13,29,,,,,0.9,0.8,0.4*21
$GLGSA,A,3,,,,,,,,,,,,,0.9,0.8,0.4*2B
$GPGSV,3,1,12,01,66,075,45,03,14,130,34,07,46,182,44,11,57,041,44*70
$GPGSV,3,2,12,17,34,268,38,18,41,048,43,22,20,107,38,28,45,328,43*70
$GPGSV,3,3,12,30,65,244,46,04,00,000,35,08,18,054,00,13,06,294,00*73
$BDGSV,3,1,12,01,40,125,40,02,46,219,40,03,55,171,45,07,65,096,43*69
$BDGSV,3,2,12,08,81,169,43,10,76,007,43,13,54,205,42,29,49,260,44*62
$BDGSV,3,3,12,27,00,000,35,04,23,109,00,05,27,244,00,30,61,015,00*67
$B3CN0,17,0,0,0,0,0,0,0,0,0,0,0,0,0*7A
---00000017--- Acq_st=3 0  2019-4-24 8:0:34 
[00]  00(G01)  f 46  8  0   -480.7  2046000.6 -0.0  2 0 2518 4332 2006
[01]  02(G03)  f 34  7  0  -3538.7  2046004.5  0.0  2 0  943  882  245
[02]  06(G07)  f 44 10  0   1534.9  2045997.9  0.0  2 0 2020 3110 1230
[03]  10(G11)  f 44  7  0    622.7  2045999.1 -0.0  2 0 1451 3007 1976
[04]  16(G17)  f 39  7  0  -2503.8  2046003.2  0.2  2 0  837 1019  294
[05]  17(G18)  f 43  7  0   1216.1  2045998.3  0.1  2 0 1108 2360 1576
[06]  21(G22)  f 39 11  0  -2612.5  2046003.3 -0.1  2 0  443 1283  869
[08]  27(G28)  f 43  8  0  -2884.0  2046003.7 -0.0  2 0 2183 3072  842
[09]  29(G30)  f 46  7  0   -535.5  2046000.6 -0.0  2 0 3103 5169 2206
[10]  03(G04)  f 35  8  0   1153.0  2045998.3 -0.1  2 0 1040 1368  722
[11]  07(G08)  9 21  7  0   1470.5  2045998.2  0.0  1 0  357  506  215
[16]  37(B01) 1f 41 10  0  -1060.1  4092002.5  0.4  2 0 1359 1316  278
[17]  38(B02) 1f 39 25  0  -1103.9  4092002.7 -0.7  2 0  911 1294  856
[18]  39(B03) 1f 43 30  0  -1077.6  4092002.7  0.2  2 0 1675 2063  911
[21]  43(B07) 1f 43  7  0  -1149.9  4092002.9 -0.1  2 0 1284 2304  966
[22]  44(B08) 1f 43 10  0  -1398.8  4092003.5  0.0  2 0 1604 1890  814
[24]  46(B10) 1f 43  7  0  -1487.3  4092003.8 -0.0  2 0 2073 2324  907
[25]  49(B13) 1f 42  9  0  -1895.0  4092004.9  0.0  2 0 1688 2204 1066
[26]  65(B29) 1f 44  7  0  -2292.1  4092005.9  0.0  2 0 1989 2649 1045
[27]  63(B27) 1f 35  7  0   1639.9  4091995.5  0.4  2 0  765 1280  728
[32]  77(N-4) 8f 46  7  0  -3035.0  1022001.9  0.0  2 0  1270 2360 1368
[33]  78(N-3) 8f 45  7  0   2447.4  1021998.4 -0.0  2 0  1190 2047 1036
[34]  79(N-2) 8f 45  7  0    215.3  1021999.8  0.0  2 0  1053 1844  783
[35]  81(N00) 8f 35  7  0  -5086.7  1022003.2 -0.0  2 0   100  400  252
[36]  83(N02) 8f 44  7  0   1270.1  1021999.2 -0.1  2 0   788 1447  898
[48]  37(B01)  7 10 20  0  -1366.3 20460023.3  0.1  2 0  520  552  299
[50]  39(B03)  1 23 10  1  -1399.1 20460023.1  0.0  1 0  336  886  957
[53]  43(B07)  1  7  7  0   -726.2 20460017.4  0.1  1 0  255  375  413
[54]  44(B08)  1  7  8  0  -1249.8 20460021.8 -0.1  1 0  489  662  879
[56]  46(B10)  1  7  7  0  -1217.1 20460024.2  0.1  1 0  308  767  398
[57]  49(B13)  1  7  7  0  -1220.8 20460029.9  0.1  1 0  502  476  147
[58]  65(B29)  1  7  7  0  -2139.8 20460035.2  0.0  1 0  181  212  571
calculate DOP row 0,[  0.58  -0.61  -0.54   1.00]
calculate DOP row 1,[ -0.11  -0.95  -0.29   1.00]
calculate DOP row 2,[  0.24  -0.94   0.23   1.00]
calculate DOP row 3,[  0.49  -0.41  -0.77   1.00]
calculate DOP row 4,[ -0.42  -0.86  -0.29   0.00]
calculate DOP row 5,[  0.63  -0.16  -0.76   1.00]
calculate DOP row 6,[ -0.26  -0.41  -0.87   1.00]
calculate DOP row 7,[  0.63  -0.66  -0.41   0.00]
calculate DOP row 8,[  0.29  -0.89  -0.36   0.00]
calculate DOP row 9,[  0.24  -0.69  -0.68   0.00]
calculate DOP row 10,[  0.36  -0.93   0.07   0.00]
calculate DOP row 11,[  0.04  -1.00   0.05   0.00]
calculate DOP row 12,[  0.81  -0.58   0.06   0.00]
calculate DOP row 13,[ -0.16  -0.98   0.10   0.00]
calculate DOP row 14,[ -0.65  -0.71  -0.26   1.00]
calculate DOP row 15,[  0.98  -0.17   0.08   1.00]
calculate DOP row 16,[  0.86  -0.30   0.41   1.00]
DOP:  0.26   0.17   0.40   0.20
Refix G01: 2, 288052.931874, -480
Refix G03: 2, 288052.919626, -3531
Refix G07: 2, 288052.929074, 1534
Refix G08: 2, 288052.920024, 1463
Refix G11: 2, 288052.930558, 620
Refix G13: 2, 288052.916513, -646
Refix G17: 2, 288052.924527, -2511
Refix G18: 2, 288052.928379, 1218
Refix G19: 2, 288052.918523, -3683
Refix G22: 2, 288052.920463, -2612
Refix G28: 2, 288052.926827, -2886
Refix G30: 2, 288052.931354, -536
$GNGGA,080035.000,2944.9063,N,10633.0907,E,1,17,0.8,315.0,M,,,,0000*18
$GNRMC,080035.000,A,2944.9063,N,10633.0907,E,0.23,0.00,240419,,*16
$GPGSA,A,3,01,03,07,11,17,18,22,28,30,,,,0.9,0.8,0.4*34
$BDGSA,A,3,01,02,03,07,08,10,13,29,,,,,0.9,0.8,0.4*21
$GLGSA,A,3,,,,,,,,,,,,,0.9,0.8,0.4*2B
$GPGSV,3,1,12,01,66,075,46,03,14,130,34,07,46,182,44,11,57,041,44*73
$GPGSV,3,2,12,17,34,268,39,18,41,048,43,22,20,107,39,28,45,328,43*70
$GPGSV,3,3,12,30,65,244,46,04,00,000,35,08,18,054,00,13,06,294,00*73
$BDGSV,3,1,12,01,40,125,41,02,46,219,39,03,55,171,43,07,65,096,43*60
$BDGSV,3,2,12,08,81,169,43,10,76,007,43,13,54,205,42,29,49,260,44*62
$BDGSV,3,3,12,27,00,000,35,04,23,109,00,05,27,244,00,30,61,015,00*67
$B3CN0,0,0,0,0,0,0,0,0,0,0,0,0,0,0*4C
---00000018--- Acq_st=3 0  2019-4-24 8:0:35 
[00]  00(G01)  f 45  8  0   -482.9  2046000.6 -0.0  2 0 3136 4396 1898
[01]  02(G03)  f 34  8  0  -3537.5  2046004.6  0.1  2 0  965 1150  727
[02]  06(G07)  f 44  7  0   1532.4  2045998.0  0.0  2 0 2067 3020 1071
[03]  10(G11)  f 44  7  0    617.3  2045999.1  0.0  2 0 1672 3096 1867
[04]  16(G17)  f 39  7  0  -2519.7  2046003.2  0.2  2 0 1560 2085 1107
[05]  17(G18)  f 44  7  0   1216.8  2045998.4 -0.1  2 0 1678 2729 1249
[06]  21(G22)  f 38  7  0  -2613.5  2046003.4  0.1  2 0 1014 2103 1565
[08]  27(G28)  f 42  7  0  -2889.7  2046003.7 -0.0  2 0 1477 2849 1345
[09]  29(G30)  f 45  7  0   -540.3  2046000.6  0.0  2 0 3108 4764 2502
[10]  03(G04)  f 36  7  0   1145.1  2045998.5  0.0  2 0  157  278  223
[11]  07(G08)  f  7  7  0   1460.0  2045998.0  0.8 10 0  738  894  550
[12]  24(G25)  1  9  7  0  -4719.7  2046005.5 -0.0  1 0  303  440  139
[16]  37(B01) 1f 40 20  0  -1066.3  4092002.7 -0.4  2 0 1488 1019  651
[17]  38(B02) 1f 41 19  0  -1115.7  4092002.8  0.1  2 0 1070 1110  343
[18]  39(B03) 1f 43 32  0  -1078.6  4092002.7 -0.2  2 0 1680 2281  992
[21]  43(B07) 1f 42  8  0  -1157.1  4092002.9  0.0  2 0 2147 2296  855
[22]  44(B08) 1f 42  9  0  -1404.7  4092003.6 -0.0  2 0 1173 1752 1031
[24]  46(B10) 1f 43  7  0  -1490.7  4092003.8  0.0  2 0 1330 2138  859
[25]  49(B13) 1f 42  7  0  -1902.2  4092004.9  0.0  2 0 1011 1841  950
[26]  65(B29) 1f 44  7  0  -2294.4  4092005.9  0.0  2 0 2473 2946 1289
[27]  63(B27) 1f 35  7  0   1628.2  4091995.5 -0.5  2 0  660  835  367
[32]  77(N-4) 8f 46  7  0  -3036.9  1022001.9 -0.0  2 0   930 2061  891
[33]  78(N-3) 8f 46  8  0   2440.9  1021998.4 -0.1  2 0   992 2070 1173
[34]  79(N-2) 8f 45  7  0    211.6  1021999.8 -0.0  2 0  1195 1850  859
[35]  81(N00) 8f 35  7  0  -5091.1  1022003.2 -0.0  2 0   294  471  335
[36]  83(N02) 8f 44  7  0   1266.9  1021999.1  0.1  2 0  1069 1296  598
[49]  38(B02)  1 10 10  0   -876.1 20460017.3  0.0  1 0  529  922  450
[50]  39(B03)  1 22 10  1  -1001.0 20460023.2 -0.1  1 0  111  313  688
[53]  43(B07)  1  7  7  0   -948.9 20460017.9  0.0  1 0  559  938  481
[54]  44(B08)  1  7  7  0  -1139.7 20460022.3  0.1  1 0  464  164  250
[56]  46(B10)  1  7 10  0  -1235.1 20460022.8 -0.0  1 0  340  192  845
[57]  49(B13)  1  7  9  0  -1097.2 20460030.5 -0.0  1 0  315  156  574
[58]  65(B29)  1  7  7  0  -2020.7 20460037.1 -0.1  1 0  376  348  332
calculate DOP row 0,[  0.58  -0.61  -0.54   1.00]
calculate DOP row 1,[ -0.11  -0.95  -0.29   1.00]
calculate DOP row 2,[  0.24  -0.94   0.23   1.00]
calculate DOP row 3,[  0.49  -0.41  -0.77   1.00]
calculate DOP row 4,[ -0.42  -0.86  -0.29   0.00]
calculate DOP row 5,[  0.63  -0.16  -0.76   1.00]
calculate DOP row 6,[ -0.26  -0.41  -0.87   1.00]
calculate DOP row 7,[  0.24  -0.69  -0.68   0.00]
calculate DOP row 8,[  0.36  -0.93   0.07   0.00]
calculate DOP row 9,[  0.63  -0.66  -0.41   0.00]
calculate DOP row 10,[  0.29  -0.89  -0.36   0.00]
calculate DOP row 11,[  0.04  -1.00   0.05   0.00]
calculate DOP row 12,[  0.81  -0.58   0.06   0.00]
calculate DOP row 13,[ -0.16  -0.98   0.10   0.00]
calculate DOP row 14,[ -0.65  -0.71  -0.26   1.00]
calculate DOP row 15,[  0.98  -0.17   0.08   1.00]
calculate DOP row 16,[  0.86  -0.30   0.41   1.00]
DOP:  0.26   0.17   0.40   0.20
Refix G01: 2, 288053.931875, -488
Refix G03: 2, 288053.919628, -3537
Refix G07: 2, 288053.929073, 1527
Refix G08: 2, 288053.920023, 1457
Refix G11: 2, 288053.930558, 613
