SD initialized success
Create debug.log Failed! 3
bbram_blkflag = 1
rtcflag = 128
BBRAM Block OK: 01 EPHflag: 2c4205c9 340093df, rtc 80
GPS 0 Init Dop: 10000,80
GPS 1 Init Dop: 10000,80
GPS 2 Init Dop: 10000,80
GPS 3 Init Dop: 10000,80
GPS 4 Init Dop: 10000,80
GPS 5 Init Dop: 10000,80
GPS 6 Init Dop: 10000,80
GPS 7 Init Dop: 10000,80
GPS 8 Init Dop: 10000,80
GPS 9 Init Dop: 10000,80
GPS10 Init Dop: 10000,80
GPS11 Init Dop: 10000,80
GPS12 Init Dop: 10000,80
GPS13 Init Dop: 10000,80
GPS14 Init Dop: 10000,80
GPS15 Init Dop: 10000,80
GPS16 Init Dop: 10000,80
GPS17 Init Dop: 10000,80
GPS18 Init Dop: 10000,80
GPS19 Init Dop: 10000,80
GPS20 Init Dop: 10000,80
GPS21 Init Dop: 10000,80
GPS22 Init Dop: 10000,80
GPS23 Init Dop: 10000,80
GPS24 Init Dop: 10000,80
GPS25 Init Dop: 10000,80
GPS26 Init Dop: 10000,80
GPS27 Init Dop: 10000,80
GPS28 Init Dop: 10000,80
GPS29 Init Dop: 10000,80
GPS30 Init Dop: 10000,80
GPS31 Init Dop: 10000,80
BDS 0 Init Dop: 10000,80
BDS 1 Init Dop: 10000,80
BDS 2 Init Dop: 10000,80
BDS 3 Init Dop: 10000,80
BDS 4 Init Dop: 10000,80
BDS 5 Init Dop: 10000,80
BDS 6 Init Dop: 10000,80
BDS 7 Init Dop: 10000,80
BDS 8 Init Dop: 10000,80
BDS 9 Init Dop: 10000,80
BDS10 Init Dop: 10000,80
BDS11 Init Dop: 10000,80
BDS12 Init Dop: 10000,80
BDS13 Init Dop: 10000,80
BDS14 Init Dop: 10000,80
BDS15 Init Dop: 10000,80
BDS16 Init Dop: 10000,80
BDS17 Init Dop: 10000,80
BDS18 Init Dop: 10000,80
BDS19 Init Dop: 10000,80
BDS20 Init Dop: 10000,80
BDS21 Init Dop: 10000,80
BDS22 Init Dop: 10000,80
BDS23 Init Dop: 10000,80
BDS24 Init Dop: 10000,80
BDS25 Init Dop: 10000,80
BDS26 Init Dop: 10000,80
BDS27 Init Dop: 10000,80
BDS28 Init Dop: 10000,80
BDS29 Init Dop: 10000,80
BDS30 Init Dop: 10000,80
BDS31 Init Dop: 10000,80
Good luck!
ch0 satid=0 freq=-2500 acq ok!
ch1 satid=6 freq=0 acq ok!
ch2 satid=7 freq=1500 acq ok!
ch3 satid=10 freq=-750 acq ok!
$GNGGA,000000.000,,,,,0,00,,,M,,,,0000*2B
$GNRMC,000000.000,A,,,,,,,060180,,*29
$GPGSA,A,1,,,,,,,,,,,,,,,*1E
$BDGSA,A,1,,,,,,,,,,,,,,,*0F
$GLGSA,A,1,,,,,,,,,,,,,,,*02
$B3CN0,0,0,0,0,0,0,0,0,0,0,0,0,0,0*4C
---00000001--- Acq_st=3 0  2000-1-1 0:0:49 
[00]  00(G01)  1 29  7  0  -2470.4  2046003.8  0.4  1 0 2152 2681 1023
[01]  06(G07)  1  7  7  0     -0.0  2046001.8  0.1  1 0 1160 3432 2701
[02]  07(G08)  1 13  7  0   1500.0  2046000.5 -0.1  1 0  873 1864 1254
[03]  10(G11)  1  7  7  0   -750.0  2046002.4 -0.1  1 0  779  983 1554
ch4 satid=17 freq=-500 acq ok!
$GNGGA,000000.000,,,,,0,00,,,M,,,,0000*2B
$GNRMC,000000.000,A,,,,,,,060180,,*29
$GPGSA,A,1,,,,,,,,,,,,,,,*1E
$BDGSA,A,1,,,,,,,,,,,,,,,*0F
$GLGSA,A,1,,,,,,,,,,,,,,,*02
$B3CN0,0,0,0,0,0,0,0,0,0,0,0,0,0,0*4C
---00000002--- Acq_st=3 0  2000-1-1 0:0:50 
[00]  00(G01)  7 26  7  0  -2462.5  2046003.1  0.7 10 0 2566 3546 1387
[01]  06(G07)  1 33  7  0    -98.4  2045999.9  0.9  1 0 2640 3257 1537
[02]  07(G08)  1 29  7  0   1458.3  2045997.6  0.6  1 0 1362 2110  792
[03]  10(G11)  1 28  7  0   -912.1  2046001.7  0.7  1 0 1706 2962 1568
[04]  17(G18)  1 18  7  0   -594.6  2046003.6  0.2  1 0  125 1118 2402
[05]  21(G22)  1  7  7  0  -3000.0  2046003.4  0.1  1 0  316  214  151
ch6 satid=27 freq=-3000 acq ok!
ch8 satid=29 freq=-2250 acq ok!
ch18 satid=39 freq=-1250 acq ok!
$GNGGA,000000.000,,,,,0,00,,,M,,,,0000*2B
$GNRMC,000000.000,A,,,,,,,060180,,*29
$GPGSA,A,1,,,,,,,,,,,,,,,*1E
$BDGSA,A,1,,,,,,,,,,,,,,,*0F
$GLGSA,A,1,,,,,,,,,,,,,,,*02
$GPGSV,1,1,01,01,00,000,26*4D
$B3CN0,0,0,0,0,0,0,0,0,0,0,0,0,0,0*4C
---00000003--- Acq_st=3 0  2000-1-1 0:0:51 
[00]  00(G01)  7 43  7  0  -2457.7  2046003.1  0.0  2 0 1798 2896 1589
[01]  06(G07)  7 37  7  0    -90.5  2046000.0  0.1  2 0 2116 3499 1679
[02]  07(G08)  7 35  7  0   1461.0  2045998.0  0.2  5 0  917 1864 1118
[03]  10(G11)  7 31  7  0   -906.0  2046001.1  0.3  5 0 1611 2517 1299
[04]  17(G18)  7 16  7  0   -580.4  2046000.6  0.9 10 0 2353 2578  620
[05]  21(G22)  1  7  8  0  -2268.5  2046003.2 -0.1  1 0  299  126  559
[06]  27(G28)  1 22 13  0  -2918.0  2046004.5  0.3  1 0 1351 2406 1006
[08]  29(G30)  1 21  7  0  -2340.2  2046004.3  0.2  1 0 2569 5099 2542
[16]  37(B01)  1 10 17  0  -1000.0  4092004.7  0.1  1 0  451 1321 1975
[17]  38(B02)  1 21 26  1  -1000.0  4092002.5  0.0  1 0  519  516  494
[18]  39(B03)  1 17 10  0  -1250.0  4092005.1  0.2  1 0  526 1163 1846
[19]  40(B04)  1 10 10  0  -1250.0  4092003.3  0.1  1 0  234   33  458
ch21 satid=43 freq=-1500 acq ok!
ch22 satid=44 freq=-1750 acq ok!
ch24 satid=46 freq=-1500 acq ok!
$GNGGA,000000.000,,,,,0,00,,,M,,,,0000*2B
$GNRMC,000000.000,A,,,,,,,060180,,*29
$GPGSA,A,1,,,,,,,,,,,,,,,*1E
$BDGSA,A,1,,,,,,,,,,,,,,,*0F
$GLGSA,A,1,,,,,,,,,,,,,,,*02
$GPGSV,2,1,05,01,00,000,43,07,00,000,36,08,00,000,35,11,00,000,31*77
$GPGSV,2,2,05,18,00,000,16*42
$B3CN0,0,0,0,0,0,0,0,0,0,0,0,0,0,0*4C
---00000004--- Acq_st=3 0  2000-1-1 0:0:52 
[00]  00(G01)  7 43  7  0  -2459.2  2046003.1 -0.0  2 0 2092 3008 1340
[01]  06(G07)  7 45 11  0    -92.7  2046000.0  0.0  2 0 3043 3872 1917
[02]  07(G08)  7 42  8  0   1462.5  2045998.0 -0.1  2 0  835 1245  492
[03]  10(G11)  7 44  7  0   -906.2  2046001.1  0.1  2 0 1312 2534 1276
[04]  17(G18)  7 43  7  0   -582.3  2046000.6  0.1  2 0 1727 2690 1220
[05]  21(G22)  1  9 12  0  -1937.4  2046003.1 -0.2  1 0   23  306   50
[06]  27(G28)  7 25  7  0  -2916.1  2046003.7  0.8 10 0 1647 2262  602
[08]  29(G30)  7 21  7  0  -2336.1  2046002.9  0.8 10 0 2635 3285 1469
[16]  37(B01)  1 10 23  1  -1106.9  4092004.5  0.3  1 0 1280 1017  164
[17]  38(B02)  1 10 10  0  -1438.5  4092001.7 -0.0  1 0  107  285  374
[18]  39(B03)  1 10 29  1  -1123.6  4092005.2  0.3  1 0 1136 2468 1934
[19]  40(B04)  1 10 20  0  -1170.6  4092005.0 -0.1  1 0  198   49  787
[20]  41(B05)  1 10 10  0   -491.6  4092001.4  0.2  1 0  420  265  463
[21]  43(B07)  1  7  7  0  -1337.6  4092005.9 -0.0  1 0  531  196 1673
[22]  44(B08)  1  7  7  0  -1770.5  4092004.0  0.0  1 0  439   41  374
[24]  46(B10)  1  7  7  0  -1500.0  4092005.5  0.0  1 0   98 1298 2023
ch25 satid=49 freq=-2500 acq ok!
$GNGGA,000000.000,,,,,0,00,,,M,,,,0000*2B
$GNRMC,000000.000,A,,,,,,,060180,,*29
$GPGSA,A,1,,,,,,,,,,,,,,,*1E
$BDGSA,A,1,,,,,,,,,,,,,,,*0F
$GLGSA,A,1,,,,,,,,,,,,,,,*02
$GPGSV,2,1,07,01,00,000,43,07,00,000,45,08,00,000,42,11,00,000,44*73
$GPGSV,2,2,07,18,00,000,43,28,00,000,25,30,00,000,21*4D
$B3CN0,0,0,0,0,0,0,0,0,0,0,0,0,0,0*4C
---00000005--- Acq_st=3 0  2000-1-1 0:0:53 
[00]  00(G01)  7 43  7  0  -2455.6  2046003.1  0.0  2 0 2108 2883 1334
[01]  06(G07)  7 45  7  0    -90.3  2046000.0 -0.0  2 0 2695 4524 2511
[02]  07(G08)  7 41  7  0   1461.1  2045998.0  0.0  2 0 1405 2784 1666
[03]  10(G11)  7 44  7  0   -902.1  2046001.1  0.0  2 0 1777 2554 1378
[04]  17(G18)  7 43  7  0   -579.9  2046000.6  0.0  2 0 1890 2270 1183
[05]  21(G22)  1  7  7  0  -2341.8  2046004.1 -0.0  1 0  443  342  574
[06]  27(G28)  7 42  9  0  -2912.5  2046003.7 -0.1  2 0 1701 2119 1039
[08]  29(G30)  7 46  7  0  -2336.4  2046003.0  0.0  2 0 2687 4795 2803
[16]  37(B01)  f 39 10  0  -1105.5  4092002.7 -0.6  2 0 1004 1237  739
[17]  38(B02)  1 36 10  0  -1293.1  4092003.7 -0.1  1 0  104  260  533
[18]  39(B03)  7 42 30  0  -1121.5  4092002.7 -0.1  2 0 1513 1908  451
[19]  40(B04)  7 37 21  0  -1116.0  4092003.2  0.8  2 0  292  695 1355
[20]  41(B05)  1 10 10  0   -291.1  4092002.8 -0.0  1 0  670  637  452
[21]  43(B07)  7  7  7  0  -1349.8  4092003.4  0.3  5 0 2003 2382 1049
[22]  44(B08)  1  9 10  0  -1349.6  4092004.0  0.1  1 0  201  284  248
[24]  46(B10)  1  7  7  0  -1578.5  4092004.1  0.4  1 0 1508 2752 1593
[25]  49(B13)  1  7  7  0  -2316.7  4092006.1 -0.1  1 0 1621 2598 1293
$GNGGA,000000.000,,,,,0,00,,,M,,,,0000*2B
$GNRMC,000000.000,A,,,,,,,060180,,*29
$GPGSA,A,1,,,,,,,,,,,,,,,*1E
$BDGSA,A,1,,,,,,,,,,,,,,,*0F
$GLGSA,A,1,,,,,,,,,,,,,,,*02
$GPGSV,2,1,07,01,00,000,43,07,00,000,44,08,00,000,41,11,00,000,44*71
$GPGSV,2,2,07,18,00,000,43,28,00,000,42,30,00,000,46*4D
$BDGSV,1,1,03,01,00,000,39,03,00,000,42,04,00,000,37*55
$B3CN0,0,0,0,0,0,0,0,0,0,0,0,0,0,0*4C
---00000006--- Acq_st=3 0  2000-1-1 0:0:54 
[00]  00(G01)  7 43  7  0  -2455.8  2046003.1  0.0  2 0 1608 3287 1848
[01]  06(G07)  7 44  7  0    -90.7  2046000.0  0.0  2 0 2353 3958 2476
[02]  07(G08)  7 42  7  0   1463.0  2045998.0  0.0  2 0 1341 2463 1268
[03]  10(G11)  7 44  7  0   -904.4  2046001.1 -0.0  2 0 1772 2441 1137
[04]  17(G18)  7 43  7  0   -578.4  2046000.7 -0.0  2 0 2181 3075 1404
[05]  21(G22)  1  7  7  0  -2533.9  2046003.3 -0.0  1 0  178  244  157
[06]  27(G28)  7 42  7  0  -2917.4  2046003.7 -0.0  2 0 1104 2243 1322
[08]  29(G30)  7 45  7  0  -2334.7  2046003.0  0.0  2 0 2805 4404 1910
[16]  37(B01) 1f 40 13  0  -1104.3  4092002.7 -0.7  2 0 1590 1737  809
[17]  38(B02)  7 10 10  0  -1377.9  4092003.6  0.1  2 0  384  279  339
[18]  39(B03) 1f 41 31  0  -1122.4  4092002.8  0.1  2 0 1923 2269 1036
[19]  40(B04) 1f 38 23  0  -1111.9  4092003.0 -0.2  2 0 1047 1455 1164
[20]  41(B05)  1 10 10  0   -417.8  4092003.8  0.2  1 0   73  387  331
[21]  43(B07)  7 43  8  0  -1348.2  4092003.4 -0.0  2 0 2060 2096  910
[22]  44(B08)  1  7  7  0  -1241.7  4092004.1  0.1  1 0  436  585  192
[24]  46(B10)  7 32  7  0  -1576.9  4092004.1  0.3  5 0 1404 2390 1013
[25]  49(B13)  7 24  7  0  -2316.2  4092006.1  0.2 10 0 1179 2537 1673
[48]  37(B01)  1 10 13  0   -201.8 20460019.9  0.3  1 0  114  142   83
ch27 satid=65 freq=-3250 acq ok!
ch28 satid=66 freq=-750 acq ok!
$GNGGA,000000.000,,,,,0,00,,,M,,,,0000*2B
$GNRMC,000000.000,A,,,,,,,060180,,*29
$GPGSA,A,1,,,,,,,,,,,,,,,*1E
$BDGSA,A,1,,,,,,,,,,,,,,,*0F
$GLGSA,A,1,,,,,,,,,,,,,,,*02
$GPGSV,2,1,07,01,00,000,43,07,00,000,44,08,00,000,42,11,00,000,44*72
$GPGSV,2,2,07,18,00,000,43,28,00,000,42,30,00,000,45*4E
$BDGSV,2,1,06,01,00,000,40,03,00,000,41,04,00,000,39,07,00,000,43*60
$BDGSV,2,2,06,10,00,000,32,13,00,000,24*6A
$B3CN0,0,0,0,0,0,0,0,0,0,0,0,0,0,0*4C
---00000007--- Acq_st=3 0  2000-1-1 0:0:55 
[00]  00(G01)  7 43  7  0  -2451.8  2046003.1 -0.0  2 0 1889 3073 1355
[01]  06(G07)  7 44  7  0    -85.9  2046000.1 -0.0  2 0 2265 3420 2043
[02]  07(G08)  7 41  7  0   1464.1  2045998.0  0.0  2 0 1412 2286  922
[03]  10(G11)  7 43  7  0   -902.2  2046001.1  0.0  2 0 1254 2253 1120
[04]  17(G18)  7 44  9  0   -576.4  2046000.7 -0.0  2 0 1814 3063 1561
[06]  27(G28)  7 42  7  0  -2919.5  2046003.7  0.0  2 0 1273 2435 1287
[08]  29(G30)  7 45  7  0  -2330.7  2046003.0 -0.0  2 0 3166 4470 1827
[16]  37(B01) 1f 40 10  0  -1100.9  4092002.8  0.5  2 0 1590 1831 1045
[17]  38(B02)  7 16 10  0  -1524.6  4092004.4  0.0  2 0  134  699 1428
[18]  39(B03) 1f 42 30  0  -1113.6  4092002.7  0.2  2 0 1268 1848  668
[19]  40(B04) 1f 40 25  0  -1114.5  4092003.0  0.2  2 0  313 1511  959
[20]  41(B05)  1 10 24  0    224.1  4092003.1  0.0  1 0  526  554  413
[21]  43(B07)  7 42  7  0  -1347.5  4092003.4 -0.0  2 0 1738 2542 1643
[22]  44(B08)  1  7  7  0  -1560.1  4092004.0 -0.0  1 0  148  234   85
[24]  46(B10)  7 43  7  0  -1575.9  4092004.0 -0.1  2 0 1354 1976  640
[25]  49(B13)  7 43  7  0  -2313.1  4092006.0 -0.1  2 0 1077 2204  886
[26]  63(B27)  1  7  7  0   1575.2  4091995.5  0.0  1 0 1261 1954 1148
[27]  65(B29)  1  7  7  0  -3250.0  4092009.3 -0.0  1 0  989 2228 1720
[28]  66(B30)  1  7  7  0   -750.0  4092002.3  0.0  1 0  934 2960 2105
[48]  37(B01)  1 10 10  1   -495.9 20460020.3  0.1  1 0  511  855  568
[50]  39(B03)  1 20 10  1   -714.9 20460019.5 -0.1  1 0  141  363  595
[51]  40(B04)  1 23 23  1   -937.6 20460021.1  0.0  1 0  769  583  547
ch32 satid=78 freq=1750 acq ok!
ch33 satid=79 freq=-1750 acq ok!
ch34 satid=82 freq=2250 acq ok!
ch35 satid=83 freq=-750 acq ok!
$GNGGA,071443.890,,,,,0,00,,,M,,,,0000*2F
$GNRMC,071443.890,A,,,,,,,090180,,*22
$GPGSA,A,1,,,,,,,,,,,,,,,*1E
$BDGSA,A,1,,,,,,,,,,,,,,,*0F
$GLGSA,A,1,,,,,,,,,,,,,,,*02
$GPGSV,2,1,07,01,00,000,43,07,00,000,44,08,00,000,41,11,00,000,43*76
$GPGSV,2,2,07,18,00,000,44,28,00,000,42,30,00,000,45*49
$BDGSV,2,1,07,01,00,000,40,02,00,000,18,03,00,000,42,04,00,000,39*69
$BDGSV,2,2,07,07,00,000,42,10,00,000,43,13,00,000,43*5D
$B3CN0,0,0,0,0,0,0,0,0,0,0,0,0,0,0*4C
---00000008--- Acq_st=3 0  2000-1-1 0:0:56 
[00]  00(G01)  f 43  7  0  -2454.4  2046003.1  0.0  2 0 2216 2785 1451
[01]  06(G07)  f 45 10  0    -87.0  2046000.1  0.0  2 0 2715 4054 1821
[02]  07(G08)  f 41  7  0   1466.1  2045998.1 -0.1  2 0 1195 2457 1626
[03]  10(G11)  f 43  7  0   -901.2  2046001.1  0.0  2 0 1497 2682 1688
[04]  17(G18)  f 44  7  0   -575.2  2046000.7  0.0  2 0 2008 2895 1351
[06]  27(G28)  f 42  7  0  -2914.5  2046003.7 -0.1  2 0 1190 2112 1031
[08]  29(G30)  f 45 12  0  -2332.7  2046003.0 -0.1  2 0 2341 4050 1539
[16]  37(B01) 1f 39 10  0  -1100.3  4092002.6  0.8  2 0  738  819  325
[17]  38(B02)  7 10 10  1  -1709.8  4092004.4 -0.1  2 0  192  692 1199
[18]  39(B03) 1f 42 30  0  -1117.5  4092002.8  0.1  2 0 1728 1959  675
[19]  40(B04) 1f 42 10  0  -1112.5  4092002.9 -0.2  2 0  896 1872 1179
[21]  43(B07)  7 42 11  0  -1345.4  4092003.4  0.0  2 0 1677 2353 1072
[22]  44(B08)  1  7  7  0  -1841.8  4092004.4 -0.0  1 0  307  251  561
[24]  46(B10)  7 43 11  0  -1572.7  4092004.0  0.0  2 0 1382 2275  972
[25]  49(B13)  7 42  7  0  -2315.4  4092006.0 -0.0  2 0 1460 2453 1114
[26]  63(B27)  7  7  7  0   1577.6  4091995.8 -0.2  5 0 1178 1874 1079
[27]  65(B29)  1  7  7  0  -3195.9  4092008.3  0.4  1 0 1468 3202 1916
[28]  66(B30)  1  7  7  0   -607.5  4092001.5  0.3  1 0 2848 4606 2312
[32]  78(N-3)  1 26 19  0   1750.0  1021999.9  0.1  1 0  1598 3359 1862
[33]  79(N-2)  1 25 15  0  -1750.0  1022002.0 -0.7  1 0   697 1745 1143
[34]  82(N01)  1 18  7  0   2249.5  1022000.3  0.0  1 0   386  862  783
[35]  83(N02)  1  7  7  0  -1371.4  1022002.0 -0.0  1 0   372 1355 1660
[48]  37(B01)  1 20 10  1  -1217.1 20460018.5 -0.0  1 0  574  226  640
[50]  39(B03)  1 10 10  1   -750.2 20460022.3  0.1  1 0  671  527  403
[51]  40(B04)  1 23 19  1   -733.6 20460021.7  0.0  1 0  255  286  172
$GNGGA,071444.890,,,,,0,00,,,M,,,,0000*28
$GNRMC,071444.890,A,,,,,,,090180,,*25
$GPGSA,A,1,,,,,,,,,,,,,,,*1E
$BDGSA,A,1,,,,,,,,,,,,,,,*0F
$GLGSA,A,1,,,,,,,,,,,,,,,*02
$GPGSV,2,1,07,01,00,000,43,07,00,000,45,08,00,000,41,11,00,000,43*77
$GPGSV,2,2,07,18,00,000,44,28,00,000,42,30,00,000,45*49
$BDGSV,2,1,06,01,00,000,40,03,00,000,42,04,00,000,41,07,00,000,42*6D
$BDGSV,2,2,06,10,00,000,43,13,00,000,42*6C
$B3CN0,0,0,0,0,0,0,0,0,0,0,0,0,0,0*4C
---00000009--- Acq_st=7 0  2000-1-1 0:0:57 
[00]  00(G01)  f 43  7  0  -2456.9  2046003.1 -0.0  2 0 1966 3301 1661
[01]  06(G07)  f 44  7  0    -88.7  2046000.0 -0.0  2 0 3169 4098 1730
[02]  07(G08)  f 41  7  0   1462.6  2045998.0  0.0  2 0 1114 1699 1085
[03]  10(G11)  f 42 11  0   -903.1  2046001.1  0.1  2 0 1977 2458  791
[04]  17(G18)  f 43 10  0   -575.6  2046000.7 -0.1  2 0 1333 2623 1544
[06]  27(G28)  f 42  7  0  -2917.0  2046003.7  0.0  2 0 1553 2529 1295
[08]  29(G30)  f 45  7  0  -2333.0  2046003.0  0.0  2 0 3231 4901 2642
[16]  37(B01) 1f 38 10  0  -1104.1  4092002.8  0.1  2 0 1201 1696  891
[17]  38(B02)  7 10 26  1  -2096.3  4092005.3 -0.2  2 0  377  489  734
[18]  39(B03) 1f 43 27  0  -1118.9  4092002.8 -0.4  2 0 1000 1312  503
[19]  40(B04) 1f 40 22  0  -1117.9  4092002.9  0.3  2 0  943 1590  927
[21]  43(B07)  7 42  7  0  -1347.7  4092003.4 -0.0  2 0 1634 2243 1197
[24]  46(B10)  7 43  7  0  -1578.0  4092004.0  0.0  2 0 1723 2315 1440
[25]  49(B13)  7 42  7  0  -2312.9  4092006.0  0.0  2 0 1457 1730  676
[26]  63(B27)  7 42  7  0   1577.9  4091995.8 -0.0  2 0 1495 1819  904
[27]  65(B29)  7 33  7  0  -3194.7  4092008.3  0.1  5 0 1975 2829 1137
[28]  66(B30)  7 32  7  0   -607.0  4092001.5  0.2  5 0 2686 4031 1828
[32]  78(N-3)  1 21 18  0   1705.3  1021998.7  1.0  1 0  2247 3380 1560
[33]  79(N-2)  1 32 18  0  -1702.5  1022000.9  1.0  1 0  1154 2149 1242
[34]  82(N01)  1 19 16  0   2309.1  1021998.6  0.0  1 0   895 1055  647
[35]  83(N02)  1 32 17  0   -680.8  1022000.8  1.0  1 0  1476 2522 1230
[48]  37(B01)  1 10 10  0  -2083.8 20460022.2  0.1  1 0  525  474  241
[50]  39(B03)  1 21 19  0   -104.0 20460020.8 -0.1  1 0  324  224  484
[51]  40(B04)  1 14 22  0   -385.2 20460022.4  0.0  1 0  205  485 1070
$GNGGA,071445.890,,,,,0,00,,,M,,,,0000*29
$GNRMC,071445.890,A,,,,,,,090180,,*24
$GPGSA,A,1,,,,,,,,,,,,,,,*1E
$BDGSA,A,1,,,,,,,,,,,,,,,*0F
$GLGSA,A,1,,,,,,,,,,,,,,,*02
$GPGSV,2,1,07,01,00,000,43,07,00,000,44,08,00,000,41,11,00,000,42*77
$GPGSV,2,2,07,18,00,000,43,28,00,000,42,30,00,000,45*4E
$BDGSV,3,1,09,01,00,000,38,03,00,000,43,04,00,000,40,07,00,000,42*6C
$BDGSV,3,2,09,10,00,000,43,13,00,000,42,27,00,000,41,29,00,000,33*69
$BDGSV,3,3,09,30,00,000,32*53
$B3CN0,0,0,0,0,0,0,0,0,0,0,0,0,0,0*4C
---00000010--- Acq_st=7 0  2000-1-1 0:0:58 
[00]  00(G01)  f 44  7  0  -2454.0  2046003.1 -0.0  2 0 1422 3223 1668
[01]  06(G07)  f 44  7  0    -89.1  2046000.1 -0.0  2 0 2222 3820 1966
[02]  07(G08)  f 41  7  0   1461.9  2045998.0 -0.0  2 0 1090 1857  523
[03]  10(G11)  f 43  7  0   -901.7  2046001.1  0.0  2 0 1190 2409 1349
[04]  17(G18)  f 43  7  0   -576.5  2046000.7  0.0  2 0 1595 2712 1455
[06]  27(G28)  f 42  8  0  -2914.9  2046003.7 -0.0  2 0 1210 2142 1159
[08]  29(G30)  f 45  7  0  -2333.6  2046003.0 -0.0  2 0 3178 4701 2227
[16]  37(B01) 1f 39 10  0  -1103.6  4092002.7 -0.3  2 0 1382 1343  331
[18]  39(B03) 1f 42 31  0  -1120.6  4092002.8  0.1  2 0 1523 2041  870
[19]  40(B04) 1f 41 19  0  -1116.4  4092003.0  0.5  2 0  863 1275  946
[21]  43(B07) 1f 42  7  0  -1344.6  4092003.4 -0.1  2 0 1593 1856  515
[24]  46(B10) 1f 43  7  0  -1577.3  4092004.0 -0.1  2 0 1938 2277 1115
[25]  49(B13) 1f 42  7  0  -2315.2  4092006.0  0.0  2 0 1366 1911  825
[26]  63(B27) 1f 42  7  0   1579.1  4091995.8  0.1  2 0 1222 1493  667
[27]  65(B29) 1f 44  7  0  -3192.4  4092008.3 -0.0  2 0 2265 3322 1574
[28]  66(B30) 1f 45  7  0   -603.6  4092001.5 -0.0  2 0 2284 4111 1899
[32]  78(N-3)  1 26 19  0   1706.5  1021998.8  1.0  1 0  2217 3687 1784
[33]  79(N-2)  1 33 18  0  -1700.4  1022001.0  1.0  1 0   943 2204 1247
[34]  82(N01)  1 25 15  0   2308.5  1021998.5  0.1  1 0   724 1033  354
[35]  83(N02)  1 34 18  0   -679.7  1022000.4  1.0  1 0  1343 2523 1147
[50]  39(B03)  1 13 18  0    340.0 20460019.2 -0.0  1 0  646  472  161
[51]  40(B04)  1 27 25  0   -125.8 20460018.4  0.1  1 0 1134  391  215
---00000011--- Acq_st=3 0  2000-1-1 0:0:59 
[00]  00(G01)  f 44  8  0  -2451.1  2046003.1 -0.0  2 0 2566 3354 1492
[01]  06(G07)  f 45  7  0    -86.9  2046000.0 -0.0  2 0 2814 4185 2127
[02]  07(G08)  f 42  8  0   1465.5  2045998.0  0.0  2 0 1119 1457  694
[03]  10(G11)  f 42  7  0   -898.7  2046001.1 -0.0  2 0 2718 3288 1513
[04]  17(G18)  f 43  7  0   -573.2  2046000.7  0.0  2 0 2482 3784 1287
[05]  08(G09)  1 23  7  0   1500.0  2045999.8 -0.0  1 0  833 1187  433
[06]  27(G28)  f 42  8  0  -2914.3  2046003.7 -0.0  2 0 1244 2033 1000
[08]  29(G30)  f 45  9  0  -2329.4  2046003.0 -0.0  2 0 3151 4502 1980
[16]  37(B01) 1f 41 20  0  -1102.1  4092002.7 -0.2  2 0 1191 1465  502
[18]  39(B03) 1f 43 30  0  -1116.3  4092002.8  0.0  2 0 1401 1773  402
[19]  40(B04) 1f 41 20  0  -1109.8  4092002.9  0.2  2 0  823 1662 1135
[21]  43(B07) 1f 42  7  0  -1345.9  4092003.3  0.0  2 0 2288 2166  579
[24]  46(B10) 1f 42  7  0  -1575.1  4092004.0  0.0  2 0 1931 2324  993
[25]  49(B13) 1f 42  7  0  -2313.9  4092006.0 -0.1  2 0 1907 2273  631
[26]  63(B27) 1f 41  7  0   1581.3  4091995.7 -0.1  2 0  971 1356  570
[27]  65(B29) 1f 44  7  0  -3192.0  4092008.3 -0.0  2 0 2547 3595 1423
[28]  66(B30) 1f 45  7  0   -604.5  4092001.5  0.0  2 0 2722 3993 2099
[32]  78(N-3)  7 49 15  0   1711.5  1021998.9  0.0  2 0  1549 3019 1612
[33]  79(N-2)  7 46 17  0  -1694.3  1022001.1 -0.1  2 0  1014 1947 1086
[34]  82(N01)  7 42 17  0   2312.9  1021998.5  0.4  2 0  1054 1769  786
[35]  83(N02)  7 37 14  0   -675.0  1022000.4  0.2  2 0  1196 1722  772
[48]  37(B01)  1 10 19  1   -820.7 20460017.8 -0.1  1 0  681  821   63
[53]  43(B07)  1  7  7  0  -1324.8 20460018.7 -0.1  1 0  309  567  385
[56]  46(B10)  1 16  7  0  -1115.6 20460025.5 -0.1  1 0  299  378  617
[57]  49(B13)  1  7  7  0  -1393.5 20460037.1 -0.2  1 0  425  106  207
[58]  63(B27)  1  7  7  0   1431.8 20459975.8  0.0  1 0  543  277  168
[59]  65(B29)  1  7  7  0  -2375.4 20460049.2  0.1  1 0   32  373  374
[60]  66(B30)  1  7  7  0   -456.5 20460010.9 -0.0  1 0  633  349  209
$GNGGA,071446.890,,,,,0,00,,,M,,,,0000*2A
$GNRMC,071446.890,A,,,,,,,090180,,*27
$GPGSA,A,1,,,,,,,,,,,,,,,*1E
$BDGSA,A,1,,,,,,,,,,,,,,,*0F
$GLGSA,A,1,,,,,,,,,,,,,,,*02
$GPGSV,2,1,07,01,00,000,44,07,00,000,45,08,00,000,42,11,00,000,42*72
$GPGSV,2,2,07,18,00,000,43,28,00,000,42,30,00,000,45*4E
$BDGSV,3,1,09,01,00,000,41,03,00,000,43,04,00,000,41,07,00,000,42*63
$BDGSV,3,2,09,10,00,000,42,13,00,000,42,27,00,000,41,29,00,000,44*68
$BDGSV,3,3,09,30,00,000,45*53
$B3CN0,0,0,0,0,0,0,0,0,0,0,0,0,0,0*4C
---00000012--- Acq_st=3 0  2000-1-1 0:1:0 
[00]  00(G01)  f 44  7  0  -2454.2  2046003.1 -0.0  2 0 1764 2945  723
[01]  06(G07)  f 45  7  0    -85.6  2046000.0 -0.0  2 0 2303 3870 2140
[02]  07(G08)  f 42  7  0   1466.6  2045998.0 -0.0  2 0 1023 2555  929
[03]  10(G11)  f 43  7  0   -898.5  2046001.1  0.0  2 0 2179 3139 1227
[04]  17(G18)  f 44  7  0   -572.9  2046000.7 -0.0  2 0 1495 2619 1507
[05]  08(G09)  1 33  7  0   1493.4  2045997.7  0.9  1 0 1085 1264  416
[06]  27(G28)  f 41  7  0  -2914.9  2046003.7  0.1  2 0 1207 2525 1548
[08]  29(G30)  f 45  7  0  -2330.5  2046003.0 -0.0  2 0 3370 5114 2111
[09]  16(G17)  1 26  7  0  -3260.8  2046006.0  0.2  1 0  833  924  296
[16]  37(B01) 1f 41 23  0  -1098.9  4092002.8  0.7  2 0  976 1421  445
[18]  39(B03) 1f 43 31  0  -1116.1  4092002.7 -0.1  2 0 1442 1879  737
[19]  40(B04) 1f 40 22  0  -1116.1  4092002.9  0.2  2 0 1172 1754  964
[21]  43(B07) 1f 42  7  0  -1344.4  4092003.4 -0.1  2 0 1817 2437  989
[24]  46(B10) 1f 42  7  0  -1576.0  4092004.0 -0.0  2 0 2021 2256 1003
[25]  49(B13) 1f 42  7  0  -2318.9  4092006.0  0.0  2 0 1289 2189  867
[26]  63(B27) 1f 41  7  0   1580.5  4091995.7  0.0  2 0 1120 1835  956
[27]  65(B29) 1f 44  7  0  -3192.4  4092008.3  0.0  2 0 2316 2972 1335
[28]  66(B30) 1f 45  7  0   -605.0  4092001.5  0.0  2 0 2493 3578 1347
[32]  78(N-3)  7 49 14  0   1712.0  1021998.9 -0.1  2 0  1588 3191 1370
[33]  79(N-2)  7 46 16  0  -1695.6  1022001.1 -0.0  2 0  1060 2209  814
[34]  82(N01)  7 42 17  0   2313.9  1021998.5 -0.1  2 0   620 1444  493
[35]  83(N02)  7 46 18  0   -674.0  1022000.4  0.0  2 0  1190 1932  934
[48]  37(B01)  7 10 10  0  -1040.6 20460015.5 -0.0  2 0  487  545  662
[50]  39(B03)  1 24 18  0  -1214.5 20460018.5 -0.1  1 0  403  244  555
[51]  40(B04)  1 18 22  1   -988.6 20460016.1  0.1  1 0   80  216  657
[53]  43(B07)  1  7  7  0  -1784.9 20460018.3  0.1  1 0  629  441  182
[56]  46(B10)  1  7  7  0  -1657.3 20460027.0  0.1  1 0  299  147  587
[57]  49(B13)  1  8  7  0  -1332.8 20460036.0  0.1  1 0  380 1054  790
[58]  63(B27)  1  7  7  0   1428.8 20459975.3 -0.0  1 0  731  465  208
[59]  65(B29)  1  7  7  0  -2632.1 20460051.3  0.1  1 0  604  250  432
[60]  66(B30)  1  7  7  0  -1048.5 20460008.1 -0.2  1 0   70  433  376
$GNGGA,071447.890,,,,,0,00,,,M,,,,0000*2B
$GNRMC,071447.890,A,,,,,,,090180,,*26
$GPGSA,A,1,,,,,,,,,,,,,,,*1E
$BDGSA,A,1,,,,,,,,,,,,,,,*0F
$GLGSA,A,1,,,,,,,,,,,,,,,*02
$GPGSV,2,1,07,01,00,000,44,07,00,000,45,08,00,000,42,11,00,000,43*73
$GPGSV,2,2,07,18,00,000,44,28,00,000,41,30,00,000,45*4A
$BDGSV,3,1,09,01,00,000,41,03,00,000,43,04,00,000,40,07,00,000,42*62
$BDGSV,3,2,09,10,00,000,42,13,00,000,42,27,00,000,41,29,00,000,44*68
$BDGSV,3,3,09,30,00,000,45*53
$B3CN0,0,0,0,0,0,0,0,0,0,0,0,0,0,0*4C
ch20 satid=44 freq=-2000 acq ok!
---00000013--- Acq_st=3 0  2000-1-1 0:1:1 
[00]  00(G01)  f 45  7  0  -2451.1  2046003.1  0.0  2 0 2088 3605 1324
[01]  06(G07)  f 45  7  0    -85.6  2046000.0  0.0  2 0 2708 4369 2396
[02]  07(G08)  f 42  7  0   1462.9  2045998.0 -0.0  2 0 1790 2109  805
[03]  10(G11)  f 43  7  0   -899.2  2046001.1  0.0  2 0 1516 2604 1419
[04]  17(G18)  f 43  7  0   -572.4  2046000.7  0.0  2 0 2383 2990 1081
[05]  08(G09)  7 33  7  0   1492.1  2045997.8  0.1  5 0  844 1012  492
[06]  27(G28)  f 42 10  0  -2914.5  2046003.7  0.0  2 0 1455 2512 1301
[08]  29(G30)  f 46 11  0  -2331.2  2046003.0  0.0  2 0 2877 4625 2295
[09]  16(G17)  7 23  7  0  -3265.8  2046004.2  0.8 10 0 1597 1617 1078
[16]  37(B01) 1f 40 20  0  -1105.7  4092002.7  0.3  2 0  700 1163  425
[17]  38(B02)  1 22 25  0   -901.0  4092002.5 -0.1  1 0  666  515  723
[18]  39(B03) 1f 41 30  0  -1119.1  4092002.8 -0.2  2 0 1771 2149  701
[19]  40(B04) 1f 39 18  0  -1115.6  4092002.7  0.6  2 0 1363 1625  743
[20]  44(B08)  1  7  7  0  -2000.0  4092006.4  0.1  1 0  561 1589 1184
[21]  43(B07) 1f 42  7  0  -1343.1  4092003.4  0.1  2 0 1413 1628  437
[24]  46(B10) 1f 42  7  0  -1571.2  4092004.0 -0.0  2 0 1614 2169 1023
[25]  49(B13) 1f 42  7  0  -2314.6  4092006.0 -0.1  2 0  994 1702 1123
[26]  63(B27) 1f 41  7  0   1584.1  4091995.7  0.1  2 0 1745 2015 1070
[27]  65(B29) 1f 43  7  0  -3189.1  4092008.2 -0.0  2 0 2275 3411 1683
[28]  66(B30) 1f 44  7  0   -601.1  4092001.5  0.0  2 0 2511 3312 1548
[32]  78(N-3)  7 49 18  0   1713.4  1021998.9 -0.1  2 0  1704 3474 1930
[33]  79(N-2)  7 46 16  0  -1692.8  1022001.0 -0.1  2 0  1279 2358  967
[34]  82(N01)  7 43 13  0   2314.8  1021998.5 -0.2  2 0   493 1088  538
[35]  83(N02)  7 46 19  0   -672.7  1022000.4 -0.0  2 0  1434 2270 1092
[48]  37(B01)  7 18 14  1  -1178.8 20460020.1 -0.1  2 0  370  684  776
[50]  39(B03)  1 19 36  1  -1480.2 20460017.0 -0.1  1 0  273  603  383
[51]  40(B04)  1 16 24  0  -1387.1 20460021.7 -0.1  1 0  172  184  140
[53]  43(B07)  1  9  7  0   -961.0 20460020.8  0.1  1 0  299  358  124
[56]  46(B10)  1  7  7  0  -1692.6 20460023.0  0.1  1 0  275  563  435
[57]  49(B13)  1  7 10  0  -1443.1 20460035.8  0.1  1 0  518  554  298
[58]  63(B27)  1  7  7  0   1199.4 20459975.2 -0.1  1 0  451  573  788
[59]  65(B29)  1  7  7  0  -3581.4 20460051.4  0.1  1 0   52  485  673
[60]  66(B30)  1  7  7  0   -803.7 20460009.8 -0.1  1 0  782  525  110
$GNGGA,071448.890,,,,,0,00,,,M,,,,0000*24
$GNRMC,071448.890,A,,,,,,,240419,,*23
$GPGSA,A,1,,,,,,,,,,,,,,,*1E
$BDGSA,A,1,,,,,,,,,,,,,,,*0F
$GLGSA,A,1,,,,,,,,,,,,,,,*02
$GPGSV,3,1,09,01,00,000,45,07,00,000,45,08,00,000,42,11,00,000,43*7D
$GPGSV,3,2,09,18,00,000,43,09,00,000,33,28,00,000,42,30,00,000,46*7B
$GPGSV,3,3,09,17,00,000,23*47
$BDGSV,3,1,09,01,00,000,40,03,00,000,41,04,00,000,39,07,00,000,42*6F
$BDGSV,3,2,09,10,00,000,42,13,00,000,42,27,00,000,41,29,00,000,43*6F
$BDGSV,3,3,09,30,00,000,44*52
$B3CN0,18,0,0,0,0,0,0,0,0,0,0,0,0,0*75
---00000014--- Acq_st=3 0  2000-1-1 0:1:2 
[00]  00(G01)  f 44  7  0  -2446.7  2046003.1 -0.0  2 0 2229 3495 2063
[01]  06(G07)  f 44  7  0    -83.9  2046000.0 -0.0  2 0 2420 3449 1782
[02]  07(G08)  f 42  7  0   1467.9  2045998.0  0.0  2 0 1547 2484 1187
[03]  10(G11)  f 44  7  0   -894.1  2046001.1  0.0  2 0 2515 3180 1433
[04]  17(G18)  f 43  7  0   -571.0  2046000.7 -0.0  2 0 1924 2877 1740
[05]  08(G09)  f 36  8  0   1491.3  2045997.9 -0.1  2 0  860  745  258
[06]  27(G28)  f 42  7  0  -2915.0  2046003.7 -0.1  2 0 1783 2688 1109
[08]  29(G30)  f 46  7  0  -2326.1  2046003.0 -0.0  2 0 2882 4445 1649
[09]  16(G17)  7 36  7  0  -3263.0  2046004.1  0.1  2 0  415  254  498
[16]  37(B01) 1f 39 18  0  -1099.6  4092002.8 -0.4  2 0 1061 1101  246
[17]  38(B02)  1 10 32  1   -991.2  4092002.8 -0.0  1 0  183  394 1014
[18]  39(B03) 1f 43 30  0  -1115.0  4092002.9  0.3  2 0 1158 2032 1107
[19]  40(B04) 1f 41 24  0  -1113.5  4092002.7  0.8  2 0  884 1023  696
[20]  44(B08)  1  7  7  0  -1910.5  4092004.8  0.4  1 0 1849 2650 1523
[21]  43(B07) 1f 42  7  0  -1343.7  4092003.4 -0.0  2 0 1642 2027  948
[24]  46(B10) 1f 42  7  0  -1570.5  4092004.0 -0.0  2 0 1560 1800  686
[25]  49(B13) 1f 42  7  0  -2311.5  4092006.0 -0.0  2 0 1201 1633 1034
[26]  63(B27) 1f 41  7  0   1581.5  4091995.7 -0.0  2 0  707 1003  596
[27]  65(B29) 1f 43  7  0  -3187.7  4092008.3 -0.0  2 0 2425 2925 1597
[28]  66(B30) 1f 45  7  0   -598.6  4092001.5 -0.0  2 0 3296 3838 1480
[32]  78(N-3)  7 49 18  0   1715.8  1021998.9 -0.0  2 0  1515 3334 1919
[33]  79(N-2)  7 46 15  0  -1690.2  1022001.1  0.1  2 0  1049 2134 1253
[34]  82(N01)  7 42 16  0   2315.4  1021998.5  0.0  2 0  1070 1413  555
[35]  83(N02)  7 46 18  0   -669.4  1022000.4  0.1  2 0  1239 2446 1348
[48]  37(B01)  7 36 10  0  -1056.6 20460016.8  0.1  2 0  296  660  852
[50]  39(B03)  1 20 18  1   -873.3 20460020.5 -0.1  1 0  267  621  459
[51]  40(B04)  1 23 23  0  -1354.9 20460019.9  0.0  1 0  930  673  615
[53]  43(B07)  1  7  7  0  -1535.9 20460019.9  0.1  1 0  711  514  194
[56]  46(B10)  1  7  7  0  -1201.3 20460025.1 -0.1  1 0  776  476  224
[57]  49(B13)  1  9  7  0  -1476.2 20460036.6 -0.0  1 0  107  380  158
[58]  63(B27)  1  7 10  0   1007.5 20459975.3  0.0  1 0  836  428  266
[59]  65(B29)  1  7  7  0  -3176.1 20460050.4 -0.2  1 0  826  928  587
[60]  66(B30)  1  7  7  0  -1032.6 20460009.0  0.0  1 0  747  855  634
$GNGGA,071449.890,,,,,0,00,,,M,,,,0000*25
$GNRMC,071449.890,A,,,,,,,240419,,*22
$GPGSA,A,1,,,,,,,,,,,,,,,*1E
$BDGSA,A,1,,,,,,,,,,,,,,,*0F
$GLGSA,A,1,,,,,,,,,,,,,,,*02
$GPGSV,3,1,09,01,00,000,44,07,00,000,44,08,00,000,42,11,00,000,44*7A
$GPGSV,3,2,09,18,00,000,43,09,00,000,36,28,00,000,42,30,00,000,46*7E
$GPGSV,3,3,09,17,00,000,36*43
$BDGSV,3,1,09,01,00,000,39,03,00,000,43,04,00,000,41,07,00,000,42*6C
$BDGSV,3,2,09,10,00,000,42,13,00,000,42,27,00,000,41,29,00,000,43*6F
$BDGSV,3,3,09,30,00,000,45*53
$B3CN0,0,0,0,0,0,0,0,0,0,0,0,0,0,0*4C
---00000015--- Acq_st=3 0  2000-1-1 0:1:3 
[00]  00(G01)  f 44  7  0  -2449.5  2046003.1 -0.0  2 0 2787 3592 1374
[01]  06(G07)  f 45  7  0    -80.8  2046000.1 -0.0  2 0 3094 4290 1456
[02]  07(G08)  f 43  7  0   1466.4  2045998.0  0.0  2 0 2036 2641  997
[03]  10(G11)  f 43  7  0   -896.9  2046001.1 -0.0  2 0 1721 2760 1395
[04]  17(G18)  f 43  7  0   -569.0  2046000.7 -0.1  2 0 1646 2698 1588
[05]  08(G09)  f 36  7  0   1491.9  2045998.0  0.1  2 0  729  927  348
[06]  27(G28)  f 43  7  0  -2910.5  2046003.7  0.0  2 0 1448 2255  707
[08]  29(G30)  f 46  7  0  -2325.9  2046003.0  0.0  2 0 2925 5253 2729
[09]  16(G17)  7 36  7  0  -3260.0  2046004.2  0.5  2 0  561  738  434
[16]  37(B01) 1f 40 22  0  -1099.5  4092002.6  0.2  2 0 1088 1216  301
[17]  38(B02)  7 41 10  0  -1132.5  4092003.0 -0.1  2 0  982 1539  845
[18]  39(B03) 1f 43 32  0  -1116.0  4092002.8 -0.1  2 0 1339 2274 1463
[19]  40(B04) 1f 39 10  0  -1112.1  4092002.7 -0.2  2 0  861  565  249
[20]  44(B08)  7 32  7  0  -1912.4  4092004.9  0.1  5 0 1622 2213 1053
[21]  43(B07) 1f 43  7  0  -1341.5  4092003.4  0.0  2 0 1859 2094  994
[24]  46(B10) 1f 43  7  0  -1572.1  4092004.0 -0.0  2 0 1471 2008  906
[25]  49(B13) 1f 42  7  0  -2312.4  4092005.9 -0.0  2 0 1702 1898 1142
[26]  63(B27) 1f 41  7  0   1582.0  4091995.8 -0.0  2 0 1173 1881  894
[27]  65(B29) 1f 44  7  0  -3191.1  4092008.2 -0.0  2 0 2411 2791 1117
[28]  66(B30) 1f 44  7  0   -600.0  4092001.4  0.0  2 0 3073 4469 2184
[32]  78(N-3)  f 36  7  0   1715.1  1021998.9  0.0  2 0  1660 3453 1913
[33]  79(N-2)  f 36  7  0  -1690.0  1022001.0 -0.1  2 0  1436 2191  952
[34]  82(N01)  f 35  7  0   2316.1  1021998.5  0.2  2 0  1037 1328  509
[35]  83(N02)  f 36  8  0   -669.9  1022000.4 -0.1  2 0  1260 2473 1248
[48]  37(B01)  7 10 10  0  -1268.6 20460020.2 -0.1  2 0  556  650  462
[50]  39(B03)  1 16 19  0  -1220.5 20460020.8  0.0  1 0  295  194  276
[51]  40(B04)  1 25 23  1  -1207.4 20460026.2 -0.2  1 0  384   81   72
$GNGGA,071450.890,,,,,0,00,,,M,,,,0000*2D
$GNRMC,071450.890,A,,,,,,,240419,,*2A
$GPGSA,A,1,,,,,,,,,,,,,,,*1E
$BDGSA,A,1,,,,,,,,,,,,,,,*0F
$GLGSA,A,1,,,,,,,,,,,,,,,*02
$GPGSV,3,1,09,01,00,000,44,07,00,000,45,08,00,000,43,11,00,000,43*7D
$GPGSV,3,2,09,18,00,000,43,09,00,000,36,28,00,000,43,30,00,000,46*7F
$GPGSV,3,3,09,17,00,000,36*43
$BDGSV,3,1,11,01,00,000,40,02,00,000,41,03,00,000,43,04,00,000,39*62
$BDGSV,3,2,11,08,00,000,32,07,00,000,43,10,00,000,43,13,00,000,42*62
$BDGSV,3,3,11,27,00,000,41,29,00,000,44,30,00,000,44*50
$B3CN0,0,0,0,0,0,0,0,0,0,0,0,0,0,0*4C
---00000016--- Acq_st=3 0  2000-1-1 0:1:4 
[00]  00(G01)  f 45  7  0  -2447.7  2046003.1 -0.0  2 0 1844 3376 1438
[01]  06(G07)  f 45  8  0    -80.8  2046000.0 -0.0  2 0 2254 3726 1525
[02]  07(G08)  f 42  7  0   1463.2  2045998.1  0.0  2 0  766 1991  935
[03]  10(G11)  f 44 10  0   -897.2  2046001.1 -0.0  2 0 2247 2635 1115
[04]  17(G18)  f 44  7  0   -569.8  2046000.7  0.1  2 0 2519 3330 1249
[05]  08(G09)  f 37  7  0   1494.9  2045997.9  0.2  2 0 1439 1844 1008
[06]  27(G28)  f 43  7  0  -2914.9  2046003.7  0.0  2 0 1456 2699 1416
[08]  29(G30)  f 46 10  0  -2326.4  2046003.0 -0.0  2 0 3179 4925 2273
[09]  16(G17)  7 36  7  0  -3263.4  2046004.2  0.6  2 0 1073 1523 1223
[16]  37(B01) 1f 40 18  0  -1099.0  4092002.8 -0.2  2 0 1072 1132  656
[17]  38(B02)  f 40 24  0  -1139.7  4092003.0 -0.7  2 0  641 1246  572
[18]  39(B03) 1f 42 28  0  -1117.3  4092002.8  0.5  2 0 1532 2077 1067
[19]  40(B04) 1f 40 25  0  -1113.1  4092002.9 -0.2  2 0 1438 1558  705
[20]  44(B08) 1f 42  7  0  -1911.2  4092004.9  0.1  2 0 1777 2192  851
[21]  43(B07) 1f 42  7  0  -1343.2  4092003.4 -0.0  2 0 1260 2179 1234
[24]  46(B10) 1f 42  7  0  -1574.7  4092004.0  0.0  2 0 1704 2165  737
[25]  49(B13) 1f 42  7  0  -2313.1  4092005.9  0.0  2 0 1500 1625  861
[26]  63(B27) 1f 41  7  0   1578.3  4091995.7  0.1  2 0  818 1729  972
[27]  65(B29) 1f 43  7  0  -3187.8  4092008.2  0.0  2 0 2177 2739 1397
[28]  66(B30) 1f 45  7  0   -600.2  4092001.4 -0.0  2 0 2553 3424 1578
[32]  78(N-3)  f 46  7  0   1715.0  1021998.9 -0.0  2 0  1675 3482 1645
[33]  79(N-2)  f 44  7  0  -1690.2  1022001.0 -0.0  2 0  1314 2140 1103
[34]  82(N01)  f 41  7  0   2317.0  1021998.5 -0.0  2 0   840 1348  522
[35]  83(N02)  f 44  7  0   -669.7  1022000.4  0.0  2 0  1351 2306 1080
[53]  43(B07)  1  7  7  0  -1193.8 20460020.5  0.1  1 0  240  780  562
[56]  46(B10)  1  7  7  0  -1465.1 20460023.7  0.1  1 0  871  208  325
[57]  49(B13)  1  7  7  0  -1898.1 20460037.2 -0.1  1 0  215  208  461
[58]  63(B27)  1  7  7  0   1469.5 20459973.4  0.1  1 0  680  681  393
[59]  65(B29)  1  7  7  0  -2259.4 20460052.1  0.2  1 0  580  700  456
[60]  66(B30)  1  7  7  0    128.8 20460008.8 -0.0  1 0  222  422  630
$GNGGA,071451.890,,,,,0,00,,,M,,,,0000*2C
$GNRMC,071451.890,A,,,,,,,240419,,*2B
$GPGSA,A,1,,,,,,,,,,,,,,,*1E
$BDGSA,A,1,,,,,,,,,,,,,,,*0F
$GLGSA,A,1,,,,,,,,,,,,,,,*02
$GPGSV,3,1,09,01,00,000,45,07,00,000,45,08,00,000,42,11,00,000,44*7A
$GPGSV,3,2,09,18,00,000,44,09,00,000,37,28,00,000,43,30,00,000,46*79
$GPGSV,3,3,09,17,00,000,36*43
$BDGSV,3,1,11,01,00,000,40,02,00,000,40,03,00,000,42,04,00,000,40*6C
$BDGSV,3,2,11,08,00,000,42,07,00,000,42,10,00,000,42,13,00,000,42*65
$BDGSV,3,3,11,27,00,000,41,29,00,000,43,30,00,000,45*56
$B3CN0,0,0,0,0,0,0,0,0,0,0,0,0,0,0*4C
---00000017--- Acq_st=7 0  2000-1-1 0:1:5 
[00]  00(G01)  f 45 10  0  -2443.4  2046003.1  0.0  2 0 1778 2975 1336
[01]  06(G07)  f 45  7  0    -76.8  2046000.0  0.0  2 0 2555 3725 1451
[02]  07(G08)  f 42  7  0   1470.1  2045998.0 -0.1  2 0 1818 2161 1018
[03]  10(G11)  f 43  9  0   -891.5  2046001.1 -0.0  2 0 1668 2722 1034
[04]  17(G18)  f 44  7  0   -563.6  2046000.7  0.0  2 0 1911 2678 1247
[05]  08(G09)  f 37  7  0   1497.2  2045998.0 -0.2  2 0  975 1438 1015
[06]  27(G28)  f 43 10  0  -2908.4  2046003.7  0.1  2 0 1471 2869 1452
[08]  29(G30)  f 46  8  0  -2319.4  2046003.0  0.0  2 0 3311 5181 2299
[09]  16(G17)  7 37  7  0  -3258.1  2046004.2 -0.1  2 0  751  849  375
[16]  37(B01) 1f 40 20  0  -1096.4  4092002.6 -0.0  2 0 1074 1317  457
[17]  38(B02)  f 40 18  0  -1132.4  4092002.9 -0.6  2 0 1083 1620 1010
[18]  39(B03) 1f 43 31  0  -1111.4  4092002.8  0.2  2 0  997 1545  579
[19]  40(B04) 1f 39 13  0  -1111.1  4092002.8  0.2  2 0 1374 1623  788
[20]  44(B08) 1f 42  7  0  -1904.5  4092004.9  0.0  2 0 1427 2102  794
[21]  43(B07) 1f 43  7  0  -1340.7  4092003.4 -0.1  2 0 1212 1979 1209
[24]  46(B10) 1f 43  7  0  -1569.8  4092004.0  0.0  2 0 1067 1546  742
[25]  49(B13) 1f 42  7  0  -2309.3  4092006.0  0.0  2 0 1393 1679  612
[26]  63(B27) 1f 41  7  0   1589.4  4091995.8 -0.1  2 0 1464 2161  999
[27]  65(B29) 1f 44  7  0  -3186.7  4092008.2  0.0  2 0 2217 2846 1529
[28]  66(B30) 1f 45  8  0   -596.3  4092001.4  0.0  2 0 2824 3905 1719
[32]  78(N-3)  f 46  7  0   1720.5  1021998.9  0.0  2 0  1649 3195 1662
[33]  79(N-2)  f 44  7  0  -1685.3  1022001.0 -0.0  2 0  1259 2073 1133
[34]  82(N01)  f 42  7  0   2321.8  1021998.5  0.0  2 0   705 1369  603
[35]  83(N02)  f 44  7  0   -665.5  1022000.4  0.0  2 0  1172 1917  803
[48]  37(B01)  1 13 16  1  -1095.6 20460020.5  0.1  1 0  388  472  313
[49]  38(B02)  1 23 13  1  -1259.2 20460024.9 -0.0  1 0  564  441  160
[50]  39(B03)  1 21 21  1   -917.9 20460017.7  0.1  1 0  328  130  333
[51]  40(B04)  1 10 19  1   -931.5 20460017.3 -0.0  1 0  132  581  579
[52]  44(B08)  1  7  7  0  -1582.5 20460029.5  0.0  1 0  248  802  785
[53]  43(B07)  1  7  7  0  -1589.0 20460020.8  0.2  1 0  886  940  599
[56]  46(B10)  1  7  7  0  -1310.0 20460024.6 -0.0  1 0  319  681  816
[57]  49(B13)  1  7 10  0  -1901.9 20460037.7  0.0  1 0  238  518  406
[58]  63(B27)  1  7  7  0   1501.5 20459975.5  0.0  1 0  818  307  965
[59]  65(B29)  1  7  7  0  -2195.0 20460051.4  0.1  1 0  353  118  113
[60]  66(B30)  1  9  7  0   1011.4 20460009.6 -0.1  1 0  810  547  275
$GNGGA,071452.890,,,,,0,00,,,M,,,,0000*2F
$GNRMC,071452.890,A,,,,,,,240419,,*28
$GPGSA,A,1,,,,,,,,,,,,,,,*1E
$BDGSA,A,1,,,,,,,,,,,,,,,*0F
$GLGSA,A,1,,,,,,,,,,,,,,,*02
$GPGSV,3,1,09,01,00,000,45,07,00,000,45,08,00,000,42,11,00,000,43*7D
$GPGSV,3,2,09,18,00,000,44,09,00,000,37,28,00,000,43,30,00,000,46*79
$GPGSV,3,3,09,17,00,000,37*42
$BDGSV,3,1,11,01,00,000,40,02,00,000,40,03,00,000,43,04,00,000,39*63
$BDGSV,3,2,11,08,00,000,42,07,00,000,43,10,00,000,43,13,00,000,42*65
$BDGSV,3,3,11,27,00,000,41,29,00,000,44,30,00,000,45*51
$B3CN0,0,0,0,0,0,0,0,0,0,0,0,0,0,0*4C
---00000018--- Acq_st=7 0  2000-1-1 0:1:6 
[00]  00(G01)  f 44  7  0  -2444.3  2046003.1  0.0  2 0 2097 2858 1392
[01]  06(G07)  f 45  7  0    -79.3  2046000.0  0.0  2 0 2854 3722 1625
[02]  07(G08)  f 42  7  0   1465.9  2045998.0  0.1  2 0 1538 2346 1264
[03]  10(G11)  f 43  7  0   -891.1  2046001.1  0.0  2 0 1398 2923 1799
[04]  17(G18)  f 44  7  0   -567.9  2046000.7 -0.0  2 0 1912 2803 1124
[05]  08(G09)  f 37  7  0   1498.3  2045998.0  0.1  2 0  983 1838  995
[06]  27(G28)  f 42  7  0  -2911.7  2046003.7  0.0  2 0 1173 2153 1270
[08]  29(G30)  f 45 11  0  -2324.4  2046003.0  0.0  2 0 2782 5071 2702
[09]  16(G17)  7 37  7  0  -3260.7  2046004.1  0.1  2 0 1017 1548  662
[16]  37(B01) 1f 40 16  0  -1099.2  4092002.7  0.3  2 0 1134 1188  648
[17]  38(B02) 1f 39 26  0  -1132.6  4092003.0  0.1  2 0  722 1494  876
[18]  39(B03) 1f 43 30  0  -1113.4  4092002.8  0.2  2 0 1784 2234 1015
[19]  40(B04) 1f 38 27  0  -1112.4  4092002.8  0.6  2 0  727 1088  919
[20]  44(B08) 1f 42 12  0  -1909.6  4092004.9 -0.0  2 0 1443 1986  941
[21]  43(B07) 1f 42  8  0  -1341.5  4092003.4  0.0  2 0 1706 2127  984
[24]  46(B10) 1f 42  7  0  -1574.1  4092004.0  0.0  2 0 1311 2207 1220
[25]  49(B13) 1f 42  7  0  -2310.1  4092005.9 -0.1  2 0  909 1492  632
[26]  63(B27) 1f 41  7  0   1585.8  4091995.7 -0.0  2 0 1695 2136  837
[27]  65(B29) 1f 44  7  0  -3187.4  4092008.2  0.0  2 0 2447 3086 1306
[28]  66(B30) 1f 45  7  0   -597.8  4092001.5  0.0  2 0 3471 4021 1557
[32]  78(N-3)  f 46  7  0   1717.6  1021998.9 -0.0  2 0  1981 3270 1383
[33]  79(N-2)  f 44  7  0  -1686.4  1022001.0  0.1  2 0  1353 2382 1244
[34]  82(N01)  f 42  7  0   2318.9  1021998.5 -0.0  2 0   969 1672  689
[35]  83(N02)  f 44  7  0   -667.4  1022000.4  0.0  2 0  1286 2146  872
[48]  37(B01)  1 14 10  1  -1048.1 20460016.5 -0.1  1 0  575  511  385
[49]  38(B02)  1 10 10  0   -791.6 20460030.0  0.0  1 0  421  305  164
[50]  39(B03)  1 24 21  1   -998.8 20460014.5  0.0  1 0  621  679  583
[51]  40(B04)  1 25 25  1   -725.6 20460016.3 -0.0  1 0  483  705  475
[52]  44(B08)  1 10  7  0  -1289.4 20460029.0  0.2  1 0  590  571  193
[53]  43(B07)  1  7  7  0  -1802.8 20460021.9 -0.0  1 0  206  391  152
[56]  46(B10)  1  7  7  0  -1545.3 20460025.4  0.0  1 0  100  571  485
[57]  49(B13)  1  7  7  0  -1091.8 20460035.6 -0.1  1 0  479  412  281
[58]  63(B27)  1  7  7  0   1462.5 20459975.6  0.1  1 0  603  234  547
[59]  65(B29)  1  7  9  0  -2012.0 20460051.4  0.2  1 0  111  550  640
[60]  66(B30)  1  7  7  0   1451.2 20460007.2  0.1  1 0  630  338  681
$GNGGA,071453.890,,,,,0,00,,,M,,,,0000*2E
$GNRMC,071453.890,A,,,,,,,240419,,*29
$GPGSA,A,1,,,,,,,,,,,,,,,*1E
$BDGSA,A,1,,,,,,,,,,,,,,,*0F
$GLGSA,A,1,,,,,,,,,,,,,,,*02
$GPGSV,3,1,09,01,00,000,44,07,00,000,45,08,00,000,42,11,00,000,43*7C
$GPGSV,3,2,09,18,00,000,44,09,00,000,37,28,00,000,42,30,00,000,45*7B
$GPGSV,3,3,09,17,00,000,37*42
$BDGSV,3,1,11,01,00,000,40,02,00,000,39,03,00,000,43,04,00,000,38*6C
$BDGSV,3,2,11,08,00,000,42,07,00,000,42,10,00,000,42,13,00,000,42*65
$BDGSV,3,3,11,27,00,000,41,29,00,000,44,30,00,000,45*51
$B3CN0,0,0,0,0,0,0,0,0,0,0,0,0,0,0*4C
---00000019--- Acq_st=7 0  2000-1-1 0:1:7 
[00]  00(G01)  f 44  7  0  -2445.5  2046003.1 -0.0  2 0 1521 2625 1248
[01]  06(G07)  f 45  7  0    -80.2  2046000.1  0.0  2 0 2986 4370 2481
[02]  07(G08)  f 41  7  0   1462.2  2045998.1 -0.1  2 0 1108 2174  680
[03]  10(G11)  f 43  7  0   -896.6  2046001.1  0.0  2 0 1551 2775 1122
[04]  17(G18)  f 43  8  0   -570.9  2046000.7 -0.0  2 0 1948 2610  919
[05]  08(G09)  f 36  7  0   1483.4  2045998.1  0.4  2 0 1101 1942  719
[06]  27(G28)  f 42  7  0  -2916.0  2046003.7 -0.0  2 0 1226 2519 1270
[08]  29(G30)  f 45  7  0  -2327.4  2046003.0 -0.0  2 0 2886 4998 2254
[09]  16(G17)  7 38  7  0  -3263.0  2046004.2  0.0  2 0  665  876  491
[16]  37(B01) 1f 39 21  0  -1102.3  4092002.8 -0.6  2 0 1077 1315  454
[17]  38(B02) 1f 40 10  0  -1139.2  4092002.9  0.5  2 0  546 1153  638
[18]  39(B03) 1f 42 32  0  -1119.4  4092002.9 -0.2  2 0 1208 1916  416
[19]  40(B04) 1f 40 10  0  -1113.7  4092002.8 -0.3  2 0 1300 1576  822
[20]  44(B08) 1f 42  7  0  -1916.5  4092004.9 -0.0  2 0 1488 2213 1250
[21]  43(B07) 1f 42  7  0  -1345.2  4092003.4 -0.0  2 0 1162 1702  793
[24]  46(B10) 1f 42  7  0  -1576.6  4092004.0  0.0  2 0 1764 2003  515
[25]  49(B13) 1f 42  7  0  -2314.3  4092005.9  0.0  2 0 1291 1622  775
[26]  63(B27) 1f 41  7  0   1577.9  4091995.7  0.1  2 0 1451 1766  524
[27]  65(B29) 1f 44  7  0  -3187.2  4092008.3 -0.0  2 0 2482 2782 1062
[28]  66(B30) 1f 45  7  0   -603.6  4092001.5 -0.0  2 0 2572 3362 1623
[32]  78(N-3)  f 46 11  0   1713.9  1021998.9  0.0  2 0  1878 3595 1756
[33]  79(N-2)  f 44  7  0  -1690.4  1022001.0 -0.1  2 0  1019 2012 1270
[34]  82(N01)  f 42  7  0   2315.3  1021998.5  0.1  2 0   628 1524  606
[35]  83(N02)  f 44  7  0   -668.9  1022000.4 -0.0  2 0  1360 2109  885
[48]  37(B01)  7 18 10  1  -1341.1 20460021.8 -0.2  2 0  167  535  413
[49]  38(B02)  7 10 20  1   -528.5 20460009.9  0.2  2 0  400  393  447
[50]  39(B03)  1 36 20  0  -1899.8 20460021.7 -0.2  1 0  637   92  638
[51]  40(B04)  1 23 19  1   -585.8 20460019.4 -0.1  1 0  586  459  161
[52]  44(B08)  1  7  7  0  -1226.9 20460029.9  0.2  1 0  490  574  766
[53]  43(B07)  1  7  7  0  -2565.0 20460021.6  0.1  1 0  227  385  201
[56]  46(B10)  1  7  7  0   -778.2 20460026.8  0.0  1 0  526  771  785
[57]  49(B13)  1  7  7  0  -1082.2 20460035.7 -0.0  1 0  510  384  637
[58]  63(B27)  1  7  7  0    832.1 20459976.2  0.1  1 0  528  728  957
[59]  65(B29)  1  8  7  0  -2086.2 20460051.8 -0.1  1 0  543   88  535
[60]  66(B30)  1  7  8  0   1331.2 20460006.9  0.1  1 0  101  265  951
$GNGGA,071454.890,,,,,0,00,,,M,,,,0000*29
$GNRMC,071454.890,A,,,,,,,240419,,*2E
$GPGSA,A,1,,,,,,,,,,,,,,,*1E
$BDGSA,A,1,,,,,,,,,,,,,,,*0F
$GLGSA,A,1,,,,,,,,,,,,,,,*02
$GPGSV,3,1,09,01,00,000,44,07,00,000,45,08,00,000,41,11,00,000,43*7F
$GPGSV,3,2,09,18,00,000,43,09,00,000,36,28,00,000,42,30,00,000,45*7D
$GPGSV,3,3,09,17,00,000,38*4D
$BDGSV,3,1,11,01,00,000,39,02,00,000,40,03,00,000,42,04,00,000,40*62
$BDGSV,3,2,11,08,00,000,42,07,00,000,42,10,00,000,42,13,00,000,42*65
$BDGSV,3,3,11,27,00,000,41,29,00,000,44,30,00,000,45*51
$B3CN0,0,0,0,0,0,0,0,0,0,0,0,0,0,0*4C
---00000020--- Acq_st=3 0  2000-1-1 0:1:8 
[00]  00(G01)  f 44  7  0  -2450.6  2046003.1  0.0  2 0 1985 2813 1513
[01]  06(G07)  f 45  8  0    -83.0  2046000.0 -0.0  2 0 3030 4010 1658
[02]  07(G08)  f 41  7  0   1462.6  2045998.1  0.1  2 0  721 1534  505
[03]  10(G11)  f 44  7  0   -894.9  2046001.1 -0.0  2 0  964 2022  885
[04]  17(G18)  f 43  8  0   -570.0  2046000.7  0.1  2 0 1714 3094 1881
[05]  08(G09)  f 38  8  0   1490.3  2045998.0  0.3  2 0  659  998  658
[06]  27(G28)  f 42  7  0  -2914.2  2046003.7 -0.0  2 0  906 2650 1356
[08]  29(G30)  f 46  8  0  -2327.1  2046003.0  0.0  2 0 2675 5176 2874
[09]  16(G17)  f 37  7  0  -3262.0  2046004.2 -0.7  2 0  615  867  872
[16]  37(B01) 1f 40 10  0  -1105.3  4092002.8 -0.0  2 0  550  979  538
[17]  38(B02) 1f 40 26  0  -1136.3  4092002.9  0.3  2 0  570 1141  639
[18]  39(B03) 1f 41 30  0  -1119.6  4092002.8 -0.2  2 0 1239 2060  644
[19]  40(B04) 1f 40 10  0  -1116.9  4092002.7 -0.5  2 0 1048 1260  330
[20]  44(B08) 1f 42 13  0  -1911.6  4092004.9  0.1  2 0 1188 1512  929
[21]  43(B07) 1f 42  7  0  -1343.4  4092003.4  0.1  2 0 1485 1829  455
[24]  46(B10) 1f 42  7  0  -1576.7  4092004.0 -0.0  2 0 1681 2584 1369
[25]  49(B13) 1f 41  7  0  -2316.3  4092006.0 -0.0  2 0 1437 1847  708
[26]  63(B27) 1f 41 10  0   1576.9  4091995.7 -0.0  2 0 1629 1790  577
[27]  65(B29) 1f 44  7  0  -3192.4  4092008.2  0.0  2 0 2376 2874 1118
[28]  66(B30) 1f 45  7  0   -602.2  4092001.5  0.1  2 0 3234 3818 1491
[32]  78(N-3)  f 47  7  0   1713.1  1021998.9  0.0  2 0  2005 3524 1763
[33]  79(N-2)  f 45  7  0  -1691.0  1022001.1  0.0  2 0  1300 2587 1321
[34]  82(N01)  f 42  7  0   2314.5  1021998.5 -0.1  2 0  1077 1293  417
[35]  83(N02)  f 45  7  0   -671.1  1022000.4 -0.0  2 0  1135 2229  955
[48]  37(B01)  7 10 18  0  -1521.5 20460025.1 -0.0  2 0  560  452  123
[49]  38(B02)  7 10 10  0   -857.3 20460013.8  0.1  2 0  546  273  384
[50]  39(B03)  1 10 10  1  -1771.4 20460020.4  0.0  1 0  949  946  935
[51]  40(B04)  1 26 24  0  -1064.5 20460020.5  0.1  1 0  492  817  681
[52]  44(B08)  1  7  7  0  -1757.1 20460029.1  0.2  1 0   93  527  466
$GNGGA,071455.890,,,,,0,00,,,M,,,,0000*28
$GNRMC,071455.890,A,,,,,,,240419,,*2F
$GPGSA,A,1,,,,,,,,,,,,,,,*1E
$BDGSA,A,1,,,,,,,,,,,,,,,*0F
$GLGSA,A,1,,,,,,,,,,,,,,,*02
$GPGSV,3,1,09,01,00,000,44,07,00,000,45,08,00,000,41,11,00,000,44*78
$GPGSV,3,2,09,18,00,000,43,09,00,000,38,28,00,000,42,30,00,000,46*70
$GPGSV,3,3,09,17,00,000,37*42
$BDGSV,3,1,11,01,00,000,40,02,00,000,40,03,00,000,41,04,00,000,40*6F
$BDGSV,3,2,11,08,00,000,42,07,00,000,42,10,00,000,42,13,00,000,41*66
$BDGSV,3,3,11,27,00,000,41,29,00,000,44,30,00,000,45*51
$B3CN0,0,0,0,0,0,0,0,0,0,0,0,0,0,0*4C
---00000021--- Acq_st=3 0  2000-1-1 0:1:9 
[00]  00(G01)  f 44  7  0  -2444.1  2046003.1 -0.1  2 0 1728 3023 1386
[01]  06(G07)  f 45 11  0    -77.6  2046000.0  0.1  2 0 2027 3330 1415
[02]  07(G08)  f 41  7  0   1464.1  2045998.1 -0.1  2 0 1421 2752 1261
[03]  10(G11)  f 44  9  0   -893.2  2046001.1  0.0  2 0 1566 2666 1627
[04]  17(G18)  f 43  7  0   -563.3  2046000.7  0.0  2 0 1670 2734 1188
[05]  08(G09)  f 38  7  0   1488.9  2045998.0  0.1  2 0 1150 1226  165
[06]  27(G28)  f 42  7  0  -2909.4  2046003.7 -0.0  2 0 1400 2633 1295
[08]  29(G30)  f 45  9  0  -2321.2  2046002.9 -0.0  2 0 2914 4851 2118
[09]  16(G17)  f 37  7  0  -3260.3  2046004.2  0.1  2 0  828  955  545
[16]  37(B01) 1f 40 10  0  -1101.7  4092002.7 -0.6  2 0 1357 1631  433
[17]  38(B02) 1f 41 23  0  -1130.9  4092002.9  0.4  2 0  659  931  483
[18]  39(B03) 1f 42 30  0  -1116.5  4092002.8 -0.3  2 0 1473 1974 1128
[19]  40(B04) 1f 38 23  0  -1113.5  4092002.9 -0.2  2 0  966 1514  886
[20]  44(B08) 1f 42  7  0  -1909.2  4092004.9  0.1  2 0 1643 2276 1383
[21]  43(B07) 1f 42  7  0  -1344.7  4092003.4 -0.0  2 0 1668 1816  456
[24]  46(B10) 1f 42  7  0  -1574.1  4092004.0  0.0  2 0 1544 1824  632
[25]  49(B13) 1f 42  7  0  -2309.9  4092005.9  0.0  2 0 1416 2117 1122
[26]  63(B27) 1f 41  7  0   1584.3  4091995.7 -0.0  2 0  870 1354  723
[27]  65(B29) 1f 44  7  0  -3186.0  4092008.2 -0.0  2 0 2035 2157 1211
[28]  66(B30) 1f 45  7  0   -596.4  4092001.4  0.0  2 0 3275 3753 1828
[32]  78(N-3)  f 47  7  0   1717.8  1021998.9 -0.0  2 0  1984 3843 1793
[33]  79(N-2)  f 45  7  0  -1685.1  1022001.0 -0.0  2 0   933 2168  616
[34]  82(N01)  f 43  7  0   2318.8  1021998.5 -0.0  2 0   911 1416  424
[35]  83(N02)  f 45  7  0   -666.3  1022000.4 -0.0  2 0   940 1856  771
[48]  37(B01)  7 10 10  1  -1472.8 20460024.3 -0.1  2 0  694  727  445
[49]  38(B02)  7 14 13  1  -1145.8 20460017.2 -0.1  2 0  412  283  293
[53]  43(B07)  1  7  7  0   -637.8 20460022.1  0.1  1 0 1094  760  433
[56]  46(B10)  1  7  7  0  -1263.7 20460023.8  0.0  1 0  559  520  721
[57]  49(B13)  1  7  7  0  -1579.8 20460037.5 -0.2  1 0  278  173  634
[58]  63(B27)  1  7  7  0   1185.6 20459974.9 -0.1  1 0  456  196  618
[59]  65(B29)  1  7  7  0  -2978.6 20460050.1  0.0  1 0  540  414   85
[60]  66(B30)  1  7  7  0   -422.4 20460009.3 -0.1  1 0  849  544  447
$GNGGA,071456.890,,,,,0,00,,,M,,,,0000*2B
$GNRMC,071456.890,A,,,,,,,240419,,*2C
$GPGSA,A,1,,,,,,,,,,,,,,,*1E
$BDGSA,A,1,,,,,,,,,,,,,,,*0F
$GLGSA,A,1,,,,,,,,,,,,,,,*02
$GPGSV,3,1,09,01,00,000,44,07,00,000,45,08,00,000,41,11,00,000,44*78
$GPGSV,3,2,09,18,00,000,43,09,00,000,38,28,00,000,42,30,00,000,45*73
$GPGSV,3,3,09,17,00,000,37*42
$BDGSV,3,1,11,01,00,000,40,02,00,000,40,03,00,000,42,04,00,000,38*63
$BDGSV,3,2,11,08,00,000,42,07,00,000,42,10,00,000,42,13,00,000,42*65
$BDGSV,3,3,11,27,00,000,41,29,00,000,44,30,00,000,45*51
$B3CN0,0,0,0,0,0,0,0,0,0,0,0,0,0,0*4C
---00000022--- Acq_st=3 0  2000-1-1 0:1:10 
[00]  00(G01)  f 43  7  0  -2445.6  2046003.1  0.0  2 0 2187 3605 1695
[01]  06(G07)  f 45  7  0    -77.5  2046000.0  0.0  2 0 2968 4405 2639
[02]  07(G08)  f 41  7  0   1464.9  2045998.0 -0.0  2 0 1347 1915  539
[03]  10(G11)  f 43  7  0   -891.2  2046001.1 -0.1  2 0 2344 3155 1796
[04]  17(G18)  f 43  7  0   -566.2  2046000.7 -0.0  2 0 1580 2784 1818
[05]  08(G09)  f 38  7  0   1490.9  2045997.9  0.0  2 0  855 1898  777
[06]  27(G28)  f 42  7  0  -2912.2  2046003.7  0.0  2 0 1021 1801  717
[08]  29(G30)  f 45  7  0  -2321.2  2046003.0  0.0  2 0 2880 4962 2397
[09]  16(G17)  f 37  7  0  -3262.7  2046004.2 -0.5  2 0  846 1275  708
[16]  37(B01) 1f 39 13  0  -1099.7  4092002.6  0.4  2 0  865 1036  376
[17]  38(B02) 1f 39 24  0  -1136.4  4092003.0 -0.7  2 0  762 1223  596
[18]  39(B03) 1f 43 32  0  -1115.4  4092002.8 -0.3  2 0 1152 1452  794
[19]  40(B04) 1f 40 14  0  -1115.5  4092002.8 -0.6  2 0 1371 1556  586
[20]  44(B08) 1f 42  7  0  -1911.8  4092004.9 -0.1  2 0 1323 1790  867
[21]  43(B07) 1f 42  7  0  -1344.7  4092003.4  0.1  2 0 1822 1873  395
[22]  41(B05)  1 16 17  1  -1167.8  4092002.4 -0.0  1 0  104  352  397
[24]  46(B10) 1f 42  7  0  -1574.7  4092004.0 -0.1  2 0 1136 2008  940
[25]  49(B13) 1f 42  7  0  -2310.2  4092006.0 -0.0  2 0 1738 2153  803
[26]  63(B27) 1f 41  7  0   1582.3  4091995.7 -0.0  2 0 1630 2018  957
[27]  65(B29) 1f 44  7  0  -3187.9  4092008.2  0.0  2 0 1703 2853 1061
[28]  66(B30) 1f 45  7  0   -597.4  4092001.4  0.0  2 0 2684 3456 1547
[32]  78(N-3)  f 46  7  0   1717.2  1021998.9  0.0  2 0  1988 3434 1858
[33]  79(N-2)  f 45  7  0  -1685.9  1022001.0 -0.0  2 0  1257 2205 1362
[34]  82(N01)  f 42  7  0   2317.9  1021998.5 -0.0  2 0   998 1500  858
[35]  83(N02)  f 45  7  0   -666.0  1022000.4  0.0  2 0  1398 2485 1102
[48]  37(B01)  7 10 10  1  -1570.9 20460026.2 -0.2  2 0  119  185  353
[49]  38(B02)  7 22 19  0  -1726.4 20460028.5 -0.0  2 0  218  333  162
[50]  39(B03)  1 10 23  0  -1002.0 20460018.7 -0.0  1 0  432  535  507
[51]  40(B04)  1 21 23  0   -882.0 20460018.9 -0.0  1 0  517  396  262
[52]  44(B08)  1  7  7  0  -1371.9 20460029.1 -0.0  1 0  487  590  376
[53]  43(B07)  1  7  7  0   -274.3 20460021.5  0.1  1 0  537  530   86
[56]  46(B10)  1  7  7  0  -1491.0 20460023.9  0.1  1 0  369  363  211
[57]  49(B13)  1  7  7  0  -1712.4 20460037.6 -0.1  1 0  354  214  243
[58]  63(B27)  1  7  7  0   1355.9 20459976.5  0.0  1 0  482  342  522
[59]  65(B29)  1  7  7  0  -3382.0 20460050.7  0.2  1 0  127  175  387
[60]  66(B30)  1  7  9  0    714.7 20460010.3 -0.0  1 0  244  526  365
$GNGGA,071457.890,,,,,0,00,,,M,,,,0000*2A
$GNRMC,071457.890,A,,,,,,,240419,,*2D
$GPGSA,A,1,,,,,,,,,,,,,,,*1E
$BDGSA,A,1,,,,,,,,,,,,,,,*0F
$GLGSA,A,1,,,,,,,,,,,,,,,*02
$GPGSV,3,1,09,01,00,000,43,07,00,000,45,08,00,000,41,11,00,000,43*78
$GPGSV,3,2,09,18,00,000,43,09,00,000,38,28,00,000,42,30,00,000,45*73
$GPGSV,3,3,09,17,00,000,37*42
$BDGSV,3,1,11,01,00,000,39,02,00,000,40,03,00,000,43,04,00,000,40*63
$BDGSV,3,2,11,08,00,000,42,07,00,000,42,10,00,000,42,13,00,000,42*65
$BDGSV,3,3,11,27,00,000,41,29,00,000,44,30,00,000,45*51
$B3CN0,0,22,0,0,0,0,0,0,0,0,0,0,0,0*7C
---00000023--- Acq_st=3 0  2000-1-1 0:1:11 
[00]  00(G01)  f 44  7  0  -2447.7  2046003.1 -0.0  2 0 1733 3289 1624
[01]  06(G07)  f 44 12  0    -79.3  2046000.0 -0.0  2 0 3125 4377 1890
[02]  07(G08)  f 41  7  0   1464.7  2045998.0  0.1  2 0 2150 2751 1068
[03]  10(G11)  f 44  7  0   -896.5  2046001.1 -0.0  2 0 2226 2436  997
[04]  17(G18)  f 44  7  0   -566.2  2046000.7 -0.0  2 0 1372 2273 1332
[05]  08(G09)  f 37  7  0   1491.6  2045998.0 -0.1  2 0  332  543  402
[06]  27(G28)  f 41  7  0  -2916.0  2046003.7  0.1  2 0 1249 2486  941
[08]  29(G30)  f 45  7  0  -2323.6  2046003.0  0.0  2 0 2520 3798 1274
[09]  16(G17)  f 37  7  0  -3276.1  2046004.2  0.2  2 0  750 1131  973
[16]  37(B01) 1f 40 20  0  -1102.4  4092002.7  0.6  2 0  995 1694  638
[17]  38(B02) 1f 40 22  0  -1136.2  4092002.9 -0.4  2 0  630  951  705
[18]  39(B03) 1f 43 29  0  -1118.5  4092002.9  0.3  2 0 1212 1519  386
[19]  40(B04) 1f 40 23  0  -1113.3  4092002.8  0.4  2 0 1150  705  426
[20]  44(B08) 1f 42 10  0  -1908.4  4092004.9  0.0  2 0 1573 1802  644
[21]  43(B07) 1f 42 10  0  -1345.2  4092003.4  0.0  2 0 1349 1585  424
[22]  41(B05)  1 21 28  1  -2069.5  4092004.1  0.1  1 0  400  468   73
[24]  46(B10) 1f 43  7  0  -1576.5  4092004.0 -0.0  2 0 1960 2480  819
[25]  49(B13) 1f 42  7  0  -2320.8  4092006.0  0.1  2 0 1042 1514  454
[26]  63(B27) 1f 41  7  0   1578.4  4091995.7  0.1  2 0 2006 2066  927
[27]  65(B29) 1f 44  7  0  -3191.0  4092008.3  0.0  2 0 2216 3415 1519
[28]  66(B30) 1f 45  7  0   -602.5  4092001.5  0.0  2 0 2548 3788 1645
[32]  78(N-3)  f 47  7  0   1714.6  1021998.9  0.0  2 0  2187 3740 2029
[33]  79(N-2)  f 45  8  0  -1689.0  1022001.0 -0.0  2 0  1307 2290  726
[34]  82(N01)  f 43  7  0   2314.8  1021998.5  0.1  2 0  1125 1858  758
[35]  83(N02)  f 45 11  0   -669.0  1022000.4 -0.0  2 0  1177 2176  980
[49]  38(B02)  7 16 36  1  -2348.1 20460037.8 -0.1  2 0  688  701  222
[50]  39(B03)  1 23 22  0   -835.9 20460021.4 -0.0  1 0  351  414  896
[51]  40(B04)  1 36 20  0    -43.7 20460017.7  0.1  1 0  480  449  420
[52]  44(B08)  1  7  9  0   -672.5 20460030.2 -0.0  1 0  955  656   95
[53]  43(B07)  1  7  7  0    397.6 20460020.7 -0.1  1 0  169   79  343
[56]  46(B10)  1  7  7  0  -1525.2 20460025.7 -0.0  1 0  695  401  170
[57]  49(B13)  1  7  7  0  -1707.0 20460037.5  0.0  1 0  985  583  421
[58]  63(B27)  1  7  7  0   1751.0 20459975.4 -0.0  1 0  343  352  420
[59]  65(B29)  1  7  7  0  -3900.5 20460050.5  0.1  1 0  132  347  258
[60]  66(B30)  1  7  7  0    603.4 20460008.8  0.2  1 0  619  398  465
$GNGGA,071458.890,,,,,0,00,,,M,,,,0000*25
$GNRMC,071458.890,A,,,,,,,240419,,*22
$GPGSA,A,1,,,,,,,,,,,,,,,*1E
$BDGSA,A,1,,,,,,,,,,,,,,,*0F
$GLGSA,A,1,,,,,,,,,,,,,,,*02
$GPGSV,3,1,09,01,00,000,44,07,00,000,44,08,00,000,41,11,00,000,44*79
$GPGSV,3,2,09,18,00,000,44,09,00,000,37,28,00,000,41,30,00,000,45*78
$GPGSV,3,3,09,17,00,000,37*42
$BDGSV,3,1,11,01,00,000,40,02,00,000,40,03,00,000,43,04,00,000,40*6D
$BDGSV,3,2,11,08,00,000,42,07,00,000,42,10,00,000,43,13,00,000,42*64
$BDGSV,3,3,11,27,00,000,41,29,00,000,44,30,00,000,45*51
$B3CN0,0,17,0,0,0,0,0,0,0,0,0,0,0,0*7A
---00000024--- Acq_st=3 0  2000-1-1 0:1:12 
[00]  00(G01)  f 44  7  0  -2443.9  2046003.1  0.1  2 0 1433 2687 1353
[01]  06(G07)  f 45  7  0    -76.7  2046000.1 -0.0  2 0 1885 3085 1248
[02]  07(G08)  f 41  7  0   1467.4  2045998.0  0.0  2 0 1025 2015  923
[03]  10(G11)  f 44  7  0   -891.6  2046001.1  0.0  2 0 1979 2455 1015
[04]  17(G18)  f 44  7  0   -565.0  2046000.7 -0.0  2 0 1632 2668 1715
[05]  08(G09)  f 38  7  0   1488.8  2045998.0 -0.4  2 0  948 1159  609
[06]  27(G28)  f 42  9  0  -2914.0  2046003.7 -0.1  2 0 1817 2555 1089
[08]  29(G30)  f 45  7  0  -2323.3  2046003.0  0.0  2 0 3270 5157 2706
[09]  16(G17)  f 37  8  0  -3261.5  2046004.2 -0.1  2 0 1019 1403  717
[16]  37(B01) 1f 40 17  0  -1100.1  4092002.7 -0.3  2 0  750 1305  413
[17]  38(B02) 1f 40 25  0  -1135.5  4092002.9  0.2  2 0 1002 1545  810
[18]  39(B03) 1f 43 31  0  -1115.4  4092002.9  0.3  2 0 1635 2101 1168
[19]  40(B04) 1f 39 10  0  -1112.8  4092002.6  0.6  2 0 1179 1127  115
[20]  44(B08) 1f 42  7  0  -1906.1  4092004.9  0.1  2 0 1582 2505 1220
[21]  43(B07) 1f 42  7  0  -1344.0  4092003.4 -0.0  2 0 1561 1916  842
[22]  41(B05)  1 10 10  1  -1652.1  4092004.9  0.0  1 0 1116  780  407
[24]  46(B10) 1f 42  7  0  -1573.4  4092004.0  0.0  2 0 1544 2015  624
[25]  49(B13) 1f 42  7  0  -2312.3  4092005.9 -0.0  2 0 1403 2062  696
[26]  63(B27) 1f 41  7  0   1583.6  4091995.7 -0.0  2 0 1644 2053  918
[27]  65(B29) 1f 44  7  0  -3188.6  4092008.2 -0.0  2 0 2591 3381 1626
[28]  66(B30) 1f 45  7  0   -597.0  4092001.4 -0.0  2 0 3395 4428 2103
[32]  78(N-3)  f 46  7  0   1717.6  1021998.9 -0.0  2 0  2040 3118 1704
[33]  79(N-2)  f 45  7  0  -1685.8  1022001.0  0.0  2 0   926 2054 1204
[34]  82(N01)  f 43  7  0   2318.1  1021998.5  0.0  2 0  1055 1552 1067
[35]  83(N02)  f 45  7  0   -665.2  1022000.4 -0.0  2 0  1338 2293 1117
[48]  37(B01)  1 18 10  0   -754.1 20460023.6 -0.0  1 0  776  805  242
[50]  39(B03)  1 22 19  1  -1028.6 20460023.8 -0.1  1 0  958  559  147
[51]  40(B04)  1 22 22  1    -45.7 20460020.4 -0.1  1 0  388  622  459
[52]  44(B08)  1  7  7  0   -863.6 20460030.8 -0.1  1 0  710 1082  508
[53]  43(B07)  1  7  7  0   -607.2 20460020.5 -0.0  1 0  207  393  393
[56]  46(B10)  1  8  7  0  -2146.7 20460026.6 -0.0  1 0  130  309  344
[57]  49(B13)  1  7  7  0  -1703.4 20460035.4 -0.1  1 0  431  570  299
[58]  63(B27)  1  7  7  0   1557.4 20459974.6  0.1  1 0  384  942  993
[59]  65(B29)  1  7  8  0  -3600.2 20460051.6  0.1  1 0  394  453  262
[60]  66(B30)  1  7  7  0    969.2 20460010.5 -0.0  1 0  793  435  345
$GNGGA,071459.890,,,,,0,00,,,M,,,,0000*24
$GNRMC,071459.890,A,,,,,,,240419,,*23
$GPGSA,A,1,,,,,,,,,,,,,,,*1E
$BDGSA,A,1,,,,,,,,,,,,,,,*0F
$GLGSA,A,1,,,,,,,,,,,,,,,*02
$GPGSV,3,1,09,01,00,000,44,07,00,000,45,08,00,000,41,11,00,000,44*78
$GPGSV,3,2,09,18,00,000,44,09,00,000,38,28,00,000,42,30,00,000,45*74
$GPGSV,3,3,09,17,00,000,37*42
$BDGSV,3,1,11,01,00,000,40,02,00,000,40,03,00,000,43,04,00,000,39*63
$BDGSV,3,2,11,08,00,000,42,07,00,000,42,10,00,000,42,13,00,000,42*65
$BDGSV,3,3,11,27,00,000,41,29,00,000,44,30,00,000,45*51
$B3CN0,0,0,0,0,0,0,0,0,0,0,0,0,0,0*4C
---00000025--- Acq_st=3 0  2000-1-1 0:1:13 
[00]  00(G01)  f 43  7  0  -2445.1  2046003.1 -0.0  2 0 1939 3314 1261
[01]  06(G07)  f 44  7  0    -79.2  2046000.1  0.1  2 0 3199 4121 2043
[02]  07(G08)  f 42  8  0   1461.8  2045998.1  0.0  2 0  860 2296 1106
[03]  10(G11)  f 43  7  0   -894.5  2046001.1 -0.0  2 0 1508 2375 1073
[04]  17(G18)  f 43  7  0   -565.4  2046000.7 -0.1  2 0  867 3160 2043
[05]  08(G09)  f 38 11  0   1484.4  2045998.0 -0.0  2 0 1060 1212  659
[06]  27(G28)  f 42  7  0  -2914.5  2046003.7 -0.0  2 0 2434 3159 1963
[08]  29(G30)  f 45  7  0  -2322.3  2046002.9  0.0  2 0 3208 4940 2520
[09]  16(G17)  f 37  7  0  -3260.7  2046004.2 -0.3  2 0  957  950  433
[16]  37(B01) 1f 40 20  0  -1106.0  4092002.8  0.2  2 0  669 1183  633
[17]  38(B02) 1f 40 25  0  -1134.3  4092002.9 -0.3  2 0  998 1316  564
[18]  39(B03) 1f 42 30  0  -1118.0  4092002.7 -0.0  2 0 1600 1716  534
[19]  40(B04) 1f 39 22  0  -1108.4  4092002.8  0.3  2 0 1041 1433  624
[20]  44(B08) 1f 42  7  0  -1911.0  4092004.9 -0.1  2 0 2093 2435  977
[21]  43(B07) 1f 42  7  0  -1348.7  4092003.4  0.0  2 0 1191 1368  666
[22]  41(B05)  1 23 10  1  -1291.6  4092005.8 -0.1  1 0  842  926  223
[24]  46(B10) 1f 42  7  0  -1575.4  4092004.0 -0.0  2 0 1436 2008 1035
