SD initialized success
Create debug.log Failed! 3
bbram_blkflag = 1
rtcflag = 0
BBRAM Block OK: 01 EPHflag: 00000000 09c216dd, rtc 00
Hot-start nowtime:day = 20,minute = 5,seconds = 0
Start Channel by LuYu
$GNGGA,000000.000,,,,,0,00,,,M,,,,0000*2B
$GNRMC,000000.000,A,,,,,,,060180,,*29
$GPGSA,A,1,,,,,,,,,,,,,,,*1E
$BDGSA,A,1,,,,,,,,,,,,,,,*0F
$GLGSA,A,1,,,,,,,,,,,,,,,*02
$B3CN0,0,0,0,0,0,0,0,0,0,0,0,0,0,0*4C
---00000001--- Acq_st=3 0  2019-4-20 8:5:45 
[00]  00(G01)  1 28 10  0   -983.8  2046002.1  0.3  1 0 2646 4421 2452
[01]  02(G03)  1  7  7  0  -4030.9  2046005.0  0.0  1 0  390  963 1222
[02]  06(G07)  1  7  7  0   1250.0  2045999.7 -0.0  1 0 2353 3808 2325
[03]  07(G08)  1 20  7  0   1500.0  2045999.0 -0.1  1 0  671 1364  969
[04]  10(G11)  1 10  7  0    250.0  2046000.9 -0.0  1 0 1589 3166 2621
[05]  12(G13)  1  7  7  0  -1000.0  2046002.4  0.0  1 0  678  903 1236
$GNGGA,000000.000,,,,,0,00,,,M,,,,0000*2B
$GNRMC,000000.000,A,,,,,,,060180,,*29
$GPGSA,A,1,,,,,,,,,,,,,,,*1E
$BDGSA,A,1,,,,,,,,,,,,,,,*0F
$GLGSA,A,1,,,,,,,,,,,,,,,*02
$B3CN0,0,0,0,0,0,0,0,0,0,0,0,0,0,0*4C
---00000002--- Acq_st=3 0  2019-4-20 8:5:46 
[00]  00(G01)  7 25  7  0   -973.4  2046001.1  0.7 10 0 3144 3647 1613
[01]  02(G03)  1 25  7  0  -3563.6  2046006.1  0.2  1 0  569 1220  973
[02]  06(G07)  1 37  7  0   1168.7  2045998.2  0.9  1 0 3336 3867 1435
[03]  07(G08)  1 29  7  0   1480.7  2045997.9  0.7  1 0  823 1404  526
[04]  10(G11)  1 27  7  0    281.6  2045999.5  0.2  1 0 2039 3409 1793
[05]  12(G13)  1 37 18  0  -1000.7  2046001.7  0.5  1 0 1617 1734  530
[06]  17(G18)  1 19  7  0    822.4  2045999.5  0.1  1 0 1681 2420  965
[08]  21(G22)  1  7  7  0  -2750.0  2046004.7 -0.0  1 0  723 1025 1594
$GNGGA,000000.000,,,,,0,00,,,M,,,,0000*2B
$GNRMC,000000.000,A,,,,,,,060180,,*29
$GPGSA,A,1,,,,,,,,,,,,,,,*1E
$BDGSA,A,1,,,,,,,,,,,,,,,*0F
$GLGSA,A,1,,,,,,,,,,,,,,,*02
$GPGSV,1,1,01,01,00,000,25*4E
$B3CN0,0,0,0,0,0,0,0,0,0,0,0,0,0,0*4C
---00000003--- Acq_st=3 0  2019-4-20 8:5:47 
[00]  00(G01)  7 45  9  0   -980.6  2046001.2 -0.1  2 0 3632 4493 1573
[01]  02(G03)  7 19  7  0  -3571.6  2046004.5  0.8 10 0  588  748  431
[02]  06(G07)  7 37  7  0   1164.4  2045998.4  0.2  2 0 2380 3321 1724
[03]  07(G08)  7 33  7  0   1472.0  2045998.0  0.3  5 0 1077 1308  692
[04]  10(G11)  7 30  7  0    276.1  2045999.6  0.2  5 0 2519 3391 1291
[05]  12(G13)  7 27  8  0  -1007.8  2046001.2  0.6 10 0 1651 1549  620
[06]  17(G18)  1 36  7  0    820.0  2045998.7  1.0  1 0 2211 3278 1523
[08]  21(G22)  1 29  7  0  -2804.9  2046004.3  0.4  1 0  929 1449 1054
[09]  27(G28)  1 24 10  0  -2930.8  2046004.2  0.3  1 0 1107 2400 1412
[10]  29(G30)  1 23  7  0  -1014.6  2046005.1  0.2  1 0  303 3156 4615
[16]  37(B01)  1 31 10  0  -1112.6  4092005.7  0.0  1 0  552 1658 1244
[17]  38(B02)  1 10 16  1   -750.0  4092002.0  0.0  1 0  181  659  765
[18]  39(B03)  1 26 32  1  -1000.0  4092003.0  0.1  1 0  112  452 1830
[19]  40(B04)  1 14 19  1   -750.0  4092000.5  0.0  1 0   70  425  240
$GNGGA,000000.000,,,,,0,00,,,M,,,,0000*2B
$GNRMC,000000.000,A,,,,,,,060180,,*29
$GPGSA,A,1,,,,,,,,,,,,,,,*1E
$BDGSA,A,1,,,,,,,,,,,,,,,*0F
$GLGSA,A,1,,,,,,,,,,,,,,,*02
$GPGSV,2,1,06,01,00,000,45,03,00,000,19,07,00,000,36,08,00,000,33*7D
$GPGSV,2,2,06,11,00,000,30,13,00,000,27*7B
$B3CN0,0,0,0,0,0,0,0,0,0,0,0,0,0,0*4C
---00000004--- Acq_st=3 0  2019-4-20 8:5:48 
[00]  00(G01)  7 45  7  0   -969.0  2046001.2  0.0  2 0 2927 4075 1810
[01]  02(G03)  7 36  7  0  -3559.9  2046004.4  0.3  2 0 1103 1495  812
[02]  06(G07)  7 45  7  0   1176.1  2045998.4 -0.0  2 0 2690 3594 1508
[03]  07(G08)  7 40  7  0   1482.6  2045998.0 -0.0  2 0  967 1868  990
[04]  10(G11)  7 44  8  0    290.5  2045999.6 -0.1  2 0 1836 3197 1338
[05]  12(G13)  7 39 19  0   -994.4  2046001.2  0.1  2 0 1555 2035  866
[06]  17(G18)  7  7  7  0    830.2  2045998.9  1.0 10 0 2603 3257 1293
[08]  21(G22)  7 32  7  0  -2796.6  2046003.5  0.2  5 0  303  870  645
[09]  27(G28)  7 25  7  0  -2920.2  2046003.7  0.6 10 0 1374 2314  975
[10]  29(G30)  7 22  7  0  -1001.3  2046001.1  0.8 10 0 4312 4147 1513
[16]  37(B01)  1 39 17  0  -1079.5  4092002.4  0.9  1 0  920 1791  754
[17]  38(B02)  1 17 24  0  -1054.6  4092001.8 -0.1  1 0  614  374  344
[18]  39(B03)  1 28 30  1  -1148.2  4092003.7  0.1  1 0  563  223 1694
[19]  40(B04)  1 10 22  0   -998.9  4092002.0 -0.1  1 0  138  238  326
[20]  41(B05)  1 19 10  0  -1376.7  4092003.5 -0.1  1 0  206   45  466
[21]  43(B07)  1  7  7  0   -982.3  4092002.1 -0.0  1 0  304  236  226
[22]  44(B08)  1  7  7  0  -1520.0  4092005.8  0.1  1 0 1356 2471 1050
[24]  46(B10)  1  7  7  0  -1750.0  4092006.3 -0.1  1 0  583 2064 1997
[25]  47(B11)  1  7  7  0     -0.0  4092001.4 -0.0  1 0 1704 2925 2224
[26]  49(B13)  1  7  7  0  -2000.0  4092007.0 -0.0  1 0  309  815 2235
$GNGGA,080550.036,,,,,0,00,,,M,,,,0000*26
$GNRMC,080550.036,A,,,,,,,120180,,*21
$GPGSA,A,1,,,,,,,,,,,,,,,*1E
$BDGSA,A,1,,,,,,,,,,,,,,,*0F
$GLGSA,A,1,,,,,,,,,,,,,,,*02
$GPGSV,3,1,09,01,00,000,45,03,00,000,36,07,00,000,45,08,00,000,40*7E
$GPGSV,3,2,09,11,00,000,44,13,00,000,39,22,00,000,32,28,00,000,24*74
$GPGSV,3,3,09,30,00,000,21*40
$B3CN0,0,0,0,0,0,0,0,0,0,0,0,0,0,0*4C
---00000005--- Acq_st=3 0  2019-4-20 8:5:49 
[00]  00(G01)  f 45 10  0   -975.0  2046001.2 -0.0  2 0 2800 4015 1302
[01]  02(G03)  f 35  7  0  -3564.5  2046004.6 -0.1  2 0  575  664  358
[02]  06(G07)  f 44  8  0   1168.9  2045998.4 -0.0  2 0 2871 4152 2010
[03]  07(G08)  f 39  7  0   1478.1  2045998.0 -0.0  2 0 1083 1589  524
[04]  10(G11)  f 44  8  0    286.4  2045999.6  0.0  2 0 1564 3321 1633
[05]  12(G13)  f 40 20  0  -1003.7  2046001.2 -0.1  2 0  875  998  456
[06]  17(G18)  7 45  7  0    828.1  2045998.9 -0.0  2 0 2873 3477 1355
[08]  21(G22)  7 40  7  0  -2798.1  2046003.5  0.2  2 0  860 1318  225
[09]  27(G28)  7 43  7  0  -2926.4  2046003.7  0.1  2 0 1577 2756 1779
[10]  29(G30)  7 46  7  0  -1007.4  2046001.1  0.0  2 0 3810 4425 2230
[16]  37(B01)  7 41 10  0  -1087.0  4092002.6 -0.2  2 0 1409 1225  301
[17]  38(B02)  1 10 10  0  -1388.8  4092002.8  0.0  1 0  637  559  576
[18]  39(B03)  7 30 32  1  -1012.8  4092002.6  0.1  2 0  169  549 2007
[19]  40(B04)  1 20 10  1  -1420.4  4092002.4 -0.0  1 0  741   95  563
[20]  41(B05)  7 37 21  0  -1140.3  4092003.2 -0.5  2 0  335  658 1035
[21]  43(B07)  1  7  7  0   -922.1  4092002.3  0.0  1 0  143  502  906
[22]  44(B08)  7  7  7  0  -1526.7  4092003.8  0.4 10 0 2195 2164  742
[24]  46(B10)  1  7  7  0  -1531.2  4092003.7  0.3  1 0 1711 2609 1019
[25]  47(B11)  1 16  7  0   -219.7  4091998.9  0.8  1 0 1419 1481  734
[26]  49(B13)  1  7  7  0  -2007.6  4092005.4  0.3  1 0 1046 1484  739
[27]  54(B18)  1  7  7  0  -1250.0  4092005.4  0.1  1 0  164  271 1519
$GNGGA,080551.036,,,,,0,00,,,M,,,,0000*27
$GNRMC,080551.036,A,,,,,,,120180,,*20
$GPGSA,A,1,,,,,,,,,,,,,,,*1E
$BDGSA,A,1,,,,,,,,,,,,,,,*0F
$GLGSA,A,1,,,,,,,,,,,,,,,*02
$GPGSV,3,1,10,01,00,000,45,03,00,000,35,07,00,000,44,08,00,000,39*7A
$GPGSV,3,2,10,11,00,000,44,13,00,000,40,18,00,000,45,22,00,000,40*73
$GPGSV,3,3,10,28,00,000,43,30,00,000,46*74
$BDGSV,1,1,03,01,00,000,41,03,00,000,29,05,00,000,36*57
$B3CN0,0,0,0,0,0,0,0,0,0,0,0,0,0,0*4C
---00000006--- Acq_st=3 0  2019-4-20 8:5:50 
[00]  00(G01)  f 45  7  0   -972.8  2046001.2 -0.0  2 0 2830 3926 1565
[01]  02(G03)  f 36  7  0  -3565.3  2046004.5  0.0  2 0 1159 1395  846
[02]  06(G07)  f 44  7  0   1172.0  2045998.4  0.1  2 0 2724 4167 2327
[03]  07(G08)  f 39  7  0   1477.0  2045998.0 -0.1  2 0 1407 1948  898
[04]  10(G11)  f 43  7  0    286.6  2045999.6  0.0  2 0 1732 3316 1947
[05]  12(G13)  f 40 17  0  -1001.2  2046001.2  0.1  2 0 1317 1967  684
[06]  17(G18)  7 43  7  0    830.1  2045998.9 -0.0  2 0 1695 2816 1044
[08]  21(G22)  7 39  7  0  -2798.8  2046003.5 -0.0  2 0 1108 1779  658
[09]  27(G28)  7 42  7  0  -2921.7  2046003.7 -0.0  2 0 1652 2753 1571
[10]  29(G30)  7 45  7  0  -1003.9  2046001.2 -0.0  2 0 3910 4788 2409
[16]  37(B01) 1f 41 13  0  -1080.8  4092002.7 -0.5  2 0 1069 1365  680
[17]  38(B02)  1 16 10  0  -1456.3  4092006.1 -0.3  1 0  206  175  777
[18]  39(B03)  7 24 33  1  -1005.9  4092002.6 -0.1  2 0  917  184 1701
[19]  40(B04)  1 14 10  0  -1568.0  4092002.4  0.0  1 0  775  552  306
[20]  41(B05) 1f 38 16  0  -1131.5  4092003.1 -0.6  2 0  281  983  978
[21]  43(B07)  1  7  7  0   -619.1  4092002.4  0.1  1 0  209  352  531
[22]  44(B08)  7 43  9  0  -1524.9  4092003.9  0.1  2 0 2012 2159  440
[24]  46(B10)  7 34  7  0  -1529.4  4092003.9  0.1  5 0 1688 2389  916
[25]  47(B11)  1 17  7  0   -215.4  4091998.9  1.0  1 0 1186 2189 1304
[26]  49(B13)  7 28  7  0  -2004.6  4092005.1  0.3 10 0 1586 1999  718
[27]  54(B18)  1  7  7  0  -1293.4  4092003.8  0.3  1 0 2600 2969  932
[28]  59(B23)  1  7  7  0  -2339.8  4092006.4  0.0  1 0  261  149  373
[29]  60(B24)  1  7  7  0   2250.0  4091996.2 -0.0  1 0  570 1465  940
[30]  61(B25)  1  7  7  0    500.0  4092002.0  0.0  1 0  372 1701 3693
$GNGGA,080551.904,2944.9051,N,10633.1009,E,1,04,3.3,349.5,M,,,,0000*13
$GNRMC,080551.904,A,2944.9051,N,10633.1009,E,0.98,0.00,120180,,*1B
$GPGSA,A,3,,,,,,,,,,,,,5.4,3.3,4.2*35
$BDGSA,A,3,01,05,08,10,,,,,,,,,5.4,3.3,4.2*29
$GLGSA,A,3,,,,,,,,,,,,,5.4,3.3,4.2*29
$GPGSV,3,1,10,01,00,000,45,03,00,000,36,07,00,000,44,08,00,000,39*79
$GPGSV,3,2,10,11,00,000,43,13,00,000,40,18,00,000,43,22,00,000,39*7C
$GPGSV,3,3,10,28,00,000,42,30,00,000,45*76
$BDGSV,2,1,06,01,00,000,41,03,00,000,24,05,00,000,38,08,00,000,43*6D
$BDGSV,2,2,06,10,00,000,34,13,00,000,28*60
$B3CN0,0,0,0,0,0,0,0,0,0,0,0,0,0,0*4C
---00000007--- Acq_st=3 0  2019-4-20 8:5:51 
[00]  00(G01)  f 45  8  0   -980.6  2046001.2  0.0  2 0 2546 4347 2263
[01]  02(G03)  f 37  7  0  -3571.5  2046004.5  0.1  2 0  990 1366  815
[02]  06(G07)  f 44  7  0   1165.5  2045998.4 -0.0  2 0 2624 4199 2632
[03]  07(G08)  f 39  7  0   1470.3  2045998.1  0.1  2 0 1402 1973 1068
[04]  10(G11)  f 43  7  0    280.2  2045999.6 -0.0  2 0 1785 2933 1398
[05]  12(G13)  f 39 19  0  -1008.9  2046001.2  0.1  2 0  783 1291  674
[06]  17(G18)  7 43  7  0    825.6  2045998.9 -0.0  2 0 2125 3478 1591
[08]  21(G22)  7 40  7  0  -2802.8  2046003.6  0.1  2 0 1047 1691 1159
[09]  27(G28)  7 42  7  0  -2929.5  2046003.7  0.1  2 0 2313 3407 2226
[10]  29(G30)  7 45  7  0  -1010.0  2046001.2 -0.0  2 0 3279 4714 2268
[16]  37(B01) 1f 41 10  0  -1091.4  4092002.8 -0.1  2 0 1439 1807  558
[17]  38(B02)  7 36 25  0  -1138.7  4092003.2  0.8  2 0  475 1412 1422
[18]  39(B03)  7 23 32  1  -1013.2  4092002.6 -0.0  2 0  312  753 1911
[19]  40(B04)  1 22 10  0  -1644.2  4092003.1  0.0  1 0  421   76  239
[20]  41(B05) 1f 39 26  0  -1137.4  4092002.9  0.4  2 0  624 1159  787
[21]  43(B07)  1  7  7  0   -704.4  4092002.4 -0.1  1 0  169  545  255
[22]  44(B08) 1f 42  7  0  -1530.5  4092003.9 -0.0  2 0 1771 2147  985
[24]  46(B10) 1f 43  7  0  -1533.8  4092003.9  0.0  2 0 2061 2307 1224
[25]  47(B11) 19  7  7  0   -224.6  4091999.2  1.0  1 0 1627 2671 1600
[26]  49(B13)  7 42  7  0  -2008.1  4092005.1  0.0  2 0 1626 1635  589
[27]  54(B18)  7 33  7  0  -1297.9  4092003.2  0.0  5 0 1935 2602  999
[28]  59(B23)  1  7  7  0  -1946.3  4092006.7 -0.0  1 0  515  435  289
[29]  60(B24)  1  7  7  0   2063.0  4091994.3  0.3  1 0 1430 1551  952
[30]  61(B25)  1  7  7  0    337.6  4091999.0  0.4  1 0 2688 2956 1426
[48]  37(B01)  1 18 20  1   -502.8 20460013.7 -0.1  1 0  110  122   57
[52]  41(B05)  1 21 24  1   -838.5 20460016.8  0.0  1 0  685  723  849
---00000008--- Acq_st=3 0  2019-4-20 8:5:52 
[00]  00(G01)  f 44  9  0   -970.3  2046001.2  0.0  2 0 2770 4724 1892
[01]  02(G03)  f 37  7  0  -3563.2  2046004.6  0.3  2 0 1324 1093  510
[02]  06(G07)  f 44  7  0   1174.7  2045998.4 -0.0  2 0 2308 3943 1835
[03]  07(G08)  f 40  7  0   1477.5  2045998.0  0.0  2 0  540 1332  705
[04]  10(G11)  f 43  7  0    287.7  2045999.6 -0.0  2 0 2506 3901 1519
[05]  12(G13)  f 39 19  0   -996.9  2046001.3  0.0  2 0  563 1747  876
[06]  17(G18)  7 44  7  0    829.6  2045998.9  0.0  2 0 2066 3908 2307
[08]  21(G22)  7 40  8  0  -2794.7  2046003.6 -0.0  2 0 1722 1911  517
[09]  27(G28)  7 42 12  0  -2921.7  2046003.7 -0.1  2 0 1765 2644 1377
[10]  29(G30)  7 45  7  0  -1002.2  2046001.2  0.0  2 0 3732 4841 2346
[16]  37(B01) 1f 40 36  0  -1082.9  4092002.7 -0.4  2 0 1497 2143  784
[17]  38(B02)  f 40 19  0  -1124.6  4092003.0 -0.0  2 0  631 1641 2015
[18]  39(B03)  7 10 32  1  -1003.5  4092002.8  0.2  2 0  389  310 1799
[20]  41(B05) 1f 39 10  0  -1132.2  4092003.0  0.4  2 0  106  760  848
[22]  44(B08) 1f 42  9  0  -1521.8  4092003.9  0.0  2 0 2105 2307  700
[24]  46(B10) 1f 43  7  0  -1524.9  4092003.9 -0.1  2 0 1791 2365  686
[25]  47(B11) 19  7  8  0   -214.8  4091999.0  0.9  1 0 1677 2532 1652
[26]  49(B13)  7 42  7  0  -1997.6  4092005.1 -0.1  2 0 1746 2347 1148
[27]  54(B18)  7 43  7  0  -1291.2  4092003.2  0.1  2 0 2737 2925 1194
[28]  59(B23)  1  9  7  0  -2158.0  4092006.7 -0.2  1 0  128  148  432
[29]  60(B24)  7 34  7  0   2071.1  4091994.4  0.0  5 0 1632 1970 1028
[30]  61(B25)  7 33  7  0    346.3  4091999.0  0.2  5 0 2930 3856 2034
[32]  77(N-4)  1 28  7  0  -3528.8  1022003.4  0.4  1 0  1098 1956  979
[33]  79(N-2)  1 28  7  0    244.9  1022000.9  0.2  1 0   819 1449  706
[34]  82(N01)  1  7  7  0   3000.0  1021999.6 -0.0  1 0   317  429  587
[35]  83(N02)  1 22  7  0    500.0  1022002.8  0.1  1 0   158 1101 2782
[48]  37(B01)  1 23 10  1    254.7 20460018.4 -0.2  1 0  598  179  612
[52]  41(B05)  1 24 25  0   -641.0 20460017.4  0.1  1 0  306  764  401
[54]  44(B08)  1  7  7  0  -1350.5 20460022.8 -0.1  1 0  551  431  634
[56]  46(B10)  1  7  7  0  -1772.9 20460023.8 -0.1  1 0  403  345  749
$GNGGA,080553.000,2944.9033,N,10633.0958,E,1,04,3.3,350.0,M,,,,0000*19
$GNRMC,080553.000,A,2944.9033,N,10633.0958,E,0.94,0.00,120180,,*10
$GPGSA,A,3,,,,,,,,,,,,,5.4,3.3,4.2*35
$BDGSA,A,3,01,05,08,10,,,,,,,,,5.4,3.3,4.2*29
$GLGSA,A,3,,,,,,,,,,,,,5.4,3.3,4.2*29
$GPGSV,3,1,10,01,00,000,44,03,00,000,37,07,00,000,44,08,00,000,40*77
$GPGSV,3,2,10,11,00,000,43,13,00,000,39,18,00,000,44,22,00,000,40*7B
$GPGSV,3,3,10,28,00,000,42,30,00,000,45*76
$BDGSV,3,1,09,01,00,000,40,02,00,000,40,05,00,000,39,08,00,000,42*61
$BDGSV,3,2,09,10,00,000,43,13,00,000,42,18,00,000,43,24,00,000,33*6A
$BDGSV,3,3,09,25,00,000,33*56
$B3CN0,0,0,0,0,0,0,0,0,0,0,0,0,0,0*4C
---00000009--- Acq_st=7 0  2019-4-20 8:5:53 
[00]  00(G01)  f 45  7  0   -973.1  2046001.2  0.0  2 0 2828 4211 2036
[01]  02(G03)  f 37  9  0  -3570.1  2046004.6 -0.2  2 0 1076 1024  897
[02]  06(G07)  f 44  7  0   1171.0  2045998.4  0.0  2 0 3247 4045 1852
[03]  07(G08)  f 40  7  0   1477.0  2045998.0  0.0  2 0  632 1333  951
[04]  10(G11)  f 43  7  0    284.4  2045999.6 -0.0  2 0 2023 3208 1875
[05]  12(G13)  f 39 19  0  -1000.9  2046001.2  0.0  2 0  520  998  714
[06]  17(G18)  7 44  7  0    827.8  2045998.9 -0.0  2 0 1947 2795 1382
[08]  21(G22)  7 39  7  0  -2804.7  2046003.5 -0.0  2 0 1246 1221  367
[09]  27(G28)  7 42  7  0  -2925.3  2046003.8  0.1  2 0 1395 2016  633
[10]  29(G30)  7 45  7  0  -1006.1  2046001.2  0.0  2 0 3028 4819 1976
[16]  37(B01) 1f 41 16  0  -1081.2  4092002.8  0.3  2 0  843 1604  799
[17]  38(B02) 1f 40 28  0  -1126.0  4092003.1  0.0  2 0  566 1737 1445
[18]  39(B03)  7 24 33  1  -1008.4  4092002.6 -0.1  2 0  605  998  941
[20]  41(B05) 1f 38 27  0  -1134.1  4092002.8 -0.4  2 0 1341 1963 1627
[22]  44(B08) 1f 42  7  0  -1529.8  4092003.9 -0.0  2 0 1981 2416  878
[24]  46(B10) 1f 43  7  0  -1531.4  4092003.9  0.0  2 0 2003 2439 1105
[26]  49(B13)  7 42  7  0  -2004.4  4092005.2  0.0  2 0 1560 1760  801
[27]  54(B18)  7 43  7  0  -1292.8  4092003.2 -0.0  2 0 2604 3223 1253
[28]  59(B23)  1  7  7  0  -2293.5  4092006.5 -0.0  1 0  159  366  380
[29]  60(B24)  7 39  7  0   2068.2  4091994.5  0.0  2 0 1166 1187  481
[30]  61(B25)  7 44  7  0    345.8  4091999.0 -0.1  2 0 2827 3448 1525
[32]  77(N-4)  1 31  7  0  -3531.9  1022001.9  1.0  1 0  1258 1795  590
[33]  79(N-2)  7  7  7  0    240.6  1021999.7  1.0 10 0   461 1402  725
[34]  82(N01)  1 24 24  0   2750.7  1021999.1  0.1  1 0   503  391  366
[35]  83(N02)  1  7 10  0    428.4  1021999.8  1.0  1 0  2639 2489 1108
[36]  86(N05)  1 28  7  0    660.3  1021999.8  0.7  1 0  3215 3617 1349
[48]  37(B01)  1 20 21  0    249.1 20460017.1  0.0  1 0  266  163  192
[49]  38(B02)  1 24 10  1   -963.9 20460017.6 -0.1  1 0  151  172  213
[52]  41(B05)  1 23 23  1   -483.1 20460022.7 -0.1  1 0  425  401  497
[54]  44(B08)  1  7  7  0  -1444.7 20460025.1 -0.1  1 0  603  118  538
[56]  46(B10)  1  7  7  0  -2063.5 20460022.6  0.0  1 0  462  420  253
$GNGGA,080554.000,2944.9031,N,10633.0943,E,1,04,3.3,349.0,M,,,,0000*1E
$GNRMC,080554.000,A,2944.9031,N,10633.0943,E,0.67,0.00,120180,,*13
$GPGSA,A,3,,,,,,,,,,,,,5.4,3.3,4.2*35
$BDGSA,A,3,01,05,08,10,,,,,,,,,5.4,3.3,4.2*29
$GLGSA,A,3,,,,,,,,,,,,,5.4,3.3,4.2*29
$GPGSV,3,1,10,01,00,000,45,03,00,000,37,07,00,000,44,08,00,000,40*76
$GPGSV,3,2,10,11,00,000,43,13,00,000,39,18,00,000,44,22,00,000,39*75
$GPGSV,3,3,10,28,00,000,42,30,00,000,45*76
$BDGSV,3,1,12,01,40,125,41,02,00,000,41,03,55,171,24,05,27,244,38*63
$BDGSV,3,2,12,08,78,165,42,10,75,006,43,13,53,201,42,18,00,000,43*64
$BDGSV,3,3,12,24,13,144,39,25,65,162,44,04,23,109,00,07,65,090,00*65
$B3CN0,0,0,0,0,0,0,0,0,0,0,0,0,0,0*4C
---00000010--- Acq_st=7 0  2019-4-20 8:5:54 
[00]  00(G01)  f 45 12  0   -969.9  2046001.2 -0.0  2 0 2506 4312 2295
[01]  02(G03)  f 37  7  0  -3569.0  2046004.6 -0.2  2 0  399 1016  441
[02]  06(G07)  f 44  7  0   1175.9  2045998.4  0.0  2 0 3129 4545 1840
[03]  07(G08)  f 40  7  0   1478.2  2045998.0 -0.1  2 0 1201 1628  436
[04]  10(G11)  f 43  7  0    286.3  2045999.6  0.0  2 0 2544 3698 1274
[05]  12(G13)  f 39 16  0   -995.0  2046001.3  0.2  2 0  619 1332  655
[06]  17(G18)  7 43  7  0    830.2  2045998.9  0.0  2 0 1912 3127 1522
[08]  21(G22)  7 40  7  0  -2799.9  2046003.6 -0.1  2 0  682 1395 1172
[09]  27(G28)  7 42  7  0  -2924.5  2046003.8 -0.1  2 0 1602 2044  757
[10]  29(G30)  7 45  7  0  -1000.8  2046001.2 -0.0  2 0 3481 5487 2478
[16]  37(B01) 1f 41 36  0  -1083.2  4092002.7  0.1  2 0 1350 1433  718
[17]  38(B02) 1f 41 23  0  -1122.8  4092002.9  0.4  2 0  872 1635  951
[18]  39(B03)  7 10 31  1  -1008.9  4092002.6 -0.0  2 0  386  389 1234
[20]  41(B05) 1f 37 36  0  -1132.2  4092002.9 -0.7  2 0  579 1184  761
[22]  44(B08) 1f 43 11  0  -1524.4  4092003.9  0.0  2 0 1530 2008  640
[24]  46(B10) 1f 43 14  0  -1529.0  4092003.9 -0.1  2 0 1767 2409 1044
[26]  49(B13)  7 41  8  0  -2005.7  4092005.1  0.0  2 0 1750 2082 1088
[27]  54(B18)  7 43  9  0  -1288.4  4092003.2  0.0  2 0 2211 2481 1028
[28]  59(B23)  1  7  7  0  -2294.1  4092006.5  0.2  1 0  576  428  247
[29]  60(B24)  7 40  7  0   2070.9  4091994.5  0.0  2 0 1481 1505  843
[30]  61(B25)  7 44  7  0    346.9  4091999.0  0.0  2 0 2338 3306 1585
[32]  77(N-4)  7 27  7  0  -3528.3  1022002.2  0.8 10 0  1116 2030  886
[33]  79(N-2)  7 44  7  0    245.0  1021999.8 -0.2  2 0  1202 1653  813
[34]  82(N01)  7 21 32  1   2833.5  1021998.2  0.0 10 0   499  191  321
[35]  83(N02)  1  7  7  0    432.0  1021999.5  1.0  1 0  2053 3112  985
[36]  86(N05)  7 34  7  0    665.7  1021999.5  0.3  5 0  2895 3986 1869
[48]  37(B01)  1 10 10  1    420.2 20460019.6  0.2  1 0  483  757  627
[49]  38(B02)  f 10 10  1  -1005.7 20460017.1  0.1  2 0  647  440  215
[52]  41(B05)  1 23 25  0   -388.3 20460018.9  0.1  1 0  444  500  317
[54]  44(B08)  1  7  7  0  -1406.2 20460024.5 -0.1  1 0  411   47  197
[56]  46(B10)  1  7  7  0  -2654.0 20460026.3  0.2  1 0  184  194  267
$GNGGA,080555.000,2944.9030,N,10633.0935,E,1,04,3.3,348.8,M,,,,0000*16
$GNRMC,080555.000,A,2944.9030,N,10633.0935,E,0.97,0.00,120180,,*1D
$GPGSA,A,3,,,,,,,,,,,,,5.4,3.3,4.2*35
$BDGSA,A,3,01,05,08,10,,,,,,,,,5.4,3.3,4.2*29
$GLGSA,A,3,,,,,,,,,,,,,5.4,3.3,4.2*29
$GPGSV,3,1,10,01,00,000,45,03,00,000,37,07,00,000,44,08,00,000,40*76
$GPGSV,3,2,10,11,00,000,43,13,00,000,39,18,00,000,43,22,00,000,40*7C
$GPGSV,3,3,10,28,00,000,42,30,00,000,45*76
$BDGSV,3,1,12,01,40,125,41,02,00,000,41,05,27,244,37,08,78,165,43*6C
$BDGSV,3,2,12,10,75,006,43,13,53,201,41,18,00,000,43,24,13,144,40*65
$BDGSV,3,3,12,25,65,162,44,03,55,171,00,04,23,109,00,07,65,090,00*6E
$B3CN0,0,0,0,0,0,0,0,0,0,0,0,0,0,0*4C
---00000011--- Acq_st=3 0  2019-4-20 8:5:55 
[00]  00(G01)  f 45  7  0   -971.7  2046001.2  0.0  2 0 3068 4490 1931
[01]  02(G03)  f 38  7  0  -3571.0  2046004.6  0.5  2 0  478  921  422
[02]  06(G07)  f 45 10  0   1171.2  2045998.4 -0.0  2 0 2688 3854 1613
[03]  07(G08)  f 39  7  0   1473.7  2045998.1 -0.1  2 0 1132 2002  460
[04]  10(G11)  f 44  7  0    283.9  2045999.6 -0.0  2 0 1359 2874 1546
[05]  12(G13)  f 39 19  0   -999.5  2046001.2  0.0  2 0 1099 1499  944
[06]  17(G18)  f 43  8  0    824.2  2045998.9 -0.0  2 0 1721 2709 1553
[08]  21(G22)  f 40 11  0  -2799.1  2046003.5  0.0  2 0 1160 2423  764
[09]  27(G28)  f 42 10  0  -2925.7  2046003.7 -0.0  2 0 2010 2923 1296
[10]  29(G30)  f 45  7  0  -1003.2  2046001.2 -0.0  2 0 3273 4503 2162
[11]  16(G17)  1  7  7  0  -2750.0  2046003.5 -0.0  1 0  292  376  491
[16]  37(B01) 1f 41 21  0  -1088.1  4092002.6  0.1  2 0 1249 1579  844
[17]  38(B02) 1f 41 25  0  -1130.2  4092003.0 -0.1  2 0  994 1411  843
[18]  39(B03)  7 18 31  1  -1001.3  4092002.7 -0.1  2 0  669  787 1095
[20]  41(B05) 1f 38 23  0  -1139.8  4092002.9  0.9  2 0  430  938  225
[22]  44(B08) 1f 42  7  0  -1523.2  4092003.9 -0.1  2 0 1729 2149  898
[24]  46(B10) 1f 43  7  0  -1530.7  4092003.9  0.0  2 0 2042 2683  713
[26]  49(B13)  7 42  7  0  -2007.4  4092005.1  0.0  2 0 1374 2330  923
[27]  54(B18)  7 43  7  0  -1293.0  4092003.3 -0.0  2 0 2221 3021 1625
[29]  60(B24)  7 39  7  0   2066.8  4091994.5  0.1  2 0 1581 1722  757
[30]  61(B25)  7 44  7  0    344.0  4091999.0  0.0  2 0 2154 3023 1572
[32]  77(N-4)  7 46  7  0  -3530.3  1022002.2  0.1  2 0  1319 1891  814
[33]  79(N-2)  7 44  7  0    244.1  1021999.8  0.1  2 0   803 1481  714
[34]  82(N01)  7 23 31  1   2833.3  1021998.2  0.1 10 0   559  712   96
[35]  83(N02)  1  7 14  0    429.7  1021999.7  1.0  1 0  1601 3283 1767
[36]  86(N05)  7 49  7  0    663.4  1021999.5 -0.0  2 0  2354 3600 1586
[49]  38(B02)  f 10 10  0  -1166.3 20460018.1 -0.1  2 0  720  148  291
[54]  44(B08)  1  7  7  0  -2187.3 20460025.4  0.1  1 0  323  769  456
[56]  46(B10)  1  7  7  0  -2744.0 20460025.3 -0.2  1 0  182  725 1175
$GNGGA,080556.000,2944.9031,N,10633.0928,E,1,04,3.3,347.8,M,,,,0000*17
$GNRMC,080556.000,A,2944.9031,N,10633.0928,E,1.26,0.00,120180,,*18
$GPGSA,A,3,,,,,,,,,,,,,5.4,3.3,4.2*35
$BDGSA,A,3,01,05,08,10,,,,,,,,,5.4,3.3,4.2*29
$GLGSA,A,3,,,,,,,,,,,,,5.4,3.3,4.2*29
$GPGSV,3,1,10,01,00,000,45,03,00,000,38,07,00,000,45,08,00,000,39*76
$GPGSV,3,2,10,11,00,000,44,13,00,000,39,18,00,000,43,22,00,000,40*7B
$GPGSV,3,3,10,28,00,000,42,30,00,000,45*76
$BDGSV,3,1,12,01,40,125,41,02,00,000,41,03,55,171,18,05,27,244,38*6C
$BDGSV,3,2,12,08,78,165,42,10,75,006,43,13,53,201,42,18,00,000,43*64
$BDGSV,3,3,12,24,13,144,39,25,65,162,44,04,23,109,00,07,65,090,00*65
$B3CN0,0,0,0,0,0,0,0,0,0,0,0,0,0,0*4C
---00000012--- Acq_st=3 0  2019-4-20 8:5:56 
[00]  00(G01)  f 46 11  0   -973.2  2046001.2 -0.0  2 0 2629 4089 2459
[01]  02(G03)  f 37  7  0  -3573.0  2046004.6  0.4  2 0  715 1077  550
[02]  06(G07)  f 45  7  0   1170.3  2045998.4  0.0  2 0 3502 4580 1992
[03]  07(G08)  f 40  7  0   1472.2  2045998.0  0.1  2 0 1232 1544  645
[04]  10(G11)  f 44  7  0    284.6  2045999.6 -0.0  2 0 2150 3404 1482
[05]  12(G13)  f 39 18  0  -1005.0  2046001.2  0.1  2 0  713 1684 1147
[06]  17(G18)  f 43  7  0    828.5  2045998.9 -0.1  2 0 2074 3034 1338
[08]  21(G22)  f 40  7  0  -2801.9  2046003.6 -0.0  2 0 1211 1663  704
[09]  27(G28)  f 41  7  0  -2925.9  2046003.7  0.0  2 0  726 1568  849
[10]  29(G30)  f 45  7  0  -1003.8  2046001.2 -0.0  2 0 3156 5102 2451
[11]  16(G17)  1  7  7  0  -3314.2  2046004.3 -0.1  1 0  522  305  936
[12]  18(G19)  1  7  9  0  -3547.1  2046005.5 -0.1  1 0  345  647  182
[16]  37(B01) 1f 41 36  0  -1086.6  4092002.7  0.2  2 0 1222  981  400
[17]  38(B02) 1f 41 24  0  -1126.6  4092002.9 -0.4  2 0  625 1678  656
[18]  39(B03)  7 17 33  1  -1004.9  4092002.6 -0.0  2 0  216  128  386
[19]  40(B04)  1 10 10  0  -1000.0  4092003.2 -0.1  1 0  408  571  986
[20]  41(B05) 1f 37 16  0  -1139.9  4092002.8 -0.1  2 0  282  966  711
[22]  44(B08) 1f 43  7  0  -1524.6  4092003.9  0.1  2 0 1429 2164  918
[24]  46(B10) 1f 43  7  0  -1533.7  4092003.9  0.0  2 0 1556 2638 1663
[26]  49(B13)  7 42  7  0  -2007.7  4092005.1 -0.1  2 0 1246 1969  875
[27]  54(B18)  7 43  7  0  -1293.9  4092003.3  0.0  2 0 2238 3016 1742
[29]  60(B24)  7 40  7  0   2067.6  4091994.4 -0.0  2 0 1701 1543   80
[30]  61(B25)  7 44  7  0    344.3  4091999.0 -0.0  2 0 2200 2864 1442
[32]  77(N-4)  7 46  7  0  -3531.3  1022002.2 -0.1  2 0  1379 2304 1076
[33]  79(N-2)  7 44  7  0    242.8  1021999.8  0.2  2 0   886 1498  656
[34]  82(N01)  7 22 31  1   2832.9  1021998.2  0.0 10 0   179  315  305
[35]  83(N02)  1  7  7  0    429.9  1021999.7  1.0  1 0  1384 2789 1419
[36]  86(N05)  7 48  7  0    663.6  1021999.5 -0.0  2 0  2589 4019 1599
[48]  37(B01)  1 17 19  0   -731.7 20460016.4 -0.1  1 0  440  197  219
[49]  38(B02)  f 10 10  0  -1618.2 20460024.2  0.1  2 0  494  852  249
[52]  41(B05)  1 23 23  0  -1071.5 20460016.3  0.1  1 0  618  734  284
$GNGGA,080557.000,2944.9030,N,10633.0921,E,1,04,3.3,347.0,M,,,,0000*16
$GNRMC,080557.000,A,2944.9030,N,10633.0921,E,1.03,0.00,200419,,*12
$GPGSA,A,3,,,,,,,,,,,,,5.4,3.3,4.2*35
$BDGSA,A,3,01,05,08,10,,,,,,,,,5.4,3.3,4.2*29
$GLGSA,A,3,,,,,,,,,,,,,5.4,3.3,4.2*29
$GPGSV,3,1,10,01,00,000,46,03,00,000,37,07,00,000,45,08,00,000,40*74
$GPGSV,3,2,10,11,00,000,44,13,00,000,39,18,00,000,43,22,00,000,40*7B
$GPGSV,3,3,10,28,00,000,41,30,00,000,45*75
$BDGSV,3,1,12,01,40,125,41,02,00,000,41,03,55,171,17,05,27,244,37*6C
$BDGSV,3,2,12,08,78,165,43,10,75,006,43,13,53,201,42,18,00,000,43*65
$BDGSV,3,3,12,24,13,144,40,25,65,162,44,04,23,109,00,07,65,090,00*6B
$B3CN0,0,0,0,0,0,0,0,0,0,0,0,0,0,0*4C
---00000013--- Acq_st=3 0  2019-4-20 8:5:57 
[00]  00(G01)  f 45  7  0   -968.7  2046001.2 -0.0  2 0 2932 4765 2193
[01]  02(G03)  f 38  7  0  -3567.4  2046004.6  0.1  2 0 1035  930  420
[02]  06(G07)  f 45  7  0   1177.5  2045998.4  0.0  2 0 2899 4391 2547
[03]  07(G08)  f 41  7  0   1479.6  2045998.0  0.0  2 0 1320 1834  763
[04]  10(G11)  f 44  7  0    286.5  2045999.5 -0.0  2 0 2972 3857 1593
[05]  12(G13)  f 39 19  0   -995.0  2046001.2  0.2  2 0  971 1124  715
[06]  17(G18)  f 43  7  0    833.7  2045998.9  0.0  2 0 1899 3051 1481
[08]  21(G22)  f 40  9  0  -2797.3  2046003.6  0.0  2 0 1022 1264  144
[09]  27(G28)  f 41 10  0  -2921.4  2046003.7  0.0  2 0 1962 2326 1270
[10]  29(G30)  f 46  7  0   -999.0  2046001.2 -0.0  2 0 3234 5206 2352
[11]  16(G17)  1  7  9  0  -3483.1  2046004.6  0.1  1 0  828  780 1103
[12]  18(G19)  1  7  7  0  -3333.3  2046006.5  0.0  1 0  614  759  393
[16]  37(B01) 1f 42 19  0  -1079.9  4092002.6 -0.6  2 0  958 1417  968
[17]  38(B02) 1f 41 25  0  -1127.1  4092002.8 -0.0  2 0 1196 1697  717
[18]  39(B03)  7 10 32  1  -1004.1  4092002.6  0.1  2 0  293   88  386
[19]  40(B04)  1 10 10  1   -573.2  4092005.0  0.0  1 0  244  857 1526
[20]  41(B05) 1f 38 22  0  -1134.2  4092002.8 -0.0  2 0 1626 1696  828
[21]  43(B07)  1  7  7  0  -1224.3  4092004.6  0.2  1 0 1834 2804 1540
[22]  44(B08) 1f 43  7  0  -1519.5  4092003.9 -0.0  2 0 1759 2312  890
[24]  46(B10) 1f 42 14  0  -1527.3  4092003.9  0.0  2 0 1827 1969  846
[25]  47(B11)  1  7  7  0    284.2  4091999.4  0.1  1 0 1857 3440 2280
[26]  49(B13) 1f 42  7  0  -2001.4  4092005.2  0.1  2 0 1511 2540 1539
[27]  54(B18) 1f 43  7  0  -1288.4  4092003.3 -0.0  2 0 2672 3313 1498
[29]  60(B24) 1f 40  7  0   2077.4  4091994.4 -0.1  2 0 1466 1577  648
[30]  61(B25) 1f 44  7  0    349.3  4091999.0 -0.0  2 0 2525 3324 1453
[32]  77(N-4)  7 46  7  0  -3524.7  1022002.2  0.2  2 0   989 1800  772
[33]  79(N-2)  7 44  8  0    249.2  1021999.8  0.0  2 0   950 1524  657
[34]  82(N01)  7 23 32  1   2832.4  1021998.3 -0.0 10 0   248  320  158
[36]  86(N05)  7 49  8  0    668.9  1021999.5  0.0  2 0  2767 4215 1745
[48]  37(B01)  f 10 10  1   -914.4 20460015.9 -0.0  2 0  256  494  271
[49]  38(B02)  f 10 10  1  -2138.1 20460033.0  0.1  2 0  265  525  515
[52]  41(B05)  1 24 24  0   -977.4 20460020.2  0.1  1 0  357   35  521
[54]  44(B08)  1  7  7  0  -1570.3 20460024.2 -0.1  1 0   49  651  219
[56]  46(B10)  1  7  7  0  -1505.5 20460023.5 -0.0  1 0  630  574   33
$GNGGA,080558.000,2944.9024,N,10633.0909,E,1,07,2.0,346.8,M,,,,0000*1E
$GNRMC,080558.000,A,2944.9024,N,10633.0909,E,0.28,0.00,200419,,*1A
$GPGSA,A,3,,,,,,,,,,,,,2.9,2.0,2.0*39
$BDGSA,A,3,01,05,08,10,13,24,25,,,,,,2.9,2.0,2.0*26
$GLGSA,A,3,,,,,,,,,,,,,2.9,2.0,2.0*25
$GPGSV,3,1,10,01,00,000,45,03,00,000,38,07,00,000,45,08,00,000,41*79
$GPGSV,3,2,10,11,00,000,44,13,00,000,39,18,00,000,43,22,00,000,40*7B
$GPGSV,3,3,10,28,00,000,41,30,00,000,46*76
$BDGSV,3,1,12,01,40,125,42,02,00,000,41,05,27,244,38,08,78,165,43*60
$BDGSV,3,2,12,10,75,006,42,13,53,201,42,18,00,000,43,24,13,144,40*67
$BDGSV,3,3,12,25,65,162,44,03,55,171,00,04,23,109,00,07,65,090,00*6E
$B3CN0,0,0,0,0,0,0,0,0,0,0,0,0,0,0*4C
---00000014--- Acq_st=3 0  2019-4-20 8:5:58 
[00]  00(G01)  f 45  9  0   -967.9  2046001.2  0.0  2 0 2813 4242 1945
[01]  02(G03)  f 37  7  0  -3559.0  2046004.5 -0.1  2 0 1250 1358  551
[02]  06(G07)  f 45  7  0   1177.1  2045998.4  0.0  2 0 2710 4175 2505
[03]  07(G08)  f 40  7  0   1473.6  2045998.0 -0.0  2 0 1256 1910  998
[04]  10(G11)  f 44  7  0    287.7  2045999.6 -0.0  2 0 1814 2761 1394
[05]  12(G13)  f 39 19  0   -995.3  2046001.3 -0.3  2 0  811 1423  656
[06]  17(G18)  f 44  7  0    830.3  2045998.9  0.0  2 0 1499 3245 1769
[08]  21(G22)  f 39  7  0  -2800.4  2046003.5  0.1  2 0  635 1371  727
[09]  27(G28)  f 42 15  0  -2925.3  2046003.7 -0.0  2 0 1252 2055  902
[10]  29(G30)  f 46  7  0   -999.8  2046001.2  0.0  2 0 3272 5173 2366
[11]  16(G17)  1  7  7  0  -3188.5  2046004.3 -0.1  1 0  648 1303  980
[12]  18(G19)  1  7  7  0  -3363.7  2046005.5 -0.1  1 0  789  176   92
[16]  37(B01) 1f 41 22  0  -1085.0  4092002.7 -0.1  2 0  749 1559 1096
[17]  38(B02) 1f 40 19  0  -1123.2  4092002.9  0.8  2 0  990 1682 1071
[18]  39(B03)  7 19 33  1  -1009.0  4092002.7  0.1  2 0  605  388  384
[19]  40(B04)  1 10 10  1   -596.3  4092004.1  0.0  1 0  407  598  747
[20]  41(B05) 1f 37 23  0  -1136.4  4092002.9 -0.0  2 0 1118 1502  689
[21]  43(B07)  7 22  7  0  -1223.5  4092003.1  0.4 10 0 2147 2382  644
[22]  44(B08) 1f 43  7  0  -1524.4  4092003.9  0.0  2 0 1989 2140  553
[24]  46(B10) 1f 43  8  0  -1531.1  4092003.9 -0.0  2 0 2089 2134  944
[25]  47(B11)  1  7  7  0    287.3  4091999.1  0.3  1 0 2098 3291 1652
[26]  49(B13) 1f 42  7  0  -2004.3  4092005.1 -0.0  2 0 1852 2631 1121
[27]  54(B18) 1f 43  7  0  -1289.3  4092003.2 -0.0  2 0 2525 3065  737
[29]  60(B24) 1f 40  7  0   2076.6  4091994.4 -0.0  2 0 1359 2091 1023
[30]  61(B25) 1f 44  7  0    348.4  4091999.0 -0.0  2 0 2856 3006  953
[32]  77(N-4)  f 38  7  0  -3526.5  1022002.2  0.0  2 0  1121 2179 1104
[33]  79(N-2)  f 38  7  0    248.8  1021999.8 -0.0  2 0   989 1710  992
[34]  82(N01)  7 22 32  1   2829.9  1021998.3 -0.1 10 0   207  344  306
[36]  86(N05)  f 39  7  0    669.3  1021999.5  0.0  2 0  2446 3931 1700
[48]  37(B01)  f 10 10  1   -894.7 20460013.9  0.2  2 0 1022  115  164
[52]  41(B05)  1 24 17  0   -653.8 20460024.9 -0.2  1 0  475  430  939
[54]  44(B08)  1 10  7  0  -1610.4 20460022.6 -0.0  1 0  430  504  306
[56]  46(B10)  1  7  7  0  -1934.4 20460022.2 -0.1  1 0  152  325  170
[58]  49(B13)  1  7  7  0  -2008.3 20460032.0  0.1  1 0  202  187  155
[59]  54(B18)  1  7  7  0  -1153.6 20460019.8 -0.0  1 0  620  786  418
[61]  60(B24)  1  7  7  0   1883.0 20459966.6 -0.1  1 0  370  114  256
[62]  61(B25)  1 11  7  0   -105.8 20459993.6  0.1  1 0   30  264  509
$GNGGA,080559.000,2944.9024,N,10633.0902,E,1,07,2.0,346.0,M,,,,0000*1C
$GNRMC,080559.000,A,2944.9024,N,10633.0902,E,0.04,0.00,200419,,*1E
$GPGSA,A,3,,,,,,,,,,,,,2.9,2.0,2.0*39
$BDGSA,A,3,01,05,08,10,13,24,25,,,,,,2.9,2.0,2.0*26
$GLGSA,A,3,,,,,,,,,,,,,2.9,2.0,2.0*25
$GPGSV,3,1,10,01,00,000,45,03,00,000,37,07,00,000,45,08,00,000,40*77
$GPGSV,3,2,10,11,00,000,44,13,00,000,39,18,00,000,44,22,00,000,39*72
$GPGSV,3,3,10,28,00,000,42,30,00,000,46*75
$BDGSV,3,1,12,01,40,125,41,02,00,000,40,03,55,171,19,05,27,244,38*6C
$BDGSV,3,2,12,07,65,090,22,08,78,165,43,10,75,006,43,13,53,201,42*66
$BDGSV,3,3,12,18,00,000,43,24,13,144,40,25,65,162,44,04,23,109,00*68
$B3CN0,0,0,0,0,0,0,0,0,0,0,0,0,0,0*4C
---00000015--- Acq_st=2 0  2019-4-20 8:5:59 
[00]  00(G01)  f 45  9  0   -966.8  2046001.2 -0.0  2 0 3092 4382 2239
[01]  02(G03)  f 38  8  0  -3568.3  2046004.5 -0.0  2 0 1070  923  424
[02]  06(G07)  f 45  7  0   1176.8  2045998.4 -0.0  2 0 2985 4476 2070
[03]  07(G08)  f 40  7  0   1477.9  2045998.0 -0.1  2 0 1615 1965  858
[04]  10(G11)  f 44  7  0    292.1  2045999.6  0.0  2 0 2969 4277 1528
[05]  12(G13)  f 39 18  0   -998.6  2046001.2  0.1  2 0  459  952  439
[06]  17(G18)  f 44  7  0    833.0  2045998.9 -0.0  2 0 2335 3565 1693
[08]  21(G22)  f 39  7  0  -2800.0  2046003.5 -0.1  2 0  879 1491  529
[09]  27(G28)  f 41  7  0  -2921.2  2046003.7 -0.1  2 0 2070 3065 1654
[10]  29(G30)  f 45  7  0   -998.6  2046001.2  0.0  2 0 3634 5479 2573
[11]  16(G17)  1  7  7  0  -3269.5  2046003.3 -0.0  1 0 1023 1066  328
[12]  18(G19)  1  7  7  0  -3395.2  2046004.4 -0.0  1 0  515  773  545
[16]  37(B01) 1f 41 13  0  -1083.9  4092002.7  0.1  2 0 1413 1339  612
[17]  38(B02) 1f 40 27  0  -1123.7  4092002.8 -0.3  2 0  867 1038  602
[18]  39(B03)  7 36 34  1  -1002.7  4092002.5  0.1  2 0  462  418  435
[19]  40(B04)  1 10 10  1   -876.8  4092005.4  0.1  1 0  714  118  225
[20]  41(B05) 1f 37 26  0  -1132.0  4092002.9 -0.8  2 0  919 1132  726
[21]  43(B07)  7 43  9  0  -1226.0  4092003.1 -0.0  2 0 1526 2304 1188
[22]  44(B08) 1f 42  7  0  -1523.3  4092003.9 -0.0  2 0 2364 2461  903
[24]  46(B10) 1f 43  7  0  -1529.9  4092003.9 -0.0  2 0 1519 2558 1051
[25]  47(B11)  7 40  7  0    291.3  4091999.2  0.0  2 0 2544 3691 1765
[26]  49(B13) 1f 43  7  0  -2004.4  4092005.1  0.0  2 0 1799 2481 1284
[27]  54(B18) 1f 44  7  0  -1287.8  4092003.3  0.0  2 0 2077 2511  821
[28]  64(B28)  1  7  7  0  -3251.4  4092010.1  0.1  1 0 1506 2543 1595
[29]  60(B24) 1f 39  7  0   2079.8  4091994.4  0.0  2 0  448  942  566
[30]  61(B25) 1f 44  7  0    348.8  4091998.9 -0.0  2 0 2693 3377 1054
[32]  77(N-4)  f 46  7  0  -3525.4  1022002.2  0.0  2 0  1129 2008 1204
[33]  79(N-2)  f 44  7  0    248.8  1021999.8 -0.0  2 0  1065 1476  522
[34]  82(N01)  7 22 31  1   2833.7  1021998.1  0.0 10 0   605  158  272
[36]  86(N05)  f 47  7  0    669.4  1021999.5 -0.1  2 0  2418 4501 2283
[48]  37(B01)  f 10 16  1  -1379.3 20460022.7 -0.2  2 0  659  423  142
[49]  38(B02)  1 10 22  1   -497.8 20460020.6  0.1  1 0  462  696  310
[52]  41(B05)  1 24 20  0   -502.6 20460029.1 -0.1  1 0  608  587  129
[54]  44(B08)  1  7  7  0  -1432.9 20460023.3 -0.0  1 0  363  525  972
[56]  46(B10)  1  7  7  0  -1297.2 20460024.4  0.1  1 0  356  285  628
[58]  49(B13)  1  7  7  0  -1794.7 20460030.7 -0.0  1 0  423  394  342
[59]  54(B18)  1  7  7  0  -1201.8 20460020.4 -0.2  1 0  750  948  662
[61]  60(B24)  1  7  7  0   2157.0 20459967.6  0.0  1 0  607  313  144
[62]  61(B25)  1  7  7  0    -30.2 20459996.5  0.1  1 0  303  481  859
$GNGGA,080600.000,2944.9025,N,10633.0896,E,1,07,2.0,345.2,M,,,,0000*1F
$GNRMC,080600.000,A,2944.9025,N,10633.0896,E,0.69,0.00,200419,,*17
$GPGSA,A,3,,,,,,,,,,,,,2.9,2.0,2.0*39
$BDGSA,A,3,01,05,08,10,13,24,25,,,,,,2.9,2.0,2.0*26
$GLGSA,A,3,,,,,,,,,,,,,2.9,2.0,2.0*25
$GPGSV,3,1,10,01,00,000,45,03,00,000,38,07,00,000,45,08,00,000,40*78
$GPGSV,3,2,10,11,00,000,44,13,00,000,39,18,00,000,44,22,00,000,39*72
$GPGSV,3,3,10,28,00,000,41,30,00,000,45*75
$BDGSV,3,1,12,01,40,125,41,02,00,000,40,03,55,171,36,05,27,244,37*6E
$BDGSV,3,2,12,07,65,090,43,08,78,165,42,10,75,006,43,11,61,015,40*66
$BDGSV,3,3,12,13,53,201,43,18,00,000,44,24,13,144,39,25,65,162,44*6C
$B3CN0,0,0,0,0,0,0,0,0,0,0,0,0,0,0*4C
---00000016--- Acq_st=7 0  2019-4-20 8:6:0 
[00]  00(G01)  f 45  7  0   -965.2  2046001.2  0.0  2 0 2860 4338 2423
[01]  02(G03)  f 37  7  0  -3566.4  2046004.6  0.1  2 0 1159 1586  214
[02]  06(G07)  f 44  7  0   1176.9  2045998.4 -0.0  2 0 2744 4297 2219
[03]  07(G08)  f 40  7  0   1481.9  2045998.0 -0.0  2 0 1250 1875  764
[04]  10(G11)  f 44  7  0    291.0  2045999.5  0.0  2 0 1862 2566  639
[05]  12(G13)  f 38 18  0   -988.9  2046001.2  0.2  2 0 1118 1319  448
[06]  17(G18)  f 44  7  0    836.4  2045998.9  0.1  2 0 2326 3793 1463
[08]  21(G22)  f 39  7  0  -2795.8  2046003.6  0.1  2 0 1636 1591  425
[09]  27(G28)  f 41  7  0  -2923.4  2046003.7  0.1  2 0 1094 2033  792
[10]  29(G30)  f 45  7  0   -996.1  2046001.2 -0.0  2 0 2998 4905 2350
[16]  37(B01) 1f 41 19  0  -1082.0  4092002.7 -0.5  2 0 1267 1416  634
[17]  38(B02) 1f 40 17  0  -1123.0  4092002.9  0.4  2 0 1076 1821  854
[18]  39(B03)  7 10 33  1  -1001.8  4092002.6  0.0  2 0  314  432  600
[19]  40(B04)  1 14 19  1  -1005.4  4092005.3  0.2  1 0  116  192  327
[20]  41(B05) 1f 38 24  0  -1132.4  4092002.9  0.9  2 0  973 1060   87
[21]  43(B07)  7 43 13  0  -1223.8  4092003.1 -0.0  2 0 2076 2383  651
[22]  44(B08) 1f 43  7  0  -1522.0  4092003.9  0.1  2 0 1993 2150  726
[24]  46(B10) 1f 43  9  0  -1528.5  4092003.9  0.0  2 0 2027 2280  651
[25]  47(B11)  7 44  7  0    290.0  4091999.2 -0.0  2 0 2153 3136 1219
[26]  49(B13) 1f 42  7  0  -2002.8  4092005.1  0.0  2 0 1469 1690  533
[27]  54(B18) 1f 44  7  0  -1289.6  4092003.2  0.0  2 0 2017 2918 1034
[28]  64(B28)  7 14  7  0  -3245.7  4092008.4  0.5 10 0 1881 2297  869
[29]  60(B24) 1f 40  7  0   2070.4  4091994.4  0.0  2 0  936 1742 1366
[30]  61(B25) 1f 44  7  0    352.0  4091999.0 -0.0  2 0 2532 3263 1127
[32]  77(N-4)  f 45  7  0  -3522.0  1022002.2  0.1  2 0  1292 2068 1029
[33]  79(N-2)  f 44  7  0    251.0  1021999.8  0.0  2 0  1104 1520  720
[34]  82(N01)  7 22 33  1   2832.9  1021998.1  0.0 10 0   756  470   93
[35]  78(N-3)  1 21  7  0   2749.5  1022000.2 -0.1  1 0   451  376  436
[36]  86(N05)  f 46  7  0    670.8  1021999.5  0.0  2 0  1901 3821 1805
[48]  37(B01)  f 10 10  1  -1367.6 20460020.8 -0.1  2 0  734  629  476
[49]  38(B02)  1 10 16  0   -580.3 20460015.9  0.1  1 0   90  472  272
[54]  44(B08)  1  7  8  0  -1281.8 20460024.9 -0.1  1 0  611  617  399
[56]  46(B10)  1  7  7  0  -1633.2 20460024.6 -0.1  1 0  318  369  633
[58]  49(B13)  1  7  7  0  -1476.4 20460031.7  0.0  1 0  302  429  275
[59]  54(B18)  1  7  7  0  -1153.8 20460019.1 -0.0  1 0  377  857  995
[61]  60(B24)  1  7  7  0   1820.3 20459967.8 -0.2  1 0   66  193  150
[62]  61(B25)  1  7  7  0    471.0 20459994.5  0.0  1 0  306  385  575
$GNGGA,080601.000,2944.9027,N,10633.0892,E,1,07,2.0,343.9,M,,,,0000*15
$GNRMC,080601.000,A,2944.9027,N,10633.0892,E,0.70,0.00,200419,,*18
$GPGSA,A,3,,,,,,,,,,,,,2.9,2.0,2.0*39
$BDGSA,A,3,01,05,08,10,13,24,25,,,,,,2.9,2.0,2.0*26
$GLGSA,A,3,,,,,,,,,,,,,2.9,2.0,2.0*25
$GPGSV,3,1,10,01,00,000,45,03,00,000,37,07,00,000,44,08,00,000,40*76
$GPGSV,3,2,10,11,00,000,44,13,00,000,38,18,00,000,44,22,00,000,39*73
$GPGSV,3,3,10,28,00,000,41,30,00,000,45*75
$BDGSV,3,1,12,01,40,125,41,02,00,000,40,05,27,244,38,07,65,090,43*6A
$BDGSV,3,2,12,08,78,165,43,10,75,006,43,11,61,015,44,13,53,201,42*68
$BDGSV,3,3,12,18,00,000,44,24,13,144,40,25,65,162,44,03,55,171,00*66
$B3CN0,0,0,0,0,0,0,0,0,0,0,0,0,0,0*4C
---00000017--- Acq_st=3 0  2019-4-20 8:6:1 
[00]  00(G01)  f 45  7  0   -965.2  2046001.2  0.0  2 0 2785 3943 1320
[01]  02(G03)  f 38  9  0  -3565.3  2046004.6  0.0  2 0  661 1174  707
[02]  06(G07)  f 45  7  0   1180.5  2045998.4  0.1  2 0 2791 4222 2189
[03]  07(G08)  f 40  9  0   1477.2  2045998.0 -0.1  2 0  854 2138 1314
[04]  10(G11)  f 44  7  0    289.7  2045999.6  0.0  2 0 1609 3074  795
[05]  12(G13)  f 38 17  0   -997.3  2046001.2  0.1  2 0  237  682  255
[06]  17(G18)  f 44  7  0    833.1  2045998.8 -0.0  2 0 2131 3240 1427
[08]  21(G22)  f 39  7  0  -2797.1  2046003.6 -0.1  2 0  795 1205  725
[09]  27(G28)  f 41 11  0  -2921.4  2046003.8 -0.0  2 0 1632 2657 1187
[10]  29(G30)  f 46  8  0   -995.9  2046001.2  0.0  2 0 3149 4866 2183
[11]  16(G17)  1  7  7  0  -2750.0  2046004.2  0.0  1 0  410  572  931
[16]  37(B01) 1f 41 10  0  -1081.3  4092002.7 -0.3  2 0 1059 1423  644
[17]  38(B02) 1f 40 26  0  -1125.9  4092002.8  0.1  2 0  983 1403  829
[18]  39(B03)  7 10 34  1  -1006.4  4092002.8 -0.0  2 0  247  415  227
[20]  41(B05) 1f 37 10  0  -1134.7  4092002.8 -0.7  2 0 1095 1218  552
[21]  43(B07)  7 42  7  0  -1220.2  4092003.1 -0.0  2 0 1731 1978  504
[22]  44(B08) 1f 43  7  0  -1521.8  4092003.9 -0.0  2 0 1549 2102  592
[24]  46(B10) 1f 43  7  0  -1525.9  4092003.9 -0.0  2 0 1553 2510 1225
[25]  47(B11)  7 44  7  0    289.3  4091999.1  0.0  2 0 2193 3032 1035
[26]  49(B13) 1f 42  9  0  -2004.3  4092005.1 -0.0  2 0 1591 1898  569
[27]  54(B18) 1f 44  7  0  -1292.3  4092003.2 -0.0  2 0 2031 2418 1563
[28]  64(B28)  7 43 15  0  -3246.9  4092008.4 -0.0  2 0 1296 1954  733
[29]  60(B24) 1f 39  7  0   2073.0  4091994.4 -0.0  2 0  798 1173  904
[30]  61(B25) 1f 45  7  0    349.3  4091999.0 -0.0  2 0 2954 3455 1669
[32]  77(N-4)  f 45  7  0  -3523.5  1022002.2 -0.1  2 0  1139 1865  997
[33]  79(N-2)  f 44  7  0    250.3  1021999.8  0.1  2 0   831 1599  629
[34]  82(N01)  7 24 32  1   2829.1  1021998.1 -0.1 10 0   403  311  396
[35]  78(N-3)  7 25 12  0   2810.9  1021999.3  0.1  2 0   117   48   78
[36]  86(N05)  f 46  7  0    671.2  1021999.5  0.0  2 0  2050 3989 2002
[49]  38(B02)  1 10 10  1   -143.6 20460018.8  0.2  1 0  252  232  110
[52]  41(B05)  1 25 20  1   -997.5 20460017.0 -0.1  1 0  782  343  134
[58]  49(B13)  1  7  7  0  -2040.9 20460031.4 -0.1  1 0  323  603  358
[59]  54(B18)  1  7  7  0   -927.8 20460020.0 -0.0  1 0  227  346   80
[61]  60(B24)  1  7  7  0   1496.9 20459968.1  0.2  1 0  471  587  102
[62]  61(B25)  1  7  7  0   1347.1 20459994.8 -0.0  1 0  390  692  240
$GNGGA,080602.000,2944.9028,N,10633.0890,E,1,07,2.0,343.2,M,,,,0000*10
$GNRMC,080602.000,A,2944.9028,N,10633.0890,E,0.60,0.00,200419,,*17
$GPGSA,A,3,,,,,,,,,,,,,2.9,2.0,2.0*39
$BDGSA,A,3,01,05,08,10,13,24,25,,,,,,2.9,2.0,2.0*26
$GLGSA,A,3,,,,,,,,,,,,,2.9,2.0,2.0*25
$GPGSV,3,1,10,01,00,000,45,03,00,000,38,07,00,000,45,08,00,000,40*78
$GPGSV,3,2,10,11,00,000,44,13,00,000,38,18,00,000,44,22,00,000,39*73
$GPGSV,3,3,10,28,00,000,41,30,00,000,46*76
$BDGSV,3,1,12,01,40,125,41,02,00,000,40,05,27,244,37,07,65,090,42*64
$BDGSV,3,2,12,08,78,165,43,10,75,006,43,11,61,015,44,13,53,201,42*68
$BDGSV,3,3,12,18,00,000,44,28,27,243,43,24,13,144,39,25,65,162,45*60
$B3CN0,0,0,0,0,0,0,0,0,0,0,0,0,0,0*4C
---00000018--- Acq_st=3 0  2019-4-20 8:6:2 
[00]  00(G01)  f 45  7  0   -965.3  2046001.2 -0.0  2 0 3032 4823 2439
[01]  02(G03)  f 37  7  0  -3565.8  2046004.6  0.3  2 0 1077 1883  607
[02]  06(G07)  f 45  7  0   1178.4  2045998.4 -0.0  2 0 3025 4178 1725
[03]  07(G08)  f 41  7  0   1475.6  2045998.0  0.1  2 0  582 1574  284
[04]  10(G11)  f 44  8  0    293.0  2045999.5 -0.0  2 0 2394 3609 1460
[05]  12(G13)  f 38 18  0   -993.5  2046001.2 -0.3  2 0  905 1499  682
[06]  17(G18)  f 43  7  0    835.8  2045998.9 -0.0  2 0 1989 3288 1519
[08]  21(G22)  f 40  7  0  -2797.5  2046003.6 -0.0  2 0 1019 1838  674
[09]  27(G28)  f 41  7  0  -2923.7  2046003.7 -0.0  2 0 2088 2683  970
[10]  29(G30)  f 46  7  0   -995.3  2046001.2  0.0  2 0 3552 5345 2770
[11]  16(G17)  1 27  7  0  -2693.8  2046004.6  0.4  1 0 1271 1273  311
[12]  18(G19)  1  7  7  0  -3894.2  2046004.3  0.1  1 0  227  569  520
[16]  37(B01) 1f 41 16  0  -1082.8  4092002.7  0.1  2 0 1188 1685  884
[17]  38(B02) 1f 40 19  0  -1126.1  4092002.8  0.4  2 0 1210 1405  731
[18]  39(B03)  7 16 32  1  -1001.8  4092002.7 -0.0  2 0  181  486  437
[20]  41(B05) 1f 37 18  0  -1134.4  4092002.8  0.7  2 0  840 1188  219
[21]  43(B07)  7 42 13  0  -1222.8  4092003.1 -0.0  2 0 1597 1892  826
[22]  44(B08) 1f 43  7  0  -1520.7  4092003.9  0.0  2 0 2056 2368  605
[24]  46(B10) 1f 42 11  0  -1529.0  4092003.9 -0.0  2 0 1780 2462  918
[25]  47(B11)  7 44  7  0    289.1  4091999.1  0.0  2 0 2763 3570 1886
[26]  49(B13) 1f 42  7  0  -2004.0  4092005.2 -0.0  2 0 1674 2219  906
[27]  54(B18) 1f 43  7  0  -1289.9  4092003.3  0.0  2 0 1714 2467 1043
[28]  64(B28)  7 42 14  0  -3245.2  4092008.4  0.0  2 0 1240 1745  851
[29]  60(B24) 1f 39  7  0   2073.8  4091994.5 -0.0  2 0 1420 1811 1210
[30]  61(B25) 1f 45  7  0    350.2  4091999.0  0.0  2 0 2557 3270 1424
[32]  77(N-4) 8f 45  7  0  -3522.7  1022002.2  0.1  2 0  1150 1895 1021
[33]  79(N-2) 8f 44  7  0    251.4  1021999.8 -0.0  2 0   372 1194  820
[34]  82(N01)  7 24 32  1   2829.9  1021998.2 -0.1 10 0   356  362  269
[35]  78(N-3)  7 21  7  0   2754.5  1021998.0  0.0 10 0   297  354  257
[36]  86(N05) 8f 47  7  0    671.3  1021999.5 -0.0  2 0  2074 3725 1795
[48]  37(B01)  1 20 18  0   -913.0 20460015.8 -0.0  1 0  373  197  337
[49]  38(B02)  f 14 13  0   -274.6 20460003.2  0.0  2 0  461  723  125
[52]  41(B05)  1 23 22  0   -829.3 20460017.8  0.1  1 0  258  431  594
[54]  44(B08)  1  7  7  0  -1757.6 20460021.2  0.1  1 0  515  797  463
[56]  46(B10)  1  7  7  0  -1545.4 20460023.6  0.1  1 0  294  393  487
$GNGGA,080603.000,2944.9030,N,10633.0885,E,1,07,2.0,342.1,M,,,,0000*1E
$GNRMC,080603.000,A,2944.9030,N,10633.0885,E,0.85,0.00,200419,,*10
$GPGSA,A,3,,,,,,,,,,,,,2.9,2.0,2.0*39
$BDGSA,A,3,01,05,08,10,13,24,25,,,,,,2.9,2.0,2.0*26
$GLGSA,A,3,,,,,,,,,,,,,2.9,2.0,2.0*25
$GPGSV,3,1,10,01,00,000,45,03,00,000,37,07,00,000,45,08,00,000,41*76
$GPGSV,3,2,10,11,00,000,44,13,00,000,38,18,00,000,43,22,00,000,40*7A
$GPGSV,3,3,10,28,00,000,41,30,00,000,46*76
$BDGSV,3,1,12,01,40,125,41,02,00,000,40,03,55,171,36,05,27,244,37*6E
$BDGSV,3,2,12,07,65,090,42,08,78,165,43,10,75,006,42,11,61,015,44*63
$BDGSV,3,3,12,13,53,201,42,18,00,000,43,28,27,243,42,24,13,144,39*67
$B3CN0,0,0,0,0,0,0,0,0,0,0,0,0,0,0*4C
---00000019--- Acq_st=3 0  2019-4-20 8:6:3 
[00]  00(G01)  f 45  7  0   -966.9  2046001.2  0.0  2 0 2784 4313 1754
[01]  02(G03)  f 38  7  0  -3571.2  2046004.6 -0.0  2 0  621  877  366
[02]  06(G07)  f 45  7  0   1175.1  2045998.4 -0.0  2 0 2606 3792 1774
[03]  07(G08)  f 41  7  0   1474.1  2045998.0  0.0  2 0  789 1600 1317
[04]  10(G11)  f 43  7  0    290.5  2045999.6 -0.0  2 0 2218 3857 1417
[05]  12(G13)  f 38 19  0   -993.3  2046001.2  0.3  2 0 1409 1534  985
[06]  17(G18)  f 44  7  0    830.1  2045998.8  0.0  2 0 2604 3339 1839
[08]  21(G22)  f 39  7  0  -2798.7  2046003.6 -0.2  2 0 1800 1901  952
[09]  27(G28)  f 41  7  0  -2925.6  2046003.7  0.1  2 0 1577 1869 1231
[10]  29(G30)  f 46  7  0   -998.3  2046001.2 -0.0  2 0 3245 5207 2280
[11]  16(G17)  7 28  7  0  -2690.9  2046003.4  0.8 10 0  885  753  443
[12]  18(G19)  7  7  7  0  -3926.9  2046005.1  0.1 10 0  241  276  202
[16]  37(B01) 1f 40 10  0  -1088.1  4092002.8 -0.3  2 0  809 1587  917
[17]  38(B02) 1f 40 23  0  -1127.5  4092002.9  0.0  2 0  547 1178  892
[18]  39(B03)  7 10 33  1  -1002.0  4092002.6 -0.1  2 0  320   61  185
[20]  41(B05) 1f 37 18  0  -1140.5  4092002.8  0.7  2 0 1116  888  465
[21]  43(B07) 1f 42 11  0  -1225.1  4092003.1  0.1  2 0 2167 2601 1077
[22]  44(B08) 1f 42  7  0  -1523.4  4092003.9  0.0  2 0 1522 1994 1178
[24]  46(B10) 1f 43 11  0  -1531.7  4092003.9  0.0  2 0 2124 2518 1199
[25]  47(B11) 1f 44  7  0    286.5  4091999.1  0.0  2 0 2156 2948 1324
[26]  49(B13) 1f 42  7  0  -2005.5  4092005.1 -0.0  2 0 1336 1926  744
[27]  54(B18) 1f 44  7  0  -1292.0  4092003.3  0.0  2 0 2259 2994 1314
[28]  64(B28) 1f 42 14  0  -3248.6  4092008.4  0.1  2 0 1546 1778 1044
[29]  60(B24) 1f 40  7  0   2068.2  4091994.4 -0.1  2 0  854 1581  929
[30]  61(B25) 1f 45  7  0    347.8  4091999.0 -0.0  2 0 2456 3149 1184
[32]  77(N-4) 8f 45  7  0  -3526.0  1022002.2 -0.1  2 0  1202 2181 1092
[33]  79(N-2) 8f 44  7  0    248.3  1021999.8  0.0  2 0   821 1802  869
[34]  82(N01)  7 22 33  1   2832.8  1021998.1 -0.1 10 0   278  478  583
[35]  78(N-3)  7 25  7  0   2745.5  1021998.1 -0.0 10 0   378  305  185
[36]  86(N05) 8f 46  7  0    668.1  1021999.5 -0.0  2 0  2542 4258 1821
[48]  37(B01)  1 10 10  0  -1107.2 20460019.3 -0.0  1 0  562  348  166
[49]  38(B02)  f 22 19  1   -218.7 20460003.2  0.2  2 0  221  281  404
[52]  41(B05)  1 24 21  0  -1323.5 20460022.3  0.1  1 0  360  642  376
[54]  44(B08)  1  7  7  0  -1606.7 20460024.3 -0.0  1 0  160  491  170
[56]  46(B10)  1  7  7  0  -1662.9 20460022.4 -0.2  1 0  135  278  642
[58]  49(B13)  1  7  7  0  -1725.8 20460032.0  0.1  1 0  412  259  368
[59]  54(B18)  1  8  7  0   -869.8 20460020.5 -0.2  1 0  752  322   33
[61]  60(B24)  1  7  7  0   1559.9 20459965.8  0.1  1 0  336  388  238
[62]  61(B25)  1  7  7  0    381.8 20459995.9 -0.2  1 0  650  457  348
$GNGGA,080604.000,2944.9037,N,10633.0878,E,1,10,1.4,339.6,M,,,,0000*16
$GNRMC,080604.000,A,2944.9037,N,10633.0878,E,0.24,0.00,200419,,*19
$GPGSA,A,3,,,,,,,,,,,,,2.2,1.4,1.8*3E
$BDGSA,A,3,01,05,07,08,10,11,13,24,25,28,,,2.2,1.4,1.8*2C
$GLGSA,A,3,,,,,,,,,,,,,2.2,1.4,1.8*22
$GPGSV,3,1,11,01,00,000,45,03,00,000,38,07,00,000,45,08,00,000,41*78
$GPGSV,3,2,11,11,00,000,43,13,00,000,38,18,00,000,44,22,00,000,39*75
$GPGSV,3,3,11,28,00,000,41,30,00,000,46,17,00,000,28*4B
$BDGSV,3,1,12,01,40,125,40,02,00,000,39,05,27,244,37,07,65,090,42*6B
$BDGSV,3,2,12,08,78,165,42,10,75,006,43,11,61,015,44,13,53,201,42*69
$BDGSV,3,3,12,18,00,000,44,28,27,243,42,24,13,144,40,25,65,162,45*6F
$B3CN0,0,23,0,0,0,0,0,0,0,0,0,0,0,0*7D
---00000020--- Acq_st=3 0  2019-4-20 8:6:4 
[00]  00(G01)  f 45 13  0   -975.2  2046001.2 -0.0  2 0 2059 4439 2735
[01]  02(G03)  f 37  7  0  -3578.4  2046004.6 -0.1  2 0  942 1829 1035
[02]  06(G07)  f 44  7  0   1166.1  2045998.4  0.0  2 0 2508 3991 1789
[03]  07(G08)  f 41  7  0   1461.0  2045998.0  0.0  2 0 1088 1990  944
[04]  10(G11)  f 44  7  0    277.2  2045999.6  0.0  2 0 2037 2872 1148
[05]  12(G13)  f 38 19  0  -1009.4  2046001.3  0.1  2 0 1030 1754  923
[06]  17(G18)  f 44  7  0    822.4  2045998.9  0.0  2 0 2178 3023  568
[08]  21(G22)  f 39  7  0  -2813.3  2046003.6 -0.1  2 0  939 1583  831
[09]  27(G28)  f 42  7  0  -2938.0  2046003.7 -0.0  2 0 1345 2271  952
[10]  29(G30)  f 46  7  0  -1007.0  2046001.2  0.0  2 0 3058 5626 2761
[11]  16(G17)  7 38  7  0  -2703.6  2046003.4 -0.2  2 0  704 1082  581
[12]  18(G19)  7 11  7  0  -4098.7  2046005.1  0.0 10 0  177  370  399
[16]  37(B01) 1f 41 19  0  -1095.1  4092002.8 -0.7  2 0 1233 1846 1240
[17]  38(B02) 1f 39 24  0  -1139.4  4092003.0  0.1  2 0 1722 1871  585
[18]  39(B03)  7 20 35  1  -1000.8  4092002.8 -0.1  2 0  448  472  481
[19]  59(B23)  1  7  7  0  -2500.0  4092008.5 -0.0  1 0  320  614 2323
[20]  41(B05) 1f 38 24  0  -1142.7  4092002.9  0.5  2 0 1355 1568  563
[21]  43(B07) 1f 42 12  0  -1231.5  4092003.1 -0.0  2 0 1430 2112 1187
[22]  44(B08) 1f 42  9  0  -1535.7  4092003.9  0.0  2 0 1858 2180  596
[24]  46(B10) 1f 43  8  0  -1543.7  4092003.9 -0.0  2 0 1300 1489  667
[25]  47(B11) 1f 43  7  0    278.2  4091999.2 -0.0  2 0 2031 2948 1697
[26]  49(B13) 1f 42  7  0  -2014.7  4092005.2  0.0  2 0 1378 1877  410
[27]  54(B18) 1f 43  7  0  -1301.5  4092003.3 -0.0  2 0 2130 2348  691
[28]  64(B28) 1f 42 14  0  -3258.6  4092008.4 -0.0  2 0 1925 2013  482
[29]  60(B24) 1f 40  7  0   2065.4  4091994.5  0.1  2 0 1464 1468  332
[30]  61(B25) 1f 44  7  0    340.5  4091999.0  0.0  2 0 2321 3361 1574
[32]  77(N-4) 8f 46  7  0  -3535.9  1022002.2 -0.1  2 0  1013 1676  835
[33]  79(N-2) 8f 44  7  0    240.2  1021999.8 -0.1  2 0  1175 1487  762
[34]  82(N01)  7 20 32  1   2829.2  1021998.2  0.1 10 0   160  393  314
[35]  78(N-3)  7 26  7  0   2734.7  1021998.2  0.2 10 0   200  457  272
[36]  86(N05) 8f 47  7  0    658.1  1021999.5 -0.0  2 0  2176 3989 2110
[48]  37(B01)  1 10 10  0  -1067.1 20460024.4  0.0  1 0  467  375  606
[49]  38(B02)  f 16 10  1   -417.0 20460007.3  0.3  2 0  402  311  376
[52]  41(B05)  1 23 19  1   -969.1 20460024.7 -0.1  1 0  534  793  699
[53]  43(B07)  1  7  7  0   -984.5 20460017.1  0.1  1 0  714  664  749
[54]  44(B08)  1  7  7  0  -1772.2 20460022.5 -0.1  1 0  219  276  504
[56]  46(B10)  1  7  7  0  -1850.8 20460023.2 -0.1  1 0  380  605   92
[57]  47(B11)  1  7  7  0    237.9 20459995.5  0.2  1 0  355 1187 1233
[58]  49(B13)  1  7  7  0  -1651.8 20460032.8 -0.1  1 0  626  703   56
[59]  54(B18)  1  7  7  0   -966.1 20460021.3  0.0  1 0  403  712  618
[60]  64(B28)  1  7  7  0  -2434.8 20460052.0  0.0  1 0  816  524  348
[61]  60(B24)  1  7  7  0   1650.9 20459966.1 -0.0  1 0  489  336  569
[62]  61(B25)  1  7  7  0    303.9 20459994.8 -0.1  1 0  372  840  449
$GNGGA,080605.000,2944.9040,N,10633.0875,E,1,10,1.4,338.4,M,,,,0000*19
$GNRMC,080605.000,A,2944.9040,N,10633.0875,E,1.20,0.00,200419,,*10
$GPGSA,A,3,,,,,,,,,,,,,2.2,1.4,1.8*3E
$BDGSA,A,3,01,05,07,08,10,11,13,24,25,28,,,2.2,1.4,1.8*2C
$GLGSA,A,3,,,,,,,,,,,,,2.2,1.4,1.8*22
$GPGSV,3,1,11,01,00,000,45,03,00,000,37,07,00,000,44,08,00,000,41*76
$GPGSV,3,2,11,11,00,000,44,13,00,000,38,18,00,000,44,22,00,000,39*72
$GPGSV,3,3,11,28,00,000,42,30,00,000,46,17,00,000,38*49
$BDGSV,3,1,12,01,40,125,41,02,00,000,39,03,55,171,20,05,27,244,38*68
$BDGSV,3,2,12,07,65,090,42,08,78,165,42,10,75,006,43,11,61,015,43*64
$BDGSV,3,3,12,13,53,201,42,18,00,000,43,28,27,243,42,24,13,144,40*69
$B3CN0,0,18,0,0,0,0,0,0,0,0,0,0,0,0*75
---00000021--- Acq_st=3 0  2019-4-20 8:6:5 
[00]  00(G01)  f 45  9  0   -970.6  2046001.2  0.0  2 0 1800 3965 2094
[01]  02(G03)  f 37  7  0  -3577.2  2046004.5  0.1  2 0  452  911  404
[02]  06(G07)  f 44  7  0   1172.3  2045998.4  0.0  2 0 3114 4302 2131
[03]  07(G08)  f 40  7  0   1470.8  2045998.0 -0.0  2 0  852 1481 1336
[04]  10(G11)  f 43  8  0    286.3  2045999.6  0.0  2 0 1852 2536 1531
[05]  12(G13)  f 39 19  0   -995.2  2046001.3 -0.3  2 0  390 1014  447
[06]  17(G18)  f 44  7  0    827.2  2045998.9 -0.0  2 0 2115 3337 1809
[08]  21(G22)  f 39  7  0  -2801.7  2046003.6  0.1  2 0  766 1453  749
[09]  27(G28)  f 42  7  0  -2929.2  2046003.8 -0.1  2 0 1192 1986  645
[10]  29(G30)  f 46  7  0  -1000.7  2046001.2 -0.0  2 0 2712 5083 2722
[11]  16(G17)  7 37  8  0  -2698.0  2046003.4 -0.1  2 0  661 1205  586
[12]  18(G19)  7  7  7  0  -4232.2  2046005.7  0.1 10 0  397  311  145
[16]  37(B01) 1f 41 16  0  -1091.9  4092002.8 -0.0  2 0 1259 1819  577
[17]  38(B02) 1f 39 14  0  -1141.9  4092002.8 -0.4  2 0 1250 1474  668
[18]  39(B03)  7 23 31  1  -1004.3  4092002.6 -0.1  2 0  459  363  165
[19]  59(B23)  1  7  7  0  -2710.1  4092007.7  0.4  1 0 2874 3834 1701
[20]  41(B05) 1f 37 10  0  -1138.2  4092002.9  0.6  2 0  911 1573  722
[21]  43(B07) 1f 42 13  0  -1229.2  4092003.1  0.0  2 0 2278 2508  906
[22]  44(B08) 1f 42  7  0  -1527.1  4092003.9 -0.0  2 0 1721 2172 1012
[24]  46(B10) 1f 43  7  0  -1535.4  4092003.9 -0.0  2 0 1818 2628 1463
[25]  47(B11) 1f 44  7  0    280.4  4091999.1  0.0  2 0 2254 3116 1419
[26]  49(B13) 1f 42  7  0  -2012.7  4092005.2  0.1  2 0 1996 2203  845
[27]  54(B18) 1f 43  7  0  -1296.0  4092003.3  0.1  2 0 2475 3189 1657
[28]  64(B28) 1f 42 13  0  -3252.9  4092008.4  0.0  2 0 1693 1823  616
[29]  60(B24) 1f 40  7  0   2064.7  4091994.5  0.2  2 0 1603 1486  349
[30]  61(B25) 1f 44  7  0    343.6  4091999.0 -0.0  2 0 2175 3137 1545
[32]  77(N-4) 8f 46  7  0  -3529.6  1022002.2  0.0  2 0  1005 1654  777
[33]  79(N-2) 8f 44  7  0    244.3  1021999.8 -0.1  2 0   821 2030 1113
[34]  82(N01)  7 21 33  1   2830.7  1021998.2  0.1 10 0   321  129  138
[35]  78(N-3)  7 26  7  0   2738.9  1021998.3 -0.0 10 0   197  200  394
[36]  86(N05) 8f 47  7  0    662.4  1021999.5 -0.1  2 0  2038 3661 1773
[48]  37(B01)  7 23 14  0  -1303.0 20460021.5  0.2  2 0  868  634  202
[49]  38(B02)  f 10 18  0   -751.4 20460011.5 -0.0  2 0  605  223  583
[53]  43(B07)  1  7  7  0   -545.0 20460015.2  0.1  1 0  747  334  303
[54]  44(B08)  1  7  7  0  -1860.2 20460023.6 -0.0  1 0  592  323  380
[56]  46(B10)  1  7  7  0  -2638.9 20460023.7  0.1  1 0  551  468  338
[57]  47(B11)  7 23  7  0    220.1 20459996.3 -0.0 10 0  786 1044  295
[58]  49(B13)  1  7  7  0  -1619.9 20460033.7  0.3  1 0  735  433  328
[59]  54(B18)  1  7  7  0   -979.0 20460021.3  0.1  1 0  931  889 1008
[60]  64(B28)  1  9  7  0  -3369.3 20460052.9  0.0  1 0  356   99  640
[61]  60(B24)  1  7  7  0   2170.7 20459966.8  0.2  1 0  373  623  589
[62]  61(B25)  1 14  8  0    177.7 20459995.6  0.1  1 0  207   32  464
$GNGGA,080606.000,2944.9042,N,10633.0873,E,1,10,1.4,337.9,M,,,,0000*1C
$GNRMC,080606.000,A,2944.9042,N,10633.0873,E,0.82,0.00,200419,,*1E
$GPGSA,A,3,,,,,,,,,,,,,2.2,1.4,1.8*3E
$BDGSA,A,3,01,05,07,08,10,11,13,24,25,28,,,2.2,1.4,1.8*2C
$GLGSA,A,3,,,,,,,,,,,,,2.2,1.4,1.8*22
$GPGSV,3,1,11,01,00,000,45,03,00,000,37,07,00,000,44,08,00,000,40*77
$GPGSV,3,2,11,11,00,000,43,13,00,000,39,18,00,000,44,22,00,000,39*74
$GPGSV,3,3,11,28,00,000,42,30,00,000,46,17,00,000,37*46
$BDGSV,3,1,12,01,40,125,41,02,00,000,39,03,55,171,23,05,27,244,37*64
$BDGSV,3,2,12,07,65,090,42,08,78,165,42,10,75,006,43,11,61,015,44*63
$BDGSV,3,3,12,13,53,201,42,18,00,000,43,28,27,243,42,24,13,144,40*69
$B3CN0,23,0,0,0,0,0,0,0,0,0,23,0,0,0*4C
---00000022--- Acq_st=7 0  2019-4-20 8:6:6 
[00]  00(G01)  f 45  7  0   -968.2  2046001.2  0.0  2 0 2743 4433 2110
[01]  02(G03)  f 38  7  0  -3572.5  2046004.6 -0.3  2 0 1389 1958  824
[02]  06(G07)  f 44  7  0   1171.3  2045998.4  0.0  2 0 2577 3982 2228
[03]  07(G08)  f 40  7  0   1466.0  2045998.0 -0.1  2 0  880 1608 1134
[04]  10(G11)  f 43  7  0    283.7  2045999.6 -0.0  2 0 2066 2891 1766
[05]  12(G13)  f 37 18  0   -996.3  2046001.2  0.0  2 0  572  883  690
[06]  17(G18)  f 44  7  0    829.7  2045998.9  0.0  2 0 2475 3676 1884
[08]  21(G22)  f 39  7  0  -2809.0  2046003.6  0.1  2 0  868 1317  444
[09]  27(G28)  f 41  7  0  -2929.3  2046003.7  0.1  2 0 2389 2465  680
[10]  29(G30)  f 45  7  0  -1001.0  2046001.2 -0.0  2 0 2972 4953 2349
[11]  16(G17)  7 37 15  0  -2699.9  2046003.4  0.3  2 0 1187 1336  566
[16]  37(B01) 1f 41 10  0  -1090.6  4092002.8 -0.5  2 0 1116 1168  309
[17]  38(B02) 1f 40 25  0  -1133.5  4092002.8 -0.2  2 0 1214 1635  437
[18]  39(B03)  7 23 32  1  -1008.2  4092002.6 -0.0  2 0  392  343  495
[19]  59(B23)  7 31  7  0  -2708.0  4092007.0  0.2  5 0 3002 3675 1252
[20]  41(B05) 1f 38 25  0  -1143.4  4092003.0 -0.0  2 0  958  987  547
[21]  43(B07) 1f 42 13  0  -1230.4  4092003.1 -0.0  2 0 2083 2339 1021
[22]  44(B08) 1f 42  7  0  -1526.7  4092003.9  0.0  2 0 1840 2166  948
[24]  46(B10) 1f 43  7  0  -1532.3  4092003.9  0.0  2 0 1168 1965 1020
[25]  47(B11) 1f 44  7  0    282.4  4091999.1 -0.0  2 0 2217 2638 1241
[26]  49(B13) 1f 42  7  0  -2011.1  4092005.1  0.0  2 0 1764 1978  814
[27]  54(B18) 1f 43  7  0  -1297.0  4092003.3 -0.0  2 0 2382 3079 1600
[28]  64(B28) 1f 42 15  0  -3253.6  4092008.4  0.0  2 0 2152 2301  820
[29]  60(B24) 1f 40  7  0   2068.0  4091994.4 -0.0  2 0 1327 1483  546
[30]  61(B25) 1f 44  7  0    343.9  4091999.0  0.0  2 0 2545 3506 1544
[32]  77(N-4) 8f 46  7  0  -3527.6  1022002.2  0.1  2 0  1451 2271 1103
[33]  79(N-2) 8f 44  7  0    246.3  1021999.8 -0.0  2 0   909 1455  610
[34]  82(N01)  7 22 33  1   2829.5  1021998.2  0.1 10 0    67   64  125
[35]  78(N-3)  7 27  7  0   2740.0  1021998.2 -0.1 10 0   189  415  167
[36]  86(N05) 8f 47  7  0    665.2  1021999.5  0.0  2 0  2282 3804 1703
[37]  83(N02)  1 26  7  0    433.2  1022000.2  0.1  1 0  2059 2982 1223
[48]  37(B01)  7 10 20  0  -1971.4 20460030.9  0.3  2 0  345  541  187
[52]  41(B05)  1 22 24  0   -923.3 20460019.0 -0.1  1 0  126  381  341
[53]  43(B07)  1  7  7  0   -711.4 20460013.0  0.1  1 0  435  351  551
[57]  47(B11)  7 31 11  0    227.4 20459995.7 -0.0  5 0  697 1314  323
[58]  49(B13)  1  7  7  0  -1735.4 20460031.1 -0.0  1 0  475  236  433
[59]  54(B18)  1  7  7  0   -475.5 20460019.9  0.0  1 0  622  140  478
[60]  64(B28)  1  7  7  0  -3775.2 20460051.6  0.1  1 0  750  375  152
[61]  60(B24)  1  7  7  0   2588.2 20459966.8  0.2  1 0  709  616  726
[62]  61(B25)  1  7  9  0    -73.1 20459995.0 -0.1  1 0  501  507  538
$GNGGA,080607.000,2944.9044,N,10633.0873,E,1,10,1.4,337.1,M,,,,0000*13
$GNRMC,080607.000,A,2944.9044,N,10633.0873,E,0.53,0.00,200419,,*15
$GPGSA,A,3,,,,,,,,,,,,,2.2,1.4,1.8*3E
$BDGSA,A,3,01,05,07,08,10,11,13,24,25,28,,,2.2,1.4,1.8*2C
$GLGSA,A,3,,,,,,,,,,,,,2.2,1.4,1.8*22
$GPGSV,3,1,11,01,00,000,45,03,00,000,38,07,00,000,44,08,00,000,40*78
