SD initialized success
Create debug.log Failed! 3
bbram_blkflag = 1
rtcflag = 0
BBRAM Block OK: 01 EPHflag: 00000000 09c216df, rtc 00
Hot-start nowtime:day = 20,minute = 7,seconds = 22.000000
Start Channel by LuYu
$GNGGA,000000.000,,,,,0,00,,,M,,,,0000*2B
$GNRMC,000000.000,A,,,,,,,060180,,*29
$GPGSA,A,1,,,,,,,,,,,,,,,*1E
$BDGSA,A,1,,,,,,,,,,,,,,,*0F
$GLGSA,A,1,,,,,,,,,,,,,,,*02
$B3CN0,0,0,0,0,0,0,0,0,0,0,0,0,0,0*4C
---00000001--- Acq_st=3 0  2019-4-20 8:7:23 
[00]  00(G01)  1 26  7  0   -912.4  2046001.5  0.3  1 0 2784 3956 1652
[01]  02(G03)  1 23  7  0  -3573.4  2046005.2  0.1  1 0  320 1214 1699
[02]  06(G07)  1 20  7  0   1250.0  2045998.2 -0.0  1 0 2943 4535 2053
[03]  07(G08)  1 17  7  0   1500.0  2045999.4  0.0  1 0 1189 2423  813
[04]  10(G11)  1  7  7  0    250.0  2046002.4 -0.1  1 0  655 2327 2835
$GNGGA,000000.000,,,,,0,00,,,M,,,,0000*2B
$GNRMC,000000.000,A,,,,,,,060180,,*29
$GPGSA,A,1,,,,,,,,,,,,,,,*1E
$BDGSA,A,1,,,,,,,,,,,,,,,*0F
$GLGSA,A,1,,,,,,,,,,,,,,,*02
$B3CN0,0,0,0,0,0,0,0,0,0,0,0,0,0,0*4C
---00000002--- Acq_st=4 0  2019-4-20 8:7:24 
[00]  00(G01)  7 26  7  0   -912.4  2046001.1  0.7 10 0 3439 4333 1299
[01]  02(G03)  7 20  7  0  -3570.2  2046004.6  0.4 10 0  872 1532 1083
[02]  06(G07)  1 30  7  0   1212.2  2045998.3  0.4  1 0 2469 4369 2208
[03]  07(G08)  1 31  7  0   1464.3  2045997.5  0.8  1 0 1275 1858  651
[04]  10(G11)  1 31  7  0    322.6  2045999.4  0.6  1 0 2650 3371 1175
[05]  17(G18)  1 16  7  0    876.1  2045998.6  0.0  1 0 1896 2324  798
[06]  21(G22)  1  7  7  0  -2750.0  2046003.3  0.0  1 0   60  211  211
$GNGGA,000000.000,,,,,0,00,,,M,,,,0000*2B
$GNRMC,000000.000,A,,,,,,,060180,,*29
$GPGSA,A,1,,,,,,,,,,,,,,,*1E
$BDGSA,A,1,,,,,,,,,,,,,,,*0F
$GLGSA,A,1,,,,,,,,,,,,,,,*02
$GPGSV,1,1,02,01,00,000,26,03,00,000,19*75
$B3CN0,0,0,0,0,0,0,0,0,0,0,0,0,0,0*4C
---00000003--- Acq_st=3 0  2019-4-20 8:7:25 
[00]  00(G01)  7 46  7  0   -903.8  2046001.1 -0.0  2 0 2964 4642 2234
[01]  02(G03)  7 38  7  0  -3559.4  2046004.5 -0.1  2 0  550  923  731
[02]  06(G07)  7 37  7  0   1224.8  2045998.4  0.1  2 0 2531 4567 2792
[03]  07(G08)  7 33  7  0   1474.9  2045998.0 -0.0  5 0  380 1181  778
[04]  10(G11)  7 30  7  0    334.7  2045999.5  0.4  5 0 2067 3503 1909
[05]  17(G18)  7  7  7  0    885.7  2045998.9  1.0 10 0 1645 2866 1591
[06]  21(G22)  1  7  7  0  -2531.7  2046003.7 -0.1  1 0  410  191  460
[08]  27(G28)  1 24 11  0  -2923.9  2046004.3  0.3  1 0 1157 2299 1194
[09]  29(G30)  1 22  7  0   -940.8  2046003.6  0.2  1 0 2536 5155 3483
[16]  37(B01)  1 14 10  1  -1250.0  4092003.5 -0.2  1 0  583  263 1494
[17]  38(B02)  1 10 18  1  -1250.0  4092003.4 -0.0  1 0  244  909 1209
[18]  39(B03)  1 10 33  1  -1000.0  4092003.2  0.1  1 0  199  759 1605
$GNGGA,080726.147,,,,,0,00,,,M,,,,0000*22
$GNRMC,080726.147,A,,,,,,,120180,,*25
$GPGSA,A,1,,,,,,,,,,,,,,,*1E
$BDGSA,A,1,,,,,,,,,,,,,,,*0F
$GLGSA,A,1,,,,,,,,,,,,,,,*02
$GPGSV,2,1,05,01,00,000,46,03,00,000,38,07,00,000,37,08,00,000,33*7F
$GPGSV,2,2,05,11,00,000,30*4F
$B3CN0,0,0,0,0,0,0,0,0,0,0,0,0,0,0*4C
---00000004--- Acq_st=3 0  2019-4-20 8:7:26 
[00]  00(G01)  f 45  9  0   -906.6  2046001.1 -0.0  2 0 2492 4168 1800
[01]  02(G03)  f 38  7  0  -3567.7  2046004.6  0.1  2 0 1222 1495  500
[02]  06(G07)  7 44  9  0   1220.3  2045998.4  0.0  2 0 3222 4991 2270
[03]  07(G08)  7 40  7  0   1469.0  2045998.0  0.1  2 0 1127 1514  952
[04]  10(G11)  7 44  7  0    330.7  2045999.5 -0.0  2 0 2274 3927 2760
[05]  17(G18)  7 44  7  0    883.1  2045998.8 -0.0  2 0 1617 3073 1708
[06]  21(G22)  1  7  7  0  -2430.2  2046005.2  0.0  1 0  405  285 1205
[08]  27(G28)  7 24  7  0  -2925.3  2046003.7  0.8 10 0 1071 1601  766
[09]  29(G30)  7 20  7  0   -944.6  2046001.0  0.8 10 0 4149 4876 2148
[16]  37(B01)  1 10 10  0  -1090.6  4092003.3  0.4  1 0 1381 1331  476
[17]  38(B02)  1 10 22  0  -1133.9  4092002.8  0.5  1 0 1264 1182  598
[18]  39(B03)  1 10 31  1  -1055.1  4092003.2  0.2  1 0  331  792 2398
[19]  40(B04)  1 10 10  1  -1192.1  4092002.8  0.0  1 0  231  554 1107
[20]  41(B05)  1 36 21  0  -1140.6  4092003.6  0.4  1 0  940 1507  563
[21]  43(B07)  1  7  7  0  -1220.6  4092004.9 -0.1  1 0  828 1976 1165
[22]  44(B08)  1  7  7  0  -1505.8  4092005.6 -0.0  1 0  847 2013 1568
[24]  46(B10)  1  7  7  0  -1500.0  4092005.4  0.1  1 0  352  833 1843
[25]  47(B11)  1  7  7  0    250.0  4092001.3  0.1  1 0 1095 2564 2296
$GNGGA,080727.147,,,,,0,00,,,M,,,,0000*23
$GNRMC,080727.147,A,,,,,,,120180,,*24
$GPGSA,A,1,,,,,,,,,,,,,,,*1E
$BDGSA,A,1,,,,,,,,,,,,,,,*0F
$GLGSA,A,1,,,,,,,,,,,,,,,*02
$GPGSV,2,1,08,01,00,000,45,03,00,000,38,07,00,000,44,08,00,000,40*71
$GPGSV,2,2,08,11,00,000,44,18,00,000,44,28,00,000,24,30,00,000,18*7E
$B3CN0,0,0,0,0,0,0,0,0,0,0,0,0,0,0*4C
---00000005--- Acq_st=3 0  2019-4-20 8:7:27 
[00]  00(G01)  f 45  7  0   -901.1  2046001.1 -0.0  2 0 3420 4415 1392
[01]  02(G03)  f 38  7  0  -3557.2  2046004.6 -0.1  2 0 1017 1686  958
[02]  06(G07)  7 45  7  0   1228.2  2045998.4 -0.0  2 0 2706 3967 1980
[03]  07(G08)  7 40  7  0   1473.1  2045998.0  0.0  2 0 1044 1476  641
[04]  10(G11)  7 44  8  0    333.9  2045999.5  0.0  2 0 2170 3644 2250
[05]  17(G18)  7 43  7  0    886.8  2045998.8  0.0  2 0 1865 2857 1119
[06]  21(G22)  1  7  7  0  -2266.9  2046004.5  0.0  1 0  445  578  147
[08]  27(G28)  7 43  7  0  -2922.7  2046003.7 -0.0  2 0 1494 2288  919
[09]  29(G30)  7 47  7  0   -936.3  2046001.1  0.0  2 0 4258 5008 1169
[16]  37(B01)  7 39 13  0  -1078.8  4092002.6  0.1  2 0 1052 1114  860
[17]  38(B02)  7 39 21  0  -1126.3  4092002.7  0.3  2 0 1386 1278  498
[18]  39(B03)  7 33 33  1  -1014.9  4092002.6  0.0  2 0  228  978 2337
[19]  40(B04)  7 35 19  0  -1103.3  4092003.2  0.3  2 0  106  589 1064
[20]  41(B05)  7 35 10  0  -1124.6  4092002.8 -0.4  2 0 1448  692  117
[21]  43(B07)  1  7 11  0  -1216.5  4092002.9  0.3  1 0 1255 2063  877
[22]  44(B08)  1  7  7  0  -1506.3  4092003.7 -0.0  1 0 1934 2522 1011
[24]  46(B10)  1  7  7  0  -1523.7  4092004.6  0.4  1 0 1663 2870 1151
[25]  47(B11)  1  7  8  0    308.6  4091999.0  0.3  1 0 2325 2644 1070
[26]  49(B13)  1  7  7  0  -1987.8  4092006.4  0.1  1 0 1388 1730  861
[27]  54(B18)  1  7  7  0  -1250.0  4092004.5  0.0  1 0  454  631  636
$GNGGA,080728.147,,,,,0,00,,,M,,,,0000*2C
$GNRMC,080728.147,A,,,,,,,120180,,*2B
$GPGSA,A,1,,,,,,,,,,,,,,,*1E
$BDGSA,A,1,,,,,,,,,,,,,,,*0F
$GLGSA,A,1,,,,,,,,,,,,,,,*02
$GPGSV,2,1,08,01,00,000,45,03,00,000,38,07,00,000,45,08,00,000,40*70
$GPGSV,2,2,08,11,00,000,44,18,00,000,43,28,00,000,43,30,00,000,47*72
$BDGSV,2,1,05,01,00,000,39,02,00,000,38,03,00,000,33,04,00,000,35*6D
$BDGSV,2,2,05,05,00,000,33*58
$B3CN0,0,0,0,0,0,0,0,0,0,0,0,0,0,0*4C
---00000006--- Acq_st=3 0  2019-4-20 8:7:28 
[00]  00(G01)  f 45  7  0   -884.1  2046001.1 -0.0  2 0 2901 4774 2324
[01]  02(G03)  f 38 10  0  -3549.6  2046004.5 -0.1  2 0  674 1012  717
[02]  06(G07)  7 45  7  0   1242.9  2045998.3  0.0  2 0 3273 4074 2082
[03]  07(G08)  7 40  7  0   1488.9  2045998.0  0.1  2 0  940 1979  961
[04]  10(G11)  7 44  7  0    353.1  2045999.5  0.0  2 0 2193 3792 2010
[05]  17(G18)  7 43  7  0    902.3  2045998.8 -0.0  2 0 1429 2940 1594
[06]  21(G22)  1  7  7  0  -2279.4  2046003.4  0.0  1 0  857 1098  825
[08]  27(G28)  7 43  7  0  -2902.9  2046003.7 -0.0  2 0 2005 2741 1119
[09]  29(G30)  7 46  7  0   -922.5  2046001.1 -0.0  2 0 3709 5329 2346
[16]  37(B01)  f 41 20  0  -1069.7  4092002.6 -0.4  2 0 1060 1253  582
[17]  38(B02)  f 38 28  0  -1109.6  4092002.7  0.7  2 0  903 1120  482
[18]  39(B03)  7 35 32  1   -995.8  4092002.7 -0.0  2 0  375  646 1570
[19]  40(B04)  f 39 22  0  -1078.9  4092003.1 -0.2  2 0  165  575  587
[20]  41(B05)  7 34 26  0  -1123.5  4092002.6 -0.2  2 0 1233  779  240
[21]  43(B07)  7 42  8  0  -1198.7  4092003.0  0.0  2 0 1727 2249 1257
[22]  44(B08)  7 37  7  0  -1488.2  4092003.8  0.1  2 0 1868 2410  761
[24]  46(B10)  7 31  7  0  -1507.6  4092003.8  0.1  5 0 1522 2258  909
[25]  47(B11)  7 30  7  0    325.3  4091999.0  0.4  5 0 2402 3316 1795
[26]  49(B13)  7 25  7  0  -1973.4  4092005.0  0.4 10 0 1496 2139 1129
[27]  54(B18)  1  7 12  0   -765.8  4092005.0  0.5  1 0 1407 2034 1138
[28]  59(B23)  1  7  7  0  -2750.0  4092009.5 -0.0  1 0 1444 2861 2110
[29]  60(B24)  1  7  7  0   2000.0  4091994.5  0.1  1 0  856 1403  899
[30]  61(B25)  1  7  7  0    500.0  4092001.9  0.1  1 0  240 1830 4070
$GNGGA,080729.147,,,,,0,00,,,M,,,,0000*2D
$GNRMC,080729.147,A,,,,,,,120180,,*2A
$GPGSA,A,1,,,,,,,,,,,,,,,*1E
$BDGSA,A,1,,,,,,,,,,,,,,,*0F
$GLGSA,A,1,,,,,,,,,,,,,,,*02
$GPGSV,2,1,08,01,00,000,45,03,00,000,38,07,00,000,45,08,00,000,40*70
$GPGSV,2,2,08,11,00,000,44,18,00,000,43,28,00,000,43,30,00,000,46*73
$BDGSV,3,1,10,01,00,000,40,02,00,000,38,03,00,000,35,04,00,000,38*6D
$BDGSV,3,2,10,05,00,000,35,07,00,000,40,08,00,000,36,10,00,000,31*66
$BDGSV,3,3,10,11,00,000,30,13,00,000,25*6F
$B3CN0,0,0,0,0,0,0,0,0,0,0,0,0,0,0*4C
---00000007--- Acq_st=3 0  2019-4-20 8:7:29 
[00]  00(G01)  f 44  7  0   -901.3  2046001.1 -0.0  2 0 2715 4362 2021
[01]  02(G03)  f 38  7  0  -3567.7  2046004.5 -0.2  2 0  601 1069  615
[02]  06(G07)  7 44  7  0   1225.4  2045998.3 -0.0  2 0 2548 4280 2086
[03]  07(G08)  7 40  7  0   1476.6  2045998.0 -0.1  2 0 1276 1673  560
[04]  10(G11)  7 43 11  0    337.2  2045999.5  0.0  2 0 1956 3433 2188
[05]  17(G18)  7 43  7  0    886.9  2045998.8  0.0  2 0 1535 3099 1992
[08]  27(G28)  7 42  7  0  -2918.8  2046003.7  0.0  2 0 1858 2414 1533
[09]  29(G30)  7 45  7  0   -937.2  2046001.1 -0.0  2 0 3810 5226 2335
[16]  37(B01)  f 41 18  0  -1080.9  4092002.6  0.3  2 0 1563 1425  321
[17]  38(B02)  f 37 18  0  -1127.5  4092002.9 -0.0  2 0 1316 1410  877
[18]  39(B03)  7 31 33  1  -1002.8  4092002.7 -0.1  2 0  688  559 1619
[19]  40(B04)  f 40 23  0  -1094.7  4092002.9 -0.0  2 0 1272 1527 1033
[20]  41(B05)  f 36 16  0  -1132.5  4092002.7 -0.2  2 0 1212 1272 1113
[21]  43(B07)  7 43  7  0  -1217.1  4092003.1 -0.0  2 0 1188 2254 1083
[22]  44(B08)  7 42  7  0  -1508.0  4092003.8  0.0  2 0 1684 2619 1463
[24]  46(B10)  7 42  7  0  -1521.7  4092003.8  0.0  2 0 2067 2586 1310
[25]  47(B11)  7 44  9  0    309.7  4091999.1  0.0  2 0 2252 2647 1211
[26]  49(B13)  7 42  7  0  -1989.2  4092005.1  0.0  2 0 1552 2033  977
[27]  54(B18)  1 11  9  0   -781.0  4092002.9  0.9  1 0 1599 1592  593
[28]  59(B23)  1  7  7  0  -2667.4  4092006.6  0.2  1 0 2357 2903 1277
[29]  60(B24)  1  7  8  0   2088.9  4091994.3  0.1  1 0  777 1601 1364
[30]  61(B25)  1  7  7  0    387.7  4091998.8  0.2  1 0 2344 3263 1441
[48]  37(B01)  1 24 14  1   -942.7 20460020.7 -0.0  1 0  107   86  162
[49]  38(B02)  1 22 13  1   -688.7 20460013.5  0.0  1 0  342  306  478
[51]  40(B04)  1 26 19  0  -1077.9 20460020.0  0.2  1 0  178  104  538
$GNGGA,080730.147,,,,,0,00,,,M,,,,0000*25
$GNRMC,080730.147,A,,,,,,,120180,,*22
$GPGSA,A,1,,,,,,,,,,,,,,,*1E
$BDGSA,A,1,,,,,,,,,,,,,,,*0F
$GLGSA,A,1,,,,,,,,,,,,,,,*02
$GPGSV,2,1,08,01,00,000,44,03,00,000,39,07,00,000,44,08,00,000,40*71
$GPGSV,2,2,08,11,00,000,43,18,00,000,43,28,00,000,42,30,00,000,45*76
$BDGSV,3,1,10,01,00,000,41,02,00,000,37,03,00,000,31,04,00,000,41*69
$BDGSV,3,2,10,05,00,000,36,07,00,000,43,08,00,000,42,10,00,000,42*61
$BDGSV,3,3,10,11,00,000,44,13,00,000,42*6D
$B3CN0,0,0,0,0,0,0,0,0,0,0,0,0,0,0*4C
---00000008--- Acq_st=3 0  2019-4-20 8:7:30 
[00]  00(G01)  f 44  7  0   -900.9  2046001.1  0.0  2 0 3103 4539 2582
[01]  02(G03)  f 39  7  0  -3559.7  2046004.6 -0.0  2 0  500 1718  924
[02]  06(G07)  7 44  7  0   1229.3  2045998.4 -0.0  2 0 3092 4560 1961
[03]  07(G08)  7 40  7  0   1477.3  2045998.0 -0.0  2 0 1842 1950  980
[04]  10(G11)  7 43 11  0    338.9  2045999.5  0.1  2 0 2694 3938 1736
[05]  17(G18)  7 43  7  0    887.5  2045998.8 -0.1  2 0 1641 2904 1722
[08]  27(G28)  7 42  7  0  -2919.2  2046003.7  0.0  2 0 1121 2201 1183
[09]  29(G30)  7 45  7  0   -935.1  2046001.1  0.0  2 0 3187 4908 2650
[16]  37(B01) 1f 40 22  0  -1081.4  4092002.7 -0.5  2 0  695  957  363
[17]  38(B02) 1f 40 24  0  -1126.5  4092002.8 -0.3  2 0 1526 1160  354
[18]  39(B03)  7 29 31  1  -1003.2  4092002.6 -0.1  2 0  395  918 2051
[19]  40(B04) 1f 41 13  0  -1097.4  4092002.8  0.3  2 0  943 1680 1099
[20]  41(B05) 1f 36 25  0  -1130.3  4092002.8  0.6  2 0  666  925  471
[21]  43(B07)  7 42  7  0  -1211.2  4092003.1  0.0  2 0 1737 1909  788
[22]  44(B08)  7 43  7  0  -1503.9  4092003.8 -0.1  2 0 1184 2091 1305
[24]  46(B10)  7 43  7  0  -1519.8  4092003.9  0.0  2 0 1456 2803 1786
[25]  47(B11)  7 44  7  0    311.7  4091999.1 -0.0  2 0 2781 3395 1341
[26]  49(B13)  7 42  8  0  -1983.1  4092005.1 -0.1  2 0 1616 2566 1099
[27]  54(B18)  1 12  9  0   -779.7  4092002.8  0.9  1 0 1432 2300 1184
[28]  59(B23)  7 37  7  0  -2660.5  4092006.9 -0.0  2 0 2632 3480 1404
[29]  60(B24)  7 32  7  0   2086.2  4091994.6  0.0  5 0  764 1074  637
[30]  61(B25)  7 31  7  0    392.0  4091998.8  0.2  5 0 2878 3862 1404
[32]  77(N-4)  1 25  7  0  -3473.5  1022003.2  0.1  1 0  1192 2259 1037
[33]  78(N-3)  1 16 21  0   2581.8  1022000.3  0.1  1 0   246  473  569
[34]  79(N-2)  1 26 10  0    291.4  1022001.1  0.1  1 0  1034 1798  907
[35]  81(N00)  1 11  7  0  -5250.0  1022004.7 -0.1  1 0   159  510 1001
[36]  82(N01)  1 13  7  0   2750.0  1021999.7 -0.1  1 0   131  388  629
[37]  83(N02)  1  7  7  0    499.9  1022002.7 -0.2  1 0   182  871 2880
[48]  37(B01)  7 14 36  1  -1086.5 20460017.4  0.1  2 0  310  244  218
[49]  38(B02)  1 36 10  0   -319.2 20460016.0  0.0  1 0  429  162  456
[51]  40(B04)  1 23 22  0   -866.2 20460018.3  0.3  1 0  862  451  260
[52]  41(B05)  1 23 25  0   -961.7 20460016.0 -0.0  1 0  518  565  524
---00000009--- Acq_st=7 0  2019-4-20 8:7:31 
[00]  00(G01)  f 45  7  0   -886.6  2046001.1  0.0  2 0 2746 4451 2325
[01]  02(G03)  f 38  7  0  -3547.6  2046004.6  0.2  2 0 1021 1378 1022
[02]  06(G07)  7 44  7  0   1237.0  2045998.3  0.0  2 0 2946 4409 2286
[03]  07(G08)  7 41  7  0   1486.2  2045998.0  0.0  2 0 1385 2289  819
[04]  10(G11)  7 44 10  0    351.8  2045999.5 -0.0  2 0 2512 3962 1746
[05]  17(G18)  7 43  7  0    902.4  2045998.8  0.0  2 0 1595 2772 1483
[08]  27(G28)  7 42  7  0  -2908.0  2046003.7 -0.1  2 0 1336 2367 1272
[09]  29(G30)  7 46  7  0   -924.4  2046001.1  0.0  2 0 3167 4709 2339
[16]  37(B01) 1f 40 23  0  -1067.4  4092002.6  0.3  2 0 1166 1370  437
[17]  38(B02) 1f 39 23  0  -1109.5  4092002.7 -0.5  2 0  861  808  277
[18]  39(B03)  7 28 34  1  -1002.6  4092002.7  0.1  2 0  118  683 1607
[19]  40(B04) 1f 41 20  0  -1082.2  4092002.8 -0.2  2 0 1059 1455  417
[20]  41(B05) 1f 37 25  0  -1122.9  4092002.8 -0.1  2 0 1389 1054  294
[21]  43(B07)  7 42  7  0  -1204.0  4092003.0  0.0  2 0 1511 1862  724
[22]  44(B08)  7 43  7  0  -1490.0  4092003.8  0.0  2 0 1859 2180  864
[24]  46(B10)  7 43  7  0  -1512.0  4092003.8  0.1  2 0 1974 2236  616
[25]  47(B11)  7 44  7  0    323.6  4091999.0  0.0  2 0 2102 2716  875
[26]  49(B13)  7 42  7  0  -1977.6  4092005.0 -0.0  2 0 1650 1703  394
[27]  54(B18)  1 11  7  0   -771.6  4092003.3  0.9  1 0 1081 1793  909
[28]  59(B23)  7 44  7  0  -2649.8  4092006.8  0.0  2 0 2564 2934 1347
[29]  60(B24)  7 39  8  0   2099.0  4091994.5  0.3  2 0  889 1349  435
[30]  61(B25)  7 45  8  0    405.8  4091998.8  0.1  2 0 3134 4234 2065
[32]  77(N-4)  1 21  7  0  -3461.4  1022001.7  0.2  1 0  1219 1863  898
[33]  78(N-3)  1 26  9  0   2829.0  1021999.3  0.0  1 0   446  561  133
[34]  79(N-2)  1 22 25  0    316.2  1021999.5  0.1  1 0   796 1386  773
[35]  81(N00)  1 31  7  0  -5155.2  1022004.1  0.9  1 0   195  530  473
[36]  82(N01)  1 28 30  0   2810.6  1021999.8  0.5  1 0   560  348  139
[37]  83(N02)  1 21 14  0    515.2  1021999.7  1.0  1 0  2335 2537  679
[38]  86(N05)  1 26  7  0    727.3  1022000.1  0.6  1 0  2538 3088 1347
[48]  37(B01)  7 23 10  1  -1111.2 20460018.8  0.0  2 0  388  321  173
[49]  38(B02)  1 10 18  0     68.5 20460018.0  0.2  1 0  249  398  571
[51]  40(B04)  1 25 22  1   -990.2 20460026.7 -0.1  1 0  282  536  567
[52]  41(B05)  1 22 22  0  -1461.6 20460019.3 -0.1  1 0  256  424  931
$GNGGA,080732.000,,,,,0,00,,,M,,,,0000*25
$GNRMC,080732.000,A,,,,,,,120180,,*22
$GPGSA,A,1,,,,,,,,,,,,,,,*1E
$BDGSA,A,1,,,,,,,,,,,,,,,*0F
$GLGSA,A,1,,,,,,,,,,,,,,,*02
$GPGSV,2,1,08,01,00,000,45,03,00,000,38,07,00,000,44,08,00,000,41*70
$GPGSV,2,2,08,11,00,000,44,18,00,000,43,28,00,000,42,30,00,000,46*72
$BDGSV,3,1,12,01,00,000,40,02,00,000,39,03,00,000,28,04,00,000,41*6C
$BDGSV,3,2,12,05,00,000,37,07,00,000,42,08,00,000,43,10,00,000,43*63
$BDGSV,3,3,12,11,00,000,44,13,00,000,42,23,00,000,44,24,00,000,39*62
$B3CN0,23,0,0,0,0,0,0,0,0,0,0,0,0,0*7D
---00000010--- Acq_st=7 0  2019-4-20 8:7:32 
[00]  00(G01)  f 45  7  0   -898.8  2046001.1 -0.1  2 0 2631 4326 2097
[01]  02(G03)  f 38  7  0  -3561.5  2046004.6  0.1  2 0  893  935  276
[02]  06(G07)  f 44  7  0   1226.7  2045998.3  0.0  2 0 3386 4895 2722
[03]  07(G08)  f 40  7  0   1474.8  2045998.0 -0.0  2 0 1431 1838  566
[04]  10(G11)  f 44 11  0    340.3  2045999.5  0.0  2 0 2240 3603 1906
[05]  17(G18)  f 43  7  0    892.0  2045998.8  0.0  2 0 1631 3117 1806
[08]  27(G28)  f 42  7  0  -2916.8  2046003.8  0.0  2 0 1826 2175  460
[09]  29(G30)  f 45  7  0   -934.6  2046001.1 -0.0  2 0 3661 5340 2583
[16]  37(B01) 1f 41 14  0  -1078.3  4092002.6  0.1  2 0 1940 2138 1119
[17]  38(B02) 1f 39 23  0  -1121.0  4092002.7  0.5  2 0  645 1142  257
[18]  39(B03)  7 26 32  1  -1001.6  4092002.6 -0.1  2 0  595  750 1613
[19]  40(B04) 1f 41 24  0  -1092.7  4092002.7  0.5  2 0  817 1326  454
[20]  41(B05) 1f 37 17  0  -1138.0  4092002.8  0.6  2 0  785  949  176
[21]  43(B07)  7 42  7  0  -1212.2  4092003.1 -0.1  2 0 1417 1990  652
[22]  44(B08)  7 43  7  0  -1505.5  4092003.8  0.0  2 0 1608 2335  891
[24]  46(B10)  7 43  7  0  -1523.6  4092003.9  0.0  2 0 2103 2730 1444
[25]  47(B11)  7 43  7  0    314.0  4091999.1  0.0  2 0 2503 3099 1202
[26]  49(B13)  7 42  7  0  -1987.4  4092005.1  0.1  2 0 1840 2389 1078
[28]  59(B23)  7 44  7  0  -2657.2  4092006.8 -0.0  2 0 2509 3180 1402
[29]  60(B24)  7 39  7  0   2086.7  4091994.5 -0.1  2 0  978 1095  164
[30]  61(B25)  7 45  9  0    395.8  4091998.8  0.0  2 0 2830 3501 1464
[32]  77(N-4)  7 20  7  0  -3468.9  1022002.2  0.3 10 0  1199 1959  831
[33]  78(N-3)  7 24  9  0   2757.4  1021998.2  0.3 10 0   247  320  373
[34]  79(N-2)  1 26 27  0    305.5  1021999.6  0.4  1 0   676 1681  805
[35]  81(N00)  7 35  7  0  -5170.7  1022003.2 -0.0  2 0   471  487  272
[36]  82(N01)  1 26 29  0   2787.8  1021998.5 -0.0  1 0   308  463  175
[37]  83(N02)  1 21 12  0    504.6  1021999.4  1.0  1 0  1745 2927 1490
[38]  86(N05)  7 29  7  0    722.7  1021999.4  0.5  5 0  2457 3581 1836
[48]  37(B01)  7 20 16  0  -1676.8 20460025.4 -0.0  2 0  443  150  351
[49]  38(B02)  7 10 36  1   -199.2 20460003.0  0.1  2 0  359  231  377
[51]  40(B04)  1 10 24  1  -1097.3 20460023.0  0.1  1 0  427  825  559
[52]  41(B05)  1 25 23  1  -1514.6 20460016.6 -0.1  1 0  316  455  674
$GNGGA,080733.000,,,,,0,00,,,M,,,,0000*24
$GNRMC,080733.000,A,,,,,,,120180,,*23
$GPGSA,A,1,,,,,,,,,,,,,,,*1E
$BDGSA,A,1,,,,,,,,,,,,,,,*0F
$GLGSA,A,1,,,,,,,,,,,,,,,*02
$GPGSV,2,1,08,01,00,000,45,03,00,000,38,07,00,000,44,08,00,000,40*71
$GPGSV,2,2,08,11,00,000,44,18,00,000,43,28,00,000,42,30,00,000,45*71
$BDGSV,3,1,12,01,40,125,41,02,46,219,39,03,55,171,26,04,23,109,41*67
$BDGSV,3,2,12,05,27,244,37,07,65,091,42,08,78,166,43,10,75,006,43*65
$BDGSV,3,3,12,11,61,016,43,13,53,202,42,23,56,310,44,24,12,145,39*61
$B3CN0,19,0,0,0,0,0,0,0,0,0,0,0,0,0*74
---00000011--- Acq_st=3 0  2019-4-20 8:7:33 
[00]  00(G01)  f 45  7  0   -902.4  2046001.1  0.0  2 0 2703 4099 1504
[01]  02(G03)  f 37  7  0  -3558.3  2046004.6  0.2  2 0  782 1237 1039
[02]  06(G07)  f 45  7  0   1223.2  2045998.4  0.0  2 0 2786 4038 1918
[03]  07(G08)  f 40  7  0   1470.0  2045998.0  0.1  2 0 1136 1511  482
[04]  10(G11)  f 43  7  0    332.9  2045999.5  0.0  2 0 2457 3171  938
[05]  17(G18)  f 43  7  0    886.9  2045998.8  0.0  2 0 1919 2812 1245
[08]  27(G28)  f 42  7  0  -2925.9  2046003.8  0.1  2 0 1965 2292 1096
[09]  29(G30)  f 45  7  0   -937.3  2046001.1 -0.0  2 0 3667 5248 2330
[16]  37(B01) 1f 40 36  0  -1085.2  4092002.8 -0.3  2 0 1263 1679  986
[17]  38(B02) 1f 41 27  0  -1126.0  4092002.8 -0.8  2 0 1463 1747  814
[18]  39(B03)  7 16 34  1   -999.6  4092002.7 -0.1  2 0  155  607 1495
[19]  40(B04) 1f 40 20  0  -1097.6  4092002.8  0.3  2 0  975 1765 1055
[20]  41(B05) 1f 37 22  0  -1137.4  4092002.8  0.9  2 0  796  802  395
[21]  43(B07)  7 42 11  0  -1217.1  4092003.1  0.0  2 0 2291 2625  715
[22]  44(B08)  7 43  7  0  -1508.3  4092003.8  0.0  2 0 1522 2384 1277
[24]  46(B10)  7 43  7  0  -1525.3  4092003.9 -0.0  2 0 1656 2087  997
[25]  47(B11)  7 43  7  0    307.9  4091999.1 -0.0  2 0 2220 2712 1078
[26]  49(B13)  7 42  7  0  -1990.0  4092005.1 -0.0  2 0 1988 2653 1165
[28]  59(B23)  7 44 11  0  -2663.2  4092006.9 -0.0  2 0 2931 3296 1409
[29]  60(B24)  7 39  8  0   2083.3  4091994.4 -0.2  2 0  793 1021  446
[30]  61(B25)  7 44  9  0    392.6  4091998.9 -0.0  2 0 2945 3756 1578
[32]  77(N-4)  7 46  7  0  -3472.7  1022002.2 -0.1  2 0  1241 2086  775
[33]  78(N-3)  7 25  7  0   2750.0  1021998.1  0.1 10 0   156  388  103
[34]  79(N-2)  7 45 27  0    303.8  1021999.8  0.1  2 0  1028 1548  995
[35]  81(N00)  7 36  8  0  -5176.8  1022003.2 -0.1  2 0   428  344  176
[36]  82(N01)  7 30 27  0   2790.5  1021998.0 -0.0  5 0   463  371  213
[37]  83(N02)  1 20 14  0    501.4  1021999.6  1.0  1 0  2255 3747 1531
[38]  86(N05)  7 48  7  0    716.7  1021999.5 -0.0  2 0  2063 3090 1255
[48]  37(B01)  7 14 10  0  -1915.6 20460031.9  0.0  2 0  170  201  377
[49]  38(B02)  7 10 10  1   -763.3 20460010.4  0.1  2 0  531  517  153
[52]  41(B05)  1 17 25  1   -551.8 20460024.3 -0.0  1 0  408  471  343
$GNGGA,080734.000,2944.9066,N,10633.0858,E,1,12,1.1,325.8,M,,,,0000*16
$GNRMC,080734.000,A,2944.9066,N,10633.0858,E,0.54,0.00,120180,,*1E
$GPGSA,A,3,,,,,,,,,,,,,1.9,1.1,1.6*3D
$BDGSA,A,3,01,02,04,05,07,08,10,11,13,23,24,25,1.9,1.1,1.6*22
$GLGSA,A,3,,,,,,,,,,,,,1.9,1.1,1.6*21
$GPGSV,2,1,08,01,00,000,45,03,00,000,37,07,00,000,45,08,00,000,40*7F
$GPGSV,2,2,08,11,00,000,43,18,00,000,43,28,00,000,42,30,00,000,45*76
$BDGSV,3,1,12,01,40,125,40,02,46,219,40,03,55,171,18,04,23,109,40*64
$BDGSV,3,2,12,05,27,244,37,07,65,091,42,08,78,166,42,10,75,006,43*64
$BDGSV,3,3,12,11,61,016,43,13,53,202,42,23,56,310,44,24,12,145,39*61
$B3CN0,36,0,0,0,0,0,0,0,0,0,0,0,0,0*79
---00000012--- Acq_st=2 0  2000-1-12 8:7:34 
[00]  00(G01)  f 45  7  0   -891.7  2046001.1  0.1  2 0 2456 4147 1848
[01]  02(G03)  f 37  7  0  -3557.7  2046004.6  0.3  2 0  702 1093 1091
[02]  06(G07)  f 45  7  0   1234.3  2045998.3 -0.0  2 0 3047 4036 2082
[03]  07(G08)  f 41  7  0   1480.4  2045998.0 -0.1  2 0 1147 1924  941
[04]  10(G11)  f 44 12  0    340.4  2045999.5 -0.0  2 0 2602 3508 1678
[05]  17(G18)  f 44  7  0    897.2  2045998.8 -0.0  2 0 1055 2432 1372
[06]  16(G17)  1 24 17  0  -2663.8  2046004.6  0.4  1 0  649 1082 1200
[08]  27(G28)  f 42  7  0  -2914.1  2046003.7 -0.1  2 0  915 1642  193
[09]  29(G30)  f 46  7  0   -927.1  2046001.1 -0.0  2 0 3481 5077 2291
[10]  21(G22)  1 22  7  0  -2767.3  2046005.2  0.1  1 0  505 1173 1022
[16]  37(B01) 1f 41 10  0  -1071.2  4092002.6 -0.0  2 0 1574 1618  492
[17]  38(B02) 1f 40 24  0  -1112.3  4092002.8  0.5  2 0 1043 1708  831
[18]  39(B03)  7 18 34  1  -1012.1  4092002.6 -0.0  2 0  334  765 1448
[19]  40(B04) 1f 41 23  0  -1091.6  4092002.6 -0.4  2 0 1016  734  230
[20]  41(B05) 1f 36 10  0  -1125.1  4092002.7  0.9  2 0  899  966  170
[21]  43(B07) 1f 43  9  0  -1210.7  4092003.1  0.0  2 0 1127 2126  769
[22]  44(B08) 1f 43  7  0  -1498.7  4092003.8  0.0  2 0 1933 2308  908
[24]  46(B10) 1f 43  7  0  -1518.5  4092003.8  0.0  2 0 2067 2307  813
[25]  47(B11) 1f 44  7  0    318.1  4091999.0 -0.0  2 0 2496 3018 1366
[26]  49(B13) 1f 42  7  0  -1979.1  4092005.1  0.0  2 0 1655 1741  495
[28]  59(B23) 1f 44  7  0  -2655.0  4092006.8 -0.0  2 0 2649 2918  914
[29]  60(B24) 1f 39  7  0   2095.2  4091994.4 -0.0  2 0 1413 1390  512
[30]  61(B25) 1f 44  7  0    402.6  4091998.8  0.0  2 0 2775 3355 1221
[32]  77(N-4)  7 46  7  0  -3463.8  1022002.2 -0.1  2 0  1009 2121 1038
[33]  78(N-3)  7 25  7  0   2754.4  1021998.1 -0.0 10 0   429  388  459
[34]  79(N-2)  7 45 30  0    312.9  1021999.7  0.1  2 0  1190 1532  638
[35]  81(N00)  7 35  7  0  -5168.8  1022003.2 -0.0  2 0   323  503  607
[36]  82(N01)  7 31 28  0   2799.5  1021997.9 -0.0  5 0   510  329  280
[37]  83(N02)  1 21  7  0    511.4  1021999.7  1.0  1 0  1871 3246 1382
[38]  86(N05)  7 48 12  0    725.5  1021999.5  0.0  2 0  2178 3278 1177
[49]  38(B02)  7 10 23  1  -1275.8 20460021.1 -0.1  2 0  322  127   21
[51]  40(B04)  1 36 24  0   -650.8 20460017.4 -0.0  1 0  219  552  512
$GNGGA,080735.000,2944.9064,N,10633.0878,E,1,12,1.1,325.8,M,,,,0000*17
$GNRMC,080735.000,A,2944.9064,N,10633.0878,E,0.33,0.00,120180,,*1E
$GPGSA,A,3,,,,,,,,,,,,,1.9,1.1,1.6*3D
$BDGSA,A,3,01,02,04,05,07,08,10,11,13,23,24,25,1.9,1.1,1.6*22
$GLGSA,A,3,,,,,,,,,,,,,1.9,1.1,1.6*21
$GPGSV,2,1,08,01,00,000,45,03,00,000,37,07,00,000,45,08,00,000,41*7E
$GPGSV,2,2,08,11,00,000,44,18,00,000,44,28,00,000,42,30,00,000,46*75
$BDGSV,3,1,12,01,40,125,41,02,46,219,39,04,23,109,41,05,27,244,37*61
$BDGSV,3,2,12,07,65,091,43,08,78,166,43,10,75,006,43,11,61,016,44*62
$BDGSV,3,3,12,13,53,202,42,23,56,310,44,24,12,145,39,25,65,163,44*66
$B3CN0,0,0,0,0,0,0,0,0,0,0,0,0,0,0*4C
---00000013--- Acq_st=3 0  2000-1-12 8:7:35 
[00]  00(G01)  f 46  7  0   -891.1  2046001.1 -0.0  2 0 3608 4864 1660
[01]  02(G03)  f 37  7  0  -3557.6  2046004.5  0.1  2 0  885 1096  450
[02]  06(G07)  f 45  7  0   1234.3  2045998.3 -0.0  2 0 2313 3898 2094
[03]  07(G08)  f 41  8  0   1480.2  2045998.0  0.1  2 0 1162 1897 1137
[04]  10(G11)  f 44 10  0    344.1  2045999.5  0.0  2 0 2151 3353 1699
[05]  17(G18)  f 44  7  0    894.2  2045998.8 -0.0  2 0 1697 2958 1388
[06]  16(G17)  7 25 11  0  -2659.1  2046003.4  0.5 10 0  900  321  233
[08]  27(G28)  f 43  7  0  -2916.1  2046003.7  0.0  2 0 1488 2705 1671
[09]  29(G30)  f 46  7  0   -925.9  2046001.1 -0.0  2 0 3365 5415 2399
[10]  21(G22)  7  7  7  0  -2768.3  2046003.5  0.8 10 0 1330 1289  394
[16]  37(B01) 1f 41 21  0  -1077.2  4092002.7  0.3  2 0 1215 1885  822
[17]  38(B02) 1f 40 26  0  -1117.2  4092002.9  0.2  2 0 1325 1649  824
[18]  39(B03)  7 10 31  1  -1010.2  4092002.5 -0.1  2 0  947  483  659
[19]  40(B04) 1f 41 10  0  -1093.0  4092002.7  0.2  2 0 1938 2236  739
[20]  41(B05) 1f 38 21  0  -1133.9  4092002.9  0.8  2 0  703  668  479
[21]  43(B07) 1f 42  7  0  -1209.9  4092003.1 -0.0  2 0 1968 2737 1363
[22]  44(B08) 1f 43  7  0  -1498.0  4092003.8  0.0  2 0 1743 2887 1709
[24]  46(B10) 1f 43  9  0  -1514.3  4092003.8  0.0  2 0 1827 2254 1014
[25]  47(B11) 1f 43  7  0    317.1  4091999.1 -0.0  2 0 2436 2481  486
[26]  49(B13) 1f 42  7  0  -1984.1  4092005.1 -0.1  2 0 1978 2873 1404
[27]  50(B14)  1  7  7  0  -3000.0  4092008.5 -0.1  1 0  391 1059 1266
[28]  59(B23) 1f 44  8  0  -2654.4  4092006.8  0.1  2 0 2535 3277 1159
[29]  60(B24) 1f 39  7  0   2093.1  4091994.4 -0.0  2 0 2058 2103  857
[30]  61(B25) 1f 44 10  0    402.1  4091998.8  0.0  2 0 2619 3428 1564
[32]  77(N-4)  7 46  7  0  -3464.0  1022002.2 -0.3  2 0  1389 2048  781
[33]  78(N-3)  7 26  7  0   2752.7  1021998.4  0.0 10 0   261  429   89
[34]  79(N-2)  7 45 29  0    312.8  1021999.8  0.2  2 0   932 1367  673
[35]  81(N00)  f 34  7  0  -5166.3  1022003.3  0.1  5 0   682  583  285
[36]  82(N01)  7 32 28  0   2797.5  1021998.1 -0.0  5 0   288  516  418
[38]  86(N05)  f 44  7  0    725.1  1021999.5  0.0  2 0  1975 3347 1420
[48]  37(B01)  1 10 10  0   -663.0 20460018.2 -0.1  1 0  516  578  428
[49]  38(B02)  7 18 10  0  -1669.3 20460026.5 -0.0  2 0  586  359  148
[51]  40(B04)  1 22 25  0   -938.6 20460018.2 -0.0  1 0  387  130  858
[52]  41(B05)  1 16 26  1   -689.4 20460014.1  0.1  1 0  518  283  325
[53]  43(B07)  1  7  7  0   -877.7 20460013.8  0.1  1 0  341  311  176
[54]  44(B08)  1  7  7  0  -1273.7 20460022.8  0.1  1 0  185  656  195
[56]  46(B10)  1  7  7  0  -1450.9 20460024.5 -0.0  1 0  652  828  501
[57]  47(B11)  1  7  9  0    227.4 20459995.6 -0.2  1 0  319  244  732
[58]  49(B13)  1  7  7  0  -1716.9 20460028.9 -0.0  1 0  583  239   81
[60]  59(B23)  1  7  7  0  -2104.4 20460043.4  0.1  1 0  582  739  549
[61]  60(B24)  1  7  9  0   1321.2 20459966.6  0.0  1 0  137  235  276
[62]  61(B25)  1  7  7  0    400.8 20459993.6  0.1  1 0  913  929  437
$GNGGA,080736.000,2944.9066,N,10633.0881,E,1,12,1.1,324.6,M,,,,0000*1F
$GNRMC,080736.000,A,2944.9066,N,10633.0881,E,0.47,0.00,120180,,*1A
$GPGSA,A,3,,,,,,,,,,,,,1.9,1.1,1.6*3D
$BDGSA,A,3,01,02,04,05,07,08,10,11,13,23,24,25,1.9,1.1,1.6*22
$GLGSA,A,3,,,,,,,,,,,,,1.9,1.1,1.6*21
$GPGSV,3,1,09,01,00,000,46,03,00,000,37,07,00,000,45,08,00,000,41*7D
$GPGSV,3,2,09,11,00,000,44,18,00,000,44,17,00,000,25,28,00,000,43*74
$GPGSV,3,3,09,30,00,000,46*41
$BDGSV,3,1,12,01,40,125,42,02,46,219,40,04,23,109,41,05,27,244,38*63
$BDGSV,3,2,12,07,65,091,42,08,78,166,43,10,75,006,43,11,61,016,43*64
$BDGSV,3,3,12,13,53,202,42,23,56,310,44,24,12,145,39,25,65,163,44*66
$B3CN0,0,19,0,0,0,0,0,0,0,0,0,0,0,0*74
---00000014--- Acq_st=3 0  2000-1-12 8:7:36 
[00]  00(G01)  f 45  7  0   -900.1  2046001.1  0.0  2 0 2227 3990 1919
[01]  02(G03)  f 37  7  0  -3558.4  2046004.6 -0.4  2 0  813 1390  637
[02]  06(G07)  f 45  7  0   1227.6  2045998.3 -0.0  2 0 2443 4026 2112
[03]  07(G08)  f 41  7  0   1470.3  2045998.0  0.1  2 0 1005 2013 1056
[04]  10(G11)  f 44 11  0    336.2  2045999.5 -0.0  2 0 2005 3664 1904
[05]  17(G18)  f 43  7  0    885.6  2045998.8  0.0  2 0 2276 3255 1309
[06]  16(G17)  7 36 19  0  -2661.6  2046003.3 -0.1  2 0  628  787  937
[08]  27(G28)  f 43  7  0  -2920.6  2046003.8 -0.0  2 0 1343 2220 1065
[09]  29(G30)  f 46  7  0   -935.7  2046001.2 -0.0  2 0 3319 5564 2500
[10]  21(G22)  7 37  7  0  -2777.5  2046003.5  0.0  2 0   74  840  626
[16]  37(B01) 1f 41 19  0  -1086.6  4092002.8  0.3  2 0 1149 1693  915
[17]  38(B02) 1f 40 23  0  -1127.9  4092002.9  0.8  2 0 1457 1674 1113
[18]  39(B03)  7 18 32  1  -1005.0  4092002.6 -0.2  2 0  226  687 1506
[19]  40(B04) 1f 40 22  0  -1097.8  4092002.9  0.4  2 0 1544 1704  661
[20]  41(B05) 1f 37 24  0  -1139.1  4092002.9 -0.2  2 0  597 1034  615
[21]  43(B07) 1f 43  7  0  -1217.5  4092003.1 -0.0  2 0 1720 2344 1120
[22]  44(B08) 1f 43  7  0  -1506.1  4092003.8  0.0  2 0 2349 2473  706
[24]  46(B10) 1f 43  7  0  -1527.6  4092003.9 -0.1  2 0 1825 2563  978
[25]  47(B11) 1f 45  7  0    308.9  4091999.1  0.0  2 0 2465 2964  972
[26]  49(B13) 1f 42  7  0  -1989.1  4092005.1 -0.0  2 0 1710 1827  413
[27]  50(B14)  1  7  7  0  -2958.9  4092007.8  0.0  1 0  814  859  350
[28]  59(B23) 1f 44  7  0  -2661.9  4092006.8 -0.1  2 0 2318 2774  816
[29]  60(B24) 1f 38  7  0   2082.7  4091994.4  0.0  2 0  930 1349  674
[30]  61(B25) 1f 44 10  0    392.8  4091998.8 -0.0  2 0 2909 3924 1854
[32]  77(N-4)  7 46  7  0  -3472.5  1022002.2 -0.2  2 0   957 1898 1122
[33]  78(N-3)  7 26  7  0   2747.9  1021998.0 -0.1 10 0   329  477  286
[34]  79(N-2)  7 44 22  0    306.2  1021999.8 -0.1  2 0  1063 1736  732
[35]  81(N00)  f 35  7  0  -5174.8  1022003.2 -0.1  2 0   224  608  401
[36]  82(N01)  7 34 27  0   2790.5  1021998.0  0.1  5 0   505  536  125
[38]  86(N05)  f 46  7  0    717.9  1021999.5 -0.0  2 0  1998 2857 1036
[48]  37(B01)  7 10 17  0   -515.3 20460007.9  0.1  2 0  261  478  335
[51]  40(B04)  1 24 23  1  -1534.4 20460022.2  0.0  1 0  248  497  392
[52]  41(B05)  1 18 22  1   -448.7 20460018.4 -0.1  1 0  144  699  876
[53]  43(B07)  1  7  7  0   -989.4 20460014.8  0.1  1 0 1366  571  321
[54]  44(B08)  1  7  7  0   -772.0 20460022.8  0.1  1 0  194  468  234
[56]  46(B10)  1  7  7  0  -1775.4 20460024.6  0.0  1 0  281  234  116
[57]  47(B11)  7 23  7  0    243.0 20459994.8 -0.1 10 0  733  547  648
[58]  49(B13)  1  7  7  0  -1581.4 20460028.4 -0.0  1 0  440  592  338
[60]  59(B23)  1  7  7  0  -2021.5 20460042.7 -0.1  1 0  230  200  506
[61]  60(B24)  1  7 11  0    798.8 20459966.2 -0.1  1 0  406  165  320
[62]  61(B25)  1  9  7  0    709.0 20459993.6 -0.0  1 0  652  725  638
$GNGGA,080737.000,2944.9066,N,10633.0884,E,1,12,1.1,324.7,M,,,,0000*1A
$GNRMC,080737.000,A,2944.9066,N,10633.0884,E,0.15,0.00,120180,,*19
$GPGSA,A,3,,,,,,,,,,,,,1.9,1.1,1.6*3D
$BDGSA,A,3,01,02,04,05,07,08,10,11,13,23,24,25,1.9,1.1,1.6*22
$GLGSA,A,3,,,,,,,,,,,,,1.9,1.1,1.6*21
$GPGSV,3,1,10,01,00,000,45,03,00,000,37,07,00,000,45,08,00,000,41*76
$GPGSV,3,2,10,11,00,000,44,18,00,000,43,17,00,000,36,28,00,000,43*79
$GPGSV,3,3,10,30,00,000,46,22,00,000,37*7D
$BDGSV,3,1,12,01,40,125,41,02,46,219,40,03,55,171,18,04,23,109,40*65
$BDGSV,3,2,12,05,27,244,37,07,65,091,43,08,78,166,43,10,75,006,43*64
$BDGSV,3,3,12,11,61,016,45,13,53,202,42,23,56,310,44,24,12,145,38*66
$B3CN0,0,0,0,0,0,0,0,0,0,0,23,0,0,0*7D
---00000015--- Acq_st=3 0  2000-1-12 8:7:37 
[00]  00(G01)  f 45  7  0   -888.9  2046001.1  0.0  2 0 2760 3813 1515
[01]  02(G03)  f 37  7  0  -3564.3  2046004.6 -0.3  2 0  444 1198  956
[02]  06(G07)  f 45  7  0   1235.0  2045998.3  0.0  2 0 2806 3670 1684
[03]  07(G08)  f 40  7  0   1475.3  2045998.0  0.0  2 0 1080 1326  584
[04]  10(G11)  f 44  9  0    343.8  2045999.5  0.0  2 0 1735 3409 1842
[05]  17(G18)  f 43  7  0    899.5  2045998.8  0.0  2 0 1511 2871 1557
[06]  16(G17)  7 36 22  0  -2659.6  2046003.4 -0.5  2 0 1228 1861  820
[08]  27(G28)  f 42  8  0  -2913.8  2046003.7  0.0  2 0 1734 2440  838
[09]  29(G30)  f 46  7  0   -925.7  2046001.1  0.0  2 0 3914 6083 2661
[10]  21(G22)  7 38  7  0  -2768.1  2046003.5  0.1  2 0  482 1501  722
[16]  37(B01) 1f 42 10  0  -1078.5  4092002.6 -0.3  2 0 1571 2027  798
[17]  38(B02) 1f 40 22  0  -1115.0  4092002.8 -0.0  2 0  601  985  506
[18]  39(B03)  7 36 32  1  -1010.2  4092002.6  0.1  2 0  360  157  296
[19]  40(B04) 1f 40 20  0  -1090.0  4092002.8 -0.8  2 0  511 1331  405
[20]  41(B05) 1f 37 19  0  -1133.2  4092002.9  0.5  2 0 1173 1478  579
[21]  43(B07) 1f 43  7  0  -1207.5  4092003.0  0.1  2 0 1700 2464 1349
[22]  44(B08) 1f 43  7  0  -1500.0  4092003.8 -0.0  2 0 2384 2706 1089
[24]  46(B10) 1f 43 11  0  -1518.3  4092003.9  0.1  2 0 2147 2510  629
[25]  47(B11) 1f 44  7  0    318.9  4091999.0  0.0  2 0 2664 3607 1848
[26]  49(B13) 1f 42  7  0  -1983.1  4092005.1  0.1  2 0 1590 2147  966
[27]  50(B14)  7 30  7  0  -2941.6  4092007.6 -0.0  5 0  844  605   30
[28]  59(B23) 1f 44 10  0  -2653.9  4092006.9  0.0  2 0 3058 3207 1171
[29]  60(B24) 1f 38  9  0   2091.6  4091994.3 -0.0  2 0  425  891  365
[30]  61(B25) 1f 44 10  0    402.1  4091998.8 -0.0  2 0 3064 3518 1303
[32]  77(N-4)  f 43  7  0  -3463.6  1022002.2  0.3  2 0  1084 1768  558
[33]  78(N-3)  7 27  7  0   2748.2  1021998.1  0.0 10 0   457  507  257
[34]  79(N-2)  f 42 22  0    313.5  1021999.8  0.2  2 0   894 1624  737
[35]  81(N00)  f 36  7  0  -5168.3  1022003.3 -0.1  2 0   452  734  386
[36]  82(N01)  f 33 26  0   2797.7  1021998.1  0.0  5 0   592  790  145
[38]  86(N05)  f 46  7  0    726.4  1021999.5  0.0  2 0  2095 3542 1299
[48]  37(B01)  7 14 18  1  -1031.2 20460016.9  0.1  2 0  940   66  122
[49]  38(B02)  1 10 13  1  -1063.3 20460019.2 -0.1  1 0  166  523  431
[51]  40(B04)  1 23 21  1  -1360.3 20460022.7 -0.0  1 0  190  554  589
[52]  41(B05)  1 27 22  1   -796.1 20460017.7  0.0  1 0  272  114  884
[53]  43(B07)  7 22  7  0   -991.6 20460015.1 -0.0 10 0  926  882  691
[54]  44(B08)  1  7  7  0  -1285.8 20460026.3  0.2  1 0  362   59  286
[56]  46(B10)  1  7  7  0  -1639.7 20460022.4  0.2  1 0  693   87   65
[57]  47(B11)  7 31  9  0    254.1 20459994.4  0.0  5 0 1087 1481  789
[58]  49(B13)  1  7  7  0  -1270.1 20460031.0 -0.1  1 0  109  381   45
[60]  59(B23)  1  7  7  0  -1909.4 20460043.0  0.1  1 0  620  341  871
[61]  60(B24)  1  7  7  0    362.8 20459968.3  0.0  1 0  331  263  119
[62]  61(B25)  1  7  7  0   1632.1 20459993.6  0.0  1 0   81  257  533
$GNGGA,080738.000,2944.9066,N,10633.0885,E,1,12,1.1,324.2,M,,,,0000*11
$GNRMC,080738.000,A,2944.9066,N,10633.0885,E,0.10,0.00,120180,,*12
$GPGSA,A,3,,,,,,,,,,,,,1.9,1.1,1.6*3D
$BDGSA,A,3,01,02,04,05,07,08,10,11,13,23,24,25,1.9,1.1,1.6*22
$GLGSA,A,3,,,,,,,,,,,,,1.9,1.1,1.6*21
$GPGSV,3,1,10,01,00,000,45,03,00,000,37,07,00,000,45,08,00,000,40*77
$GPGSV,3,2,10,11,00,000,44,18,00,000,43,17,00,000,36,28,00,000,42*78
$GPGSV,3,3,10,30,00,000,46,22,00,000,38*72
$BDGSV,3,1,12,01,40,125,42,02,46,219,40,04,23,109,40,05,27,244,37*6D
$BDGSV,3,2,12,07,65,091,43,08,78,166,43,10,75,006,43,11,61,016,44*62
$BDGSV,3,3,12,13,53,202,42,14,00,000,30,23,56,310,44,24,12,145,38*61
$B3CN0,20,0,0,0,0,0,22,0,0,0,31,0,0,0*7C
---00000016--- Acq_st=7 0  2000-1-12 8:7:38 
[00]  00(G01)  f 45  7  0   -886.8  2046001.1 -0.1  2 0 2839 4488 2220
[01]  02(G03)  f 37  7  0  -3554.1  2046004.6 -0.1  2 0  994 1427  637
[02]  06(G07)  f 45  7  0   1236.1  2045998.3 -0.0  2 0 2409 4282 1996
[03]  07(G08)  f 41  7  0   1482.9  2045998.0 -0.0  2 0 2156 2612  914
[04]  10(G11)  f 44  8  0    346.5  2045999.5 -0.0  2 0 2803 4068 2133
[05]  17(G18)  f 43  7  0    899.1  2045998.7 -0.0  2 0 1512 2359  867
[06]  16(G17)  f 37 20  0  -2664.1  2046003.3 -0.4  2 0  795  709  227
[08]  27(G28)  f 42  7  0  -2910.2  2046003.7  0.0  2 0 1655 2656 1072
[09]  29(G30)  f 46 13  0   -923.1  2046001.1  0.0  2 0 3431 5537 2545
[10]  21(G22)  f 38  7  0  -2754.8  2046003.4 -0.2  2 0 1183 1496  272
[16]  37(B01) 1f 40 19  0  -1072.1  4092002.7  0.1  2 0 1527 2037 1068
[17]  38(B02) 1f 40 22  0  -1117.1  4092002.7 -0.4  2 0 1455 1513  622
[18]  39(B03)  7 36 32  1  -1007.3  4092002.6  0.1  2 0  438  306  840
[19]  40(B04) 1f 39 23  0  -1088.9  4092002.8 -0.5  2 0  280  955  288
[20]  41(B05) 1f 38 23  0  -1123.0  4092002.9  0.9  2 0  891  812  466
[21]  43(B07) 1f 43  7  0  -1208.7  4092003.1 -0.0  2 0 1725 2830 1544
[22]  44(B08) 1f 43  7  0  -1497.6  4092003.8 -0.1  2 0 1617 2483  963
[24]  46(B10) 1f 43  7  0  -1513.6  4092003.9 -0.0  2 0 2501 2935 1164
[25]  47(B11) 1f 44 12  0    319.4  4091999.0  0.0  2 0 3113 2649 1115
[26]  49(B13) 1f 42  7  0  -1978.7  4092005.1  0.0  2 0 1444 1830  674
[27]  50(B14)  7 35  7  0  -2941.4  4092007.7  0.2  2 0  722  956  653
[28]  59(B23) 1f 44  7  0  -2649.0  4092006.8 -0.0  2 0 3026 3718 1381
[29]  60(B24) 1f 38  7  0   2090.4  4091994.4 -0.2  2 0 1483 1818  659
[30]  61(B25) 1f 45 10  0    405.1  4091998.8  0.0  2 0 2995 3557 1412
[32]  77(N-4)  f 46  7  0  -3460.8  1022002.2  0.0  2 0  1172 2119  889
[33]  78(N-3)  7 27  7  0   2757.4  1021998.3 -0.0 10 0   340  586  343
[34]  79(N-2)  f 44 20  0    316.7  1021999.8  0.0  2 0   881 1732  979
[35]  81(N00)  f 36  7  0  -5165.8  1022003.3  0.0  2 0   450  552  460
[36]  82(N01)  f 34 25  0   2801.9  1021998.1  0.0  5 0   189  785  695
[38]  86(N05)  f 46  7  0    730.0  1021999.5  0.0  2 0  2082 3747 1737
[48]  37(B01)  7 10 16  0  -1159.7 20460016.5 -0.1  2 0  364  453  307
[49]  38(B02)  f 21 10  0   -894.5 20460014.5  0.0  2 0  374   76   62
[52]  41(B05)  1 20 25  1   -880.5 20460023.2 -0.1  1 0  232  210  252
[53]  43(B07)  7 28  8  0   -993.4 20460015.1  0.1 10 0  250  531  319
[54]  44(B08)  1 12  7  0  -2022.1 20460025.2  0.0  1 0  298  327  259
[56]  46(B10)  1  7  7  0  -1705.2 20460024.7 -0.1  1 0  539  401  310
[57]  47(B11)  7 31 14  0    262.9 20459995.0  0.0  5 0  456  722  648
[58]  49(B13)  1  7  7  0  -1715.0 20460031.2 -0.1  1 0  432  351  112
[60]  59(B23)  1  7  7  0  -1745.4 20460041.8 -0.1  1 0  805  463  676
[61]  60(B24)  1  7  7  0    636.9 20459968.6  0.1  1 0  525  435  731
[62]  61(B25)  1  7  9  0   1576.0 20459994.8 -0.1  1 0  417  349  121
$GNGGA,080739.000,2944.9067,N,10633.0886,E,1,12,1.1,323.8,M,,,,0000*1F
$GNRMC,080739.000,A,2944.9067,N,10633.0886,E,0.49,0.00,120180,,*1D
$GPGSA,A,3,,,,,,,,,,,,,1.9,1.1,1.6*3D
$BDGSA,A,3,01,02,04,05,07,08,10,11,13,23,24,25,1.9,1.1,1.6*22
$GLGSA,A,3,,,,,,,,,,,,,1.9,1.1,1.6*21
$GPGSV,3,1,10,01,00,000,45,03,00,000,37,07,00,000,45,08,00,000,41*76
$GPGSV,3,2,10,11,00,000,44,18,00,000,43,17,00,000,37,28,00,000,42*79
$GPGSV,3,3,10,30,00,000,46,22,00,000,38*72
$BDGSV,3,1,12,01,40,125,40,02,46,219,39,04,23,109,39,05,27,244,38*60
$BDGSV,3,2,12,07,65,091,43,08,78,166,43,10,75,006,43,11,61,016,44*62
$BDGSV,3,3,12,13,53,202,42,14,00,000,35,23,56,310,44,24,12,145,38*64
$B3CN0,19,23,0,0,0,0,28,0,0,0,31,0,0,0*4D
---00000017--- Acq_st=3 0  2000-1-12 8:7:39 
[00]  00(G01)  f 45  7  0   -893.2  2046001.1 -0.0  2 0 2944 4432 2239
[01]  02(G03)  f 37  7  0  -3558.8  2046004.6 -0.3  2 0 1086 1043  106
[02]  06(G07)  f 45  7  0   1231.8  2045998.3 -0.0  2 0 3269 4323 1745
[03]  07(G08)  f 41  7  0   1473.8  2045998.0 -0.1  2 0 1216 1747  619
[04]  10(G11)  f 44  8  0    341.9  2045999.5  0.0  2 0 2239 3524 1710
[05]  17(G18)  f 43  7  0    893.2  2045998.8  0.0  2 0 1327 2402 1189
[06]  16(G17)  f 37 21  0  -2664.1  2046003.4  0.6  2 0 1034 1416  980
[08]  27(G28)  f 42  7  0  -2919.1  2046003.7  0.0  2 0 1693 2420  810
[09]  29(G30)  f 46  7  0   -930.6  2046001.2 -0.0  2 0 3529 5697 3162
[10]  21(G22)  f 39  7  0  -2770.7  2046003.5  0.2  2 0 1041 1945 1473
[16]  37(B01) 1f 41 20  0  -1080.5  4092002.8 -0.7  2 0 1674 2158 1293
[17]  38(B02) 1f 39 25  0  -1123.5  4092002.8  0.4  2 0  986 1121  735
[18]  39(B03)  7 18 33  1  -1004.6  4092002.7  0.1  2 0  418   92  314
[19]  40(B04) 1f 40 25  0  -1092.8  4092002.8 -0.3  2 0  780 1366  791
[20]  41(B05) 1f 37 10  0  -1129.9  4092002.9  0.9  2 0 1083 1018  327
[21]  43(B07) 1f 43  7  0  -1213.7  4092003.1 -0.1  2 0 2086 2536  885
[22]  44(B08) 1f 43  7  0  -1504.9  4092003.8 -0.0  2 0 1768 2376 1228
[24]  46(B10) 1f 43  8  0  -1521.3  4092003.9 -0.0  2 0 2153 2857 1255
[25]  47(B11) 1f 44  7  0    309.9  4091999.1  0.0  2 0 2461 2754  931
[26]  49(B13) 1f 42  8  0  -1981.0  4092005.1 -0.0  2 0 1847 2038  707
[27]  50(B14)  7 35  7  0  -2949.6  4092007.6  0.2  2 0  417  801   94
[28]  59(B23) 1f 44 12  0  -2657.7  4092006.9 -0.1  2 0 2317 3174 1332
[29]  60(B24) 1f 38  9  0   2081.7  4091994.5 -0.1  2 0 1152 1758 1040
[30]  61(B25) 1f 45  9  0    397.7  4091998.8 -0.0  2 0 2969 3780 1817
[32]  77(N-4)  f 46  7  0  -3466.9  1022002.2  0.0  2 0  1099 2176  886
[33]  78(N-3)  7 27  7  0   2748.3  1021998.2 -0.0 10 0   155  112  243
[34]  79(N-2)  f 44 21  0    310.9  1021999.8  0.1  2 0   659 1477  708
[35]  81(N00)  f 36  7  0  -5172.1  1022003.1  0.0  2 0   318  359  110
[36]  82(N01)  f 35 27  0   2791.7  1021998.1  0.1  2 0   480  627  512
[38]  86(N05)  f 46  7  0    722.6  1021999.5 -0.0  2 0  2265 3222 1264
[48]  37(B01)  7 10 10  0  -1541.6 20460023.5 -0.0  2 0  380  484  697
[49]  38(B02)  f 10 10  1   -945.5 20460013.2  0.1  2 0  799  539  329
[51]  40(B04)  1 21 22  1   -454.1 20460022.0 -0.1  1 0  840  595  394
[53]  43(B07)  7 28  7  0   -996.1 20460015.8  0.0 10 0  123  202  439
[57]  47(B11)  7 31 10  0    246.8 20459995.4  0.1  5 0  556  749  738
$GNGGA,080740.000,2944.9066,N,10633.0887,E,1,12,1.1,323.7,M,,,,0000*1E
$GNRMC,080740.000,A,2944.9066,N,10633.0887,E,0.28,0.00,120180,,*14
$GPGSA,A,3,,,,,,,,,,,,,1.9,1.1,1.6*3D
$BDGSA,A,3,01,02,04,05,07,08,10,11,13,23,24,25,1.9,1.1,1.6*22
$GLGSA,A,3,,,,,,,,,,,,,1.9,1.1,1.6*21
$GPGSV,3,1,10,01,00,000,45,03,00,000,37,07,00,000,45,08,00,000,41*76
$GPGSV,3,2,10,11,00,000,45,18,00,000,43,17,00,000,37,28,00,000,42*78
$GPGSV,3,3,10,30,00,000,46,22,00,000,39*73
$BDGSV,3,1,12,01,40,125,41,02,46,219,40,03,55,171,23,04,23,109,40*6D
$BDGSV,3,2,12,05,27,244,37,07,65,091,43,08,78,166,43,10,75,006,43*64
$BDGSV,3,3,12,11,61,016,44,13,53,202,42,14,00,000,35,23,56,310,44*6A
$B3CN0,0,0,0,0,0,0,28,0,0,0,31,0,0,0*44
---00000018--- Acq_st=3 0  2000-1-12 8:7:40 
[00]  00(G01)  f 45  7  0   -887.1  2046001.1  0.0  2 0 2494 4098 1603
[01]  02(G03)  f 36 10  0  -3561.3  2046004.6 -0.0  2 0  389  905  822
[02]  06(G07)  f 44  8  0   1235.1  2045998.3  0.0  2 0 3305 4629 2219
[03]  07(G08)  f 40  7  0   1477.6  2045998.0  0.1  2 0 1357 2034  791
[04]  10(G11)  f 44 10  0    345.7  2045999.5 -0.0  2 0 2321 3160 1517
[05]  17(G18)  f 43  7  0    897.0  2045998.8 -0.0  2 0 1895 2801 1653
[06]  16(G17)  f 37 21  0  -2654.8  2046003.3  0.4  2 0  769  678  388
[08]  27(G28)  f 41  7  0  -2912.0  2046003.7 -0.0  2 0 2115 2846 1129
[09]  29(G30)  f 46  7  0   -924.0  2046001.1  0.0  2 0 3323 5783 2692
[10]  21(G22)  f 38  7  0  -2760.7  2046003.6 -0.2  2 0  977 1373  469
[16]  37(B01) 1f 41 18  0  -1072.4  4092002.6  0.2  2 0 1156 1464  273
[17]  38(B02) 1f 38 21  0  -1118.3  4092002.9 -0.4  2 0  901 1132  552
[18]  39(B03)  7 10 33  1  -1007.6  4092002.6  0.1  2 0  308  124  181
[19]  40(B04) 1f 41 10  0  -1094.1  4092002.8  0.4  2 0 1244 1677  766
[20]  41(B05) 1f 37 21  0  -1129.3  4092002.8 -0.2  2 0  818 1032  711
[21]  43(B07) 1f 43  7  0  -1208.1  4092003.0 -0.0  2 0 1994 2043  749
[22]  44(B08) 1f 43  7  0  -1494.6  4092003.8  0.0  2 0 1488 2298 1291
[24]  46(B10) 1f 43 12  0  -1517.7  4092003.8 -0.0  2 0 1712 2122  534
[25]  47(B11) 1f 44  7  0    316.5  4091999.0  0.0  2 0 2531 2984 1470
[26]  49(B13) 1f 42  7  0  -1981.0  4092005.1  0.0  2 0 1508 2250 1068
[27]  50(B14) 1f 35  7  0  -2947.3  4092007.6 -0.2  2 0   70  340  183
[28]  59(B23) 1f 44  7  0  -2654.1  4092006.8  0.0  2 0 2733 3623 1476
[29]  60(B24) 1f 38  7  0   2098.1  4091994.4 -0.1  2 0  757  663  407
[30]  61(B25) 1f 45 12  0    401.9  4091998.8  0.0  2 0 2714 3586 1124
[32]  77(N-4)  f 46  7  0  -3462.0  1022002.2 -0.1  2 0  1500 2386 1350
[33]  78(N-3)  7 26  7  0   2753.1  1021998.3  0.0 10 0   145  497  364
[34]  79(N-2)  f 44 19  0    314.6  1021999.8  0.1  2 0   760 1605  822
[35]  81(N00)  f 36  7  0  -5167.9  1022003.3 -0.1  2 0   136  374  356
[36]  82(N01)  f 35 26  0   2801.1  1021998.2 -0.2  2 0   280  764  308
[38]  86(N05)  f 46  7  0    727.3  1021999.5 -0.1  2 0  1963 3783 1983
[49]  38(B02)  f 14 10  1  -1065.7 20460016.4  0.0  2 0  141  520  371
[51]  40(B04)  1 36 14  0   -784.7 20460023.9 -0.1  1 0  380  492  322
[52]  41(B05)  1 26 24  0  -1377.5 20460018.5 -0.0  1 0  643  504  506
[53]  43(B07)  7 28  9  0   -992.0 20460016.6 -0.1  5 0  238  297  169
[54]  44(B08)  1  7  7  0  -1220.9 20460023.8 -0.2  1 0  360  257  395
[56]  46(B10)  1  7  7  0  -1233.0 20460023.9 -0.1  1 0  119  758 1012
[57]  47(B11) 1f 31  7  0    250.9 20459995.4 -0.1  5 0  288  535  340
[58]  49(B13)  1  7  7  0  -1946.8 20460031.6 -0.0  1 0  393  376  493
[60]  59(B23)  1  7  7  0  -1689.7 20460042.3 -0.1  1 0  611  348  502
[61]  60(B24)  1  7 11  0   1678.9 20459964.5 -0.1  1 0  232  375  642
[62]  61(B25)  1  7  7  0    311.6 20459993.0  0.1  1 0  114  570  650
$GNGGA,080741.000,2944.9067,N,10633.0887,E,1,12,1.1,323.4,M,,,,0000*1D
$GNRMC,080741.000,A,2944.9067,N,10633.0887,E,0.14,0.00,120180,,*1B
$GPGSA,A,3,,,,,,,,,,,,,1.9,1.1,1.6*3D
$BDGSA,A,3,01,02,04,05,07,08,10,11,13,23,24,25,1.9,1.1,1.6*22
$GLGSA,A,3,,,,,,,,,,,,,1.9,1.1,1.6*21
$GPGSV,3,1,10,01,00,000,45,03,00,000,36,07,00,000,44,08,00,000,40*77
$GPGSV,3,2,10,11,00,000,44,18,00,000,43,17,00,000,37,28,00,000,41*7A
$GPGSV,3,3,10,30,00,000,46,22,00,000,38*72
$BDGSV,3,1,12,01,40,125,41,02,46,219,38,04,23,109,41,05,27,244,37*60
$BDGSV,3,2,12,07,65,091,42,08,78,166,43,10,75,006,43,11,61,016,44*63
$BDGSV,3,3,12,13,53,202,42,14,00,000,35,23,56,310,44,24,12,145,38*64
$B3CN0,0,0,0,0,0,0,28,0,0,0,31,0,0,0*44
---00000019--- Acq_st=3 0  2000-1-12 8:7:41 
[00]  00(G01)  f 45  7  0   -888.6  2046001.1 -0.0  2 0 2738 4848 2010
[01]  02(G03)  f 36  7  0  -3559.3  2046004.5  0.3  2 0  957 1546  797
[02]  06(G07)  f 45  7  0   1234.7  2045998.3 -0.0  2 0 2457 3899 1745
[03]  07(G08)  f 41  7  0   1472.7  2045998.0 -0.0  2 0  713 1527  666
[04]  10(G11)  f 44  7  0    342.5  2045999.5  0.0  2 0 2076 3876 1595
[05]  17(G18)  f 43  7  0    898.3  2045998.8  0.0  2 0 1915 2723 1258
[06]  16(G17)  f 37 21  0  -2665.2  2046003.4  0.3  2 0  409  849  301
[08]  27(G28)  f 41  7  0  -2917.4  2046003.7  0.1  2 0 1815 2608 1380
[09]  29(G30)  f 46  7  0   -927.4  2046001.1  0.0  2 0 3532 5402 2090
[10]  21(G22)  f 38  7  0  -2771.3  2046003.6  0.0  2 0 1136 1900  923
[16]  37(B01) 1f 41 18  0  -1076.4  4092002.7  0.3  2 0 1511 1524  705
[17]  38(B02) 1f 40 22  0  -1119.6  4092002.9 -0.2  2 0 1136 1570  889
[18]  39(B03)  7 18 30  1  -1013.3  4092002.5  0.1  2 0  559  604  234
[19]  40(B04) 1f 38 26  0  -1091.9  4092002.8  0.6  2 0 1014 1833  909
[20]  41(B05) 1f 39 18  0  -1133.4  4092003.0 -0.5  2 0  770  689  205
[21]  43(B07) 1f 42  7  0  -1211.8  4092003.1 -0.0  2 0 1690 1830  501
[22]  44(B08) 1f 43  7  0  -1497.8  4092003.8  0.0  2 0 2100 2030  784
[24]  46(B10) 1f 43  7  0  -1519.8  4092003.8  0.0  2 0 1640 2220  861
[25]  47(B11) 1f 44  7  0    317.9  4091999.0 -0.0  2 0 2210 3008 1558
[26]  49(B13) 1f 42  7  0  -1981.4  4092005.1 -0.0  2 0  989 1686  724
[27]  50(B14) 1f 34  7  0  -2951.6  4092007.6  0.2  2 0  608  869  253
[28]  59(B23) 1f 44  7  0  -2655.4  4092006.8 -0.0  2 0 2439 2846 1207
[29]  60(B24) 1f 38 11  0   2095.0  4091994.4 -0.1  2 0  961 1224 1003
[30]  61(B25) 1f 45 11  0    401.2  4091998.8 -0.0  2 0 3138 3776 1853
[32]  77(N-4)  f 46  7  0  -3462.9  1022002.2 -0.0  2 0  1163 2060 1100
[33]  78(N-3)  7 26  7  0   2751.4  1021998.1 -0.0 10 0    89   78   40
[34]  79(N-2)  f 44 18  0    313.2  1021999.8  0.1  2 0   849 1596  593
[35]  81(N00)  f 36  7  0  -5167.1  1022003.3  0.1  2 0   461  764  405
[36]  82(N01)  f 35 26  0   2796.5  1021998.2  0.2  2 0   444  531  152
[38]  86(N05)  f 46  7  0    725.2  1021999.5  0.0  2 0  1955 3608 1465
[48]  37(B01)  1 10 13  0   -763.0 20460021.2  0.0  1 0  737  778  183
[49]  38(B02)  f 19 10  1  -1366.2 20460021.7  0.1  2 0  877  823  510
[51]  40(B04)  1 25 21  0   -685.1 20460016.1  0.1  1 0  676  317  571
[52]  41(B05)  1 24 19  0   -763.0 20460014.8  0.1  1 0  794  638  374
[53]  43(B07)  7 28  7  0   -983.1 20460015.8 -0.1  5 0  807  507  301
[54]  44(B08)  1  8 11  0  -1604.1 20460023.8 -0.2  1 0  519  402  221
[56]  46(B10)  1  7  7  0  -1225.2 20460024.8 -0.1  1 0   46  224  479
[57]  47(B11) 1f 31 10  0    255.7 20459995.4 -0.0  5 0  651 1202  953
[58]  49(B13)  1  7  7  0  -1084.0 20460031.9  0.1  1 0  215  373  490
[60]  59(B23)  1  7  7  0  -1433.9 20460042.8 -0.1  1 0  303  180  127
[61]  60(B24)  1 10  7  0   1381.3 20459966.5 -0.1  1 0  184  769  602
[62]  61(B25)  1  7  8  0    450.8 20459993.2 -0.2  1 0  181   71  428
$GNGGA,080742.000,2944.9067,N,10633.0888,E,1,12,1.1,323.3,M,,,,0000*16
$GNRMC,080742.000,A,2944.9067,N,10633.0888,E,0.32,0.00,120180,,*13
$GPGSA,A,3,,,,,,,,,,,,,1.9,1.1,1.6*3D
$BDGSA,A,3,01,02,04,05,07,08,10,11,13,23,24,25,1.9,1.1,1.6*22
$GLGSA,A,3,,,,,,,,,,,,,1.9,1.1,1.6*21
$GPGSV,3,1,10,01,00,000,45,03,00,000,36,07,00,000,45,08,00,000,41*77
$GPGSV,3,2,10,11,00,000,44,18,00,000,43,17,00,000,37,28,00,000,41*7A
$GPGSV,3,3,10,30,00,000,46,22,00,000,38*72
$BDGSV,3,1,12,01,40,125,41,02,46,219,39,03,55,171,18,04,23,109,38*64
$BDGSV,3,2,12,05,27,244,39,07,65,091,42,08,78,166,43,10,75,006,43*6B
$BDGSV,3,3,12,11,61,016,44,13,53,202,42,14,00,000,34,23,56,310,44*6B
$B3CN0,0,19,0,0,0,0,28,0,0,0,31,0,0,0*7C
---00000020--- Acq_st=3 0  2000-1-12 8:7:42 
[00]  00(G01)  f 45  8  0   -894.0  2046001.1 -0.0  2 0 2861 4278 1966
[01]  02(G03)  f 36  7  0  -3563.1  2046004.5  0.1  2 0  498 1082  474
[02]  06(G07)  f 45  7  0   1231.3  2045998.3 -0.0  2 0 3058 4465 2692
[03]  07(G08)  f 40  7  0   1473.5  2045998.0  0.0  2 0 1485 1507  457
[04]  10(G11)  f 44 12  0    342.0  2045999.5 -0.0  2 0 2053 3442 1459
[05]  17(G18)  f 43  7  0    889.7  2045998.8 -0.1  2 0 1954 2774 1717
[06]  16(G17)  f 37 21  0  -2664.8  2046003.4  0.1  2 0  930 1285  570
[08]  27(G28)  f 41 11  0  -2923.1  2046003.8  0.0  2 0 1673 2597 1543
[09]  29(G30)  f 46  7  0   -931.4  2046001.1 -0.0  2 0 3957 5573 2995
[10]  21(G22)  f 39  7  0  -2773.6  2046003.5  0.1  2 0  950 1603  873
[16]  37(B01) 1f 41 10  0  -1080.1  4092002.7 -0.1  2 0 1554 1968 1118
[17]  38(B02) 1f 41 23  0  -1126.4  4092002.8 -0.4  2 0 2084 2178  958
[18]  39(B03)  7 10 35  1  -1003.3  4092002.7  0.0  2 0  428  201  500
[19]  40(B04) 1f 40 36  0  -1099.6  4092002.7 -0.3  2 0 1812 2073  517
[20]  41(B05) 1f 37 27  0  -1136.2  4092002.8 -0.8  2 0  940 1257  758
[21]  43(B07) 1f 42  8  0  -1216.1  4092003.1  0.0  2 0 1598 2282  653
[22]  44(B08) 1f 43  7  0  -1502.9  4092003.8  0.0  2 0 1600 2415  997
[24]  46(B10) 1f 42  7  0  -1525.7  4092003.9 -0.0  2 0 1586 2260  886
[25]  47(B11) 1f 44  7  0    313.8  4091999.0  0.0  2 0 2429 2928 1080
[26]  49(B13) 1f 42  7  0  -1986.7  4092005.1 -0.0  2 0 2038 2209 1097
[27]  50(B14) 1f 34  7  0  -2953.6  4092007.7  0.1  2 0  894  724  357
[28]  59(B23) 1f 44  7  0  -2661.4  4092006.8 -0.1  2 0 2516 3519 1543
[29]  60(B24) 1f 39  7  0   2085.8  4091994.3 -0.2  2 0  973 1239  319
[30]  61(B25) 1f 45 10  0    396.3  4091998.8  0.0  2 0 2977 3618 1564
[32]  77(N-4)  f 46  7  0  -3468.7  1022002.2 -0.1  2 0  1073 2209  882
[33]  78(N-3)  7 27  7  0   2744.7  1021998.3 -0.0 10 0   195  470  218
[34]  79(N-2)  f 44 22  0    309.5  1021999.8  0.1  2 0   826 1553  939
[35]  81(N00)  f 35  7  0  -5173.4  1022003.3 -0.1  2 0   490  660   73
[36]  82(N01)  f 34 25  0   2792.4  1021998.3  0.0  2 0   590  518  209
[38]  86(N05)  f 47  7  0    720.8  1021999.5 -0.0  2 0  1921 3517 1479
[48]  37(B01)  f 18 23  1   -984.0 20460014.8  0.1  2 0  106   91  247
[51]  40(B04)  1 24 17  1  -1229.7 20460025.1  0.1  1 0  580  798  486
[52]  41(B05)  1 25 25  0   -558.6 20460018.9 -0.1  1 0  379  414  464
[53]  43(B07)  7 28  8  0  -1001.1 20460014.2 -0.0  5 0  726  474  160
[54]  44(B08)  1  7  7  0  -1320.1 20460024.7 -0.0  1 0  260  366  501
[56]  46(B10)  1  7  7  0   -659.8 20460023.8 -0.1  1 0  356  861  501
[57]  47(B11) 1f 30  7  0    239.0 20459995.7  0.0  5 0  441  688  285
[58]  49(B13)  1  7  7  0  -1577.6 20460031.6 -0.1  1 0   15  493  457
[60]  59(B23)  1  7  7  0  -1101.9 20460042.2  0.0  1 0  354  241  223
[61]  60(B24)  1  7  7  0   1356.1 20459965.7  0.1  1 0   68  389  260
[62]  61(B25)  1  7  8  0    876.0 20459992.4 -0.0  1 0  733 1131  552
$GNGGA,080743.000,2944.9067,N,10633.0888,E,1,12,1.1,323.2,M,,,,0000*16
$GNRMC,080743.000,A,2944.9067,N,10633.0888,E,0.17,0.00,120180,,*15
$GPGSA,A,3,,,,,,,,,,,,,1.9,1.1,1.6*3D
$BDGSA,A,3,01,02,04,05,07,08,10,11,13,23,24,25,1.9,1.1,1.6*22
$GLGSA,A,3,,,,,,,,,,,,,1.9,1.1,1.6*21
$GPGSV,3,1,10,01,00,000,45,03,00,000,36,07,00,000,45,08,00,000,40*76
$GPGSV,3,2,10,11,00,000,44,18,00,000,43,17,00,000,37,28,00,000,41*7A
$GPGSV,3,3,10,30,00,000,46,22,00,000,39*73
$BDGSV,3,1,12,01,40,125,40,02,46,219,40,04,23,109,41,05,27,244,37*6E
$BDGSV,3,2,12,07,65,091,43,08,78,166,43,10,75,006,42,11,61,016,44*63
$BDGSV,3,3,12,13,53,202,42,14,00,000,34,23,56,310,44,24,12,145,39*64
$B3CN0,19,0,0,0,0,0,28,0,0,0,30,0,0,0*7D
---00000021--- Acq_st=3 0  2000-1-12 8:7:43 
[00]  00(G01)  f 45  7  0   -890.5  2046001.1  0.0  2 0 3022 4293 1707
[01]  02(G03)  f 37  7  0  -3563.6  2046004.5  0.1  2 0  884 1477  467
[02]  06(G07)  f 44  7  0   1233.8  2045998.3  0.0  2 0 2973 4331 2134
[03]  07(G08)  f 41  7  0   1473.2  2045998.1 -0.0  2 0 1217 1872 1065
[04]  10(G11)  f 44  7  0    345.4  2045999.5  0.0  2 0 2263 3412 2004
[05]  17(G18)  f 44  7  0    895.2  2045998.8 -0.0  2 0 2203 3278 1303
[06]  16(G17)  f 37 18  0  -2660.8  2046003.4  0.1  2 0  954 1356  745
[08]  27(G28)  f 42  7  0  -2918.2  2046003.8  0.0  2 0 1665 2874 1488
[09]  29(G30)  f 46  7  0   -927.5  2046001.1 -0.0  2 0 3460 5688 3097
[10]  21(G22)  f 39  7  0  -2771.1  2046003.5  0.1  2 0  889  915  317
[16]  37(B01) 1f 40 19  0  -1078.9  4092002.7 -0.1  2 0 1501 1547  356
[17]  38(B02) 1f 40 18  0  -1125.1  4092002.8  0.3  2 0 1207 1624  695
[18]  39(B03)  7 22 33  1  -1008.3  4092002.4 -0.0  2 0  597  276  704
[19]  40(B04) 1f 40 24  0  -1096.4  4092002.7 -0.4  2 0  692  843  112
[20]  41(B05) 1f 39 19  0  -1135.1  4092002.9  0.4  2 0  828  875  355
[21]  43(B07) 1f 43  7  0  -1215.0  4092003.1 -0.0  2 0 2169 2706 1152
[22]  44(B08) 1f 43  7  0  -1501.3  4092003.8 -0.0  2 0 1683 1891  457
[24]  46(B10) 1f 43  7  0  -1522.6  4092003.8 -0.1  2 0 1892 2511 1036
[25]  47(B11) 1f 43  7  0    315.0  4091999.1 -0.0  2 0 2320 2767  974
[26]  49(B13) 1f 42  7  0  -1983.7  4092005.1 -0.0  2 0 1689 2091  515
[27]  50(B14) 1f 34  7  0  -2962.1  4092007.6 -0.1  2 0  673  942  425
[28]  59(B23) 1f 44  7  0  -2657.0  4092006.8  0.0  2 0 2580 2991 1251
[29]  60(B24) 1f 38 11  0   2087.6  4091994.4 -0.1  2 0  982 1054  234
[30]  61(B25) 1f 45 12  0    402.6  4091998.8 -0.0  2 0 2699 3132 1194
[32]  77(N-4)  f 46  7  0  -3464.6  1022002.2  0.1  2 0   819 2081 1053
[33]  78(N-3)  7 26  7  0   2750.4  1021998.3  0.1 10 0   443  566   98
[34]  79(N-2)  f 44 21  0    312.1  1021999.7  0.0  2 0   873 1742  752
[35]  81(N00)  f 35  7  0  -5171.7  1022003.3 -0.2  2 0   396  710  283
[36]  82(N01)  f 34 26  0   2794.6  1021998.2 -0.1  2 0   181  670  589
[38]  86(N05)  f 47  7  0    723.3  1021999.5  0.0  2 0  1935 3280 1558
[48]  37(B01)  f 10 14  0  -2018.3 20460030.7  0.2  2 0  643   76  284
[49]  38(B02)  1 16 22  0   -400.3 20460015.8  0.1  1 0  131   53  722
[52]  41(B05)  1 28 22  1   -696.6 20460023.3 -0.0  1 0  533  408  322
[53]  43(B07)  7 28  8  0   -988.2 20460015.0 -0.1  5 0  845 1068 1064
[54]  44(B08)  1  7  7  0  -1806.1 20460024.5 -0.1  1 0  819  776  394
[56]  46(B10)  1  7  7  0   -579.8 20460024.0 -0.0  1 0  192  510  296
[57]  47(B11) 1f 31 10  0    245.5 20459994.7 -0.0  5 0  121  104  715
[58]  49(B13)  1  7  7  0  -1949.7 20460032.0 -0.1  1 0  259  209   94
[60]  59(B23)  1  7  7  0  -1542.2 20460042.8  0.0  1 0  556 1083  761
[61]  60(B24)  1  7  7  0   1594.4 20459966.4 -0.1  1 0  331  267  170
[62]  61(B25)  1  7  7  0   1235.6 20459993.5 -0.0  1 0  338  411  192
$GNGGA,080744.000,2944.9067,N,10633.0888,E,1,12,1.1,322.8,M,,,,0000*1A
$GNRMC,080744.000,A,2944.9067,N,10633.0888,E,0.36,0.00,120180,,*11
$GPGSA,A,3,,,,,,,,,,,,,1.9,1.1,1.6*3D
$BDGSA,A,3,01,02,04,05,07,08,10,11,13,23,24,25,1.9,1.1,1.6*22
$GLGSA,A,3,,,,,,,,,,,,,1.9,1.1,1.6*21
$GPGSV,3,1,10,01,00,000,45,03,00,000,37,07,00,000,44,08,00,000,41*77
$GPGSV,3,2,10,11,00,000,44,18,00,000,44,17,00,000,37,28,00,000,42*7E
$GPGSV,3,3,10,30,00,000,46,22,00,000,39*73
$BDGSV,3,1,12,01,40,125,40,02,46,219,40,03,55,171,21,04,23,109,40*6E
$BDGSV,3,2,12,05,27,244,39,07,65,091,43,08,78,166,43,10,75,006,43*6A
$BDGSV,3,3,12,11,61,016,44,13,53,202,42,14,00,000,34,23,56,310,44*6B
$B3CN0,0,0,0,0,0,0,28,0,0,0,31,0,0,0*44
---00000022--- Acq_st=7 0  2000-1-12 8:7:44 
[00]  00(G01)  f 45  7  0   -896.0  2046001.1 -0.0  2 0 2844 4749 2090
[01]  02(G03)  f 37  7  0  -3567.1  2046004.6  0.1  2 0  383 1378 1133
[02]  06(G07)  f 44  7  0   1228.4  2045998.3 -0.0  2 0 2762 3890 2006
[03]  07(G08)  f 40  7  0   1467.4  2045998.0  0.0  2 0  623 1862 1061
[04]  10(G11)  f 44  9  0    337.0  2045999.5  0.0  2 0 2578 3601 1586
[05]  17(G18)  f 43  7  0    893.6  2045998.8  0.0  2 0 1863 3388 1551
[06]  16(G17)  f 36 20  0  -2671.6  2046003.4 -0.1  2 0  876  490  692
[08]  27(G28)  f 41  7  0  -2926.1  2046003.8  0.0  2 0  902 1816  671
[09]  29(G30)  f 45  7  0   -932.3  2046001.1 -0.0  2 0 3589 5580 2189
[10]  21(G22)  f 38  7  0  -2769.2  2046003.5  0.0  2 0  850 1391 1161
[16]  37(B01) 1f 42 10  0  -1083.7  4092002.7  0.0  2 0 1359 1824  616
[17]  38(B02) 1f 40 24  0  -1129.1  4092002.9  0.3  2 0 1105 1114  177
[18]  39(B03)  7 24 32  1  -1005.2  4092002.6 -0.0  2 0  258  511  744
[19]  40(B04) 1f 39 23  0  -1101.2  4092002.8 -0.9  2 0 1220 1636  503
[20]  41(B05) 1f 38 21  0  -1134.3  4092002.8 -0.2  2 0  984  613   86
[21]  43(B07) 1f 42 12  0  -1218.5  4092003.1  0.1  2 0 1737 1769  529
[22]  44(B08) 1f 43  7  0  -1508.0  4092003.8 -0.0  2 0 1664 2091 1228
[24]  46(B10) 1f 43  7  0  -1528.1  4092003.9 -0.0  2 0 1371 1915  567
[25]  47(B11) 1f 43  7  0    307.7  4091999.1 -0.0  2 0 2634 2691  925
[26]  49(B13) 1f 42  7  0  -1992.0  4092005.1  0.1  2 0 1506 1578  356
[27]  50(B14) 1f 33  7  0  -2970.7  4092007.7 -0.1  2 0  723  805  352
[28]  59(B23) 1f 44  7  0  -2660.9  4092006.8 -0.0  2 0 2688 3201  904
[29]  60(B24) 1f 38  7  0   2084.9  4091994.4 -0.1  2 0  523  770  698
[30]  61(B25) 1f 45 10  0    394.9  4091998.9  0.0  2 0 2793 3752 1848
[32]  77(N-4)  f 45  7  0  -3469.1  1022002.2  0.1  2 0  1141 2120 1115
[33]  78(N-3)  7 27  7  0   2742.8  1021998.1  0.0 10 0    85  134  168
[34]  79(N-2)  f 44 22  0    307.5  1021999.8 -0.1  2 0   745 1352  571
[35]  81(N00)  f 36  7  0  -5178.1  1022003.3  0.0  2 0   233  620  113
