SD initialized success
Create debug.log Failed! 3
bbram_blkflag = 1
rtcflag = 0
BBRAM Block OK: 01 EPHflag: 280315c1 340012cf, rtc 00
Hot-start nowtime:day = 24,minute = 21,seconds = 04.00
GPS Pred_Dopp 1 -2168.17
sv_pvt.vx:132.770172,sv_pvt.vy:-1019.314392,sv_pvt.vz:3027.429932
vel[0]:nan, vel[1]:-1019.314453, vel[2]:3027.429932
-0.599985 0.769785 0.217826,df:-207.730000
BD Pred_Dopp 1 -1072.76
BD Pred_Dopp 2 -1108.30
BD Pred_Dopp 3 -1089.42
BD Pred_Dopp 4 -1084.09
GPS Pred_Dopp 7   184.93
sv_pvt.vx:-564.214905,sv_pvt.vy:531.694580,sv_pvt.vz:-3082.075195
vel[0]:nan, vel[1]:531.694824, vel[2]:-3082.075195
-0.207547 0.970009 0.126515,df:-207.730000
BD Pred_Dopp 7 -1302.05
GPS Pred_Dopp 8  1507.02
sv_pvt.vx:-1679.746460,sv_pvt.vy:-2110.724121,sv_pvt.vz:-729.226807
vel[0]:nan, vel[1]:-2110.724609, vel[2]:-729.226807
-0.598987 -0.034002 0.800037,df:-207.730000
BD Pred_Dopp 8 -1813.89
GPS Pred_Dopp 9  1459.04
sv_pvt.vx:-1379.057739,sv_pvt.vy:-1320.960449,sv_pvt.vz:-2282.307373
vel[0]:nan, vel[1]:-1320.960937, vel[2]:-2282.307373
0.224236 0.651171 -0.725048,df:-207.730000
BD Pred_Dopp 10 -1545.99
GPS Pred_Dopp 11  -644.43
sv_pvt.vx:-449.669617,sv_pvt.vy:-1979.478760,sv_pvt.vz:2099.849854
vel[0]:nan, vel[1]:-1979.479492, vel[2]:2099.849854
-0.434850 0.680915 0.589288,df:-207.730000
GPS Pred_Dopp 13 -1900.57
sv_pvt.vx:1139.200195,sv_pvt.vy:2099.483398,sv_pvt.vz:-1661.724731
vel[0]:nan, vel[1]:2099.484375, vel[2]:-1661.724731
0.786868 -0.011928 0.617006,df:-207.730000
BD Pred_Dopp 13 -2234.90
GPS Pred_Dopp 17 -3131.93
sv_pvt.vx:-260.719086,sv_pvt.vy:-24.410088,sv_pvt.vz:3210.918945
vel[0]:nan, vel[1]:-24.410095, vel[2]:3210.918945
0.688481 0.722808 -0.059519,df:-207.730000
GPS Pred_Dopp 18  -277.99
sv_pvt.vx:407.806427,sv_pvt.vy:-1981.793579,sv_pvt.vz:2250.347900
vel[0]:nan, vel[1]:-1981.793945, vel[2]:2250.347900
-0.695759 0.431087 0.574529,df:-207.730000
BD Pred_Dopp 27  1638.13
GPS Pred_Dopp 28 -2895.64
sv_pvt.vx:-2518.911377,sv_pvt.vy:226.706192,sv_pvt.vz:1144.661865
vel[0]:nan, vel[1]:226.706299, vel[2]:1144.661865
0.521255 0.351946 0.777449,df:-207.730000
BD Pred_Dopp 29 -3041.37
GPS Pred_Dopp 30 -2075.16
sv_pvt.vx:-1013.823059,sv_pvt.vy:1677.171265,sv_pvt.vz:-2214.569580
vel[0]:nan, vel[1]:1677.171875, vel[2]:-2214.569580
0.205066 0.784728 0.584936,df:-207.730000
BD Pred_Dopp 30  -433.75
GPS 0 Init Dop: -2043, 2
GPS 1 Init Dop: 10000,80
GPS 2 Init Dop: 10000,80
GPS 3 Init Dop: 10000,80
GPS 4 Init Dop: 10000,80
GPS 5 Init Dop: 10000,80
GPS 6 Init Dop:   309, 2
GPS 7 Init Dop:  1632, 2
GPS 8 Init Dop:  1584, 2
GPS 9 Init Dop: 10000,80
GPS10 Init Dop:  -519, 2
GPS11 Init Dop: 10000,80
GPS12 Init Dop: -1775, 2
GPS13 Init Dop: 10000,80
GPS14 Init Dop: 10000,80
GPS15 Init Dop: 10000,80
GPS16 Init Dop: -3006, 2
GPS17 Init Dop:  -152, 2
GPS18 Init Dop: 10000,80
GPS19 Init Dop: 10000,80
GPS20 Init Dop: 10000,80
GPS21 Init Dop: 10000,80
GPS22 Init Dop: 10000,80
GPS23 Init Dop: 10000,80
GPS24 Init Dop: 10000,80
GPS25 Init Dop: 10000,80
GPS26 Init Dop: 10000,80
GPS27 Init Dop: -2770, 2
GPS28 Init Dop: 10000,80
GPS29 Init Dop: -1950, 2
GPS30 Init Dop: 10000,80
GPS31 Init Dop: 10000,80
BDS 0 Init Dop:  -947, 2
BDS 1 Init Dop:  -983, 2
BDS 2 Init Dop:  -964, 2
BDS 3 Init Dop:  -959, 2
BDS 4 Init Dop: 10000,80
BDS 5 Init Dop: 10000,80
BDS 6 Init Dop: -1177, 2
BDS 7 Init Dop: -1688, 2
BDS 8 Init Dop: 10000,80
BDS 9 Init Dop: -1420, 2
BDS10 Init Dop: 10000,80
BDS11 Init Dop: 10000,80
BDS12 Init Dop: -2109, 2
BDS13 Init Dop: 10000,80
BDS14 Init Dop: 10000,80
BDS15 Init Dop: 10000,80
BDS16 Init Dop: 10000,80
BDS17 Init Dop: 10000,80
BDS18 Init Dop: 10000,80
BDS19 Init Dop: 10000,80
BDS20 Init Dop: 10000,80
BDS21 Init Dop: 10000,80
BDS22 Init Dop: 10000,80
BDS23 Init Dop: 10000,80
BDS24 Init Dop: 10000,80
BDS25 Init Dop: 10000,80
BDS26 Init Dop:  1763, 2
BDS27 Init Dop: 10000,80
BDS28 Init Dop: -2916, 2
BDS29 Init Dop:  -308, 2
BDS30 Init Dop: 10000,80
BDS31 Init Dop: 10000,80
Good luck!
ch0 satid=0 freq=-2043 acq ok!
ch1 satid=6 freq=59 acq ok!
ch2 satid=7 freq=1632 acq ok!
ch3 satid=10 freq=-769 acq ok!
ch5 satid=17 freq=-152 acq ok!
$GNGGA,000000.000,,,,,0,00,,,M,,,,0000*2B
$GNRMC,000000.000,A,,,,,,,060180,,*29
$GPGSA,A,1,,,,,,,,,,,,,,,*1E
$BDGSA,A,1,,,,,,,,,,,,,,,*0F
$GLGSA,A,1,,,,,,,,,,,,,,,*02
$B3CN0,0,0,0,0,0,0,0,0,0,0,0,0,0,0*4C
---00000001--- Acq_st=3 0  2019-4-24 7:21:5 
[00]  00(G01)  1 26  7  0  -2160.1  2046003.5  0.5  1 0 2288 3745 1940
[01]  06(G07)  1  7  7  0    197.9  2046000.6 -0.1  1 0 2393 4390 2274
[02]  07(G08)  1  7  7  0   1519.2  2045997.9 -0.0  1 0  991 2119  730
[03]  10(G11)  1  7  7  0   -769.0  2046002.7 -0.0  1 0  830  764 2010
[04]  16(G17)  1  7  7  0  -3256.0  2046005.8 -0.0  1 0  377  611 1498
[05]  17(G18)  1  7  7  0   -152.0  2046002.3 -0.1  1 0  427 1634 2927
ch8 satid=27 freq=-2770 acq ok!
ch9 satid=29 freq=-1950 acq ok!
ch18 satid=39 freq=-964 acq ok!
$GNGGA,000000.000,,,,,0,00,,,M,,,,0000*2B
$GNRMC,000000.000,A,,,,,,,060180,,*29
$GPGSA,A,1,,,,,,,,,,,,,,,*1E
$BDGSA,A,1,,,,,,,,,,,,,,,*0F
$GLGSA,A,1,,,,,,,,,,,,,,,*02
$B3CN0,0,0,0,0,0,0,0,0,0,0,0,0,0,0*4C
---00000002--- Acq_st=3 0  2019-4-24 7:21:6 
[00]  00(G01)  7 26  7  0  -2162.3  2046002.7  0.6 10 0 2195 3529 1626
[01]  06(G07)  1 35  7  0    187.5  2045999.5  1.0  1 0 2592 3685 2153
[02]  07(G08)  1 30  7  0   1509.3  2045998.1  1.0  1 0  945 1922  818
[03]  10(G11)  1 30  7  0   -641.7  2046000.9  0.8  1 0 2647 2918  694
[04]  16(G17)  1 29  8  0  -3133.7  2046004.7  0.4  1 0  755 1260  490
[05]  17(G18)  1 27  7  0   -273.8  2046000.6  0.6  1 0 2773 3545 1683
[06]  21(G22)  1  7  7  0  -3028.1  2046004.3 -0.1  1 0  283  362  276
[08]  27(G28)  1  7  7  0  -2770.0  2046003.9  0.0  1 0  874  622  614
[09]  29(G30)  1  7  7  0  -1950.0  2046005.0 -0.0  1 0  283  874 3586
[16]  37(B01)  1 18 21  0  -1197.0  4092005.0  0.1  1 0  663  540 1524
[17]  38(B02)  1 10 10  0  -1233.0  4092005.4  0.0  1 0  269  480 1389
[18]  39(B03)  1 10 29  1   -964.0  4092003.3  0.1  1 0  192  214 1670
[19]  40(B04)  1 25 10  0  -1209.0  4092004.9  0.0  1 0  474  610 1141
ch20 satid=43 freq=-1177 acq ok!
ch21 satid=44 freq=-1938 acq ok!
ch22 satid=46 freq=-1670 acq ok!
ch24 satid=49 freq=-2109 acq ok!
$GNGGA,000000.000,,,,,0,00,,,M,,,,0000*2B
$GNRMC,000000.000,A,,,,,,,060180,,*29
$GPGSA,A,1,,,,,,,,,,,,,,,*1E
$BDGSA,A,1,,,,,,,,,,,,,,,*0F
$GLGSA,A,1,,,,,,,,,,,,,,,*02
$GPGSV,1,1,01,01,00,000,26*4D
$B3CN0,0,0,0,0,0,0,0,0,0,0,0,0,0,0*4C
---00000003--- Acq_st=3 0  2019-4-24 7:21:7 
[00]  00(G01)  7 44  7  0  -2155.3  2046002.7  0.0  2 0 2585 4213 2103
[01]  06(G07)  7 40  7  0    198.3  2045999.7  0.1  2 0 2503 3476 1912
[02]  07(G08)  7 39  7  0   1516.8  2045998.0  0.0  2 0 1244 2464 1040
[03]  10(G11)  7 35  7  0   -635.8  2046000.7  0.2  2 0 1835 2502 1654
[04]  16(G17)  7 28  7  0  -3123.7  2046003.9  0.9 10 0  556 1536  894
[05]  17(G18)  7 29  7  0   -266.4  2046000.2  0.5 10 0 2538 3022  786
[06]  21(G22)  1 17 11  0  -3029.6  2046006.1  0.0  1 0  586  467 1011
[08]  27(G28)  1  7  7  0  -2374.5  2046006.3 -0.0  1 0  411  646 1109
[09]  29(G30)  1 34 12  0  -2066.0  2046002.9  0.6  1 0 3900 4740 1983
[16]  37(B01)  1 10 10  1  -1066.4  4092003.6  0.4  1 0  958 1232  321
[17]  38(B02)  1 10 19  1  -1101.3  4092003.6  0.4  1 0  905 1124  396
[18]  39(B03)  1 36 32  1  -1077.0  4092003.5  0.3  1 0  606  961 1865
[19]  40(B04)  1 39 24  0  -1077.4  4092003.2  0.9  1 0 1332 1366  592
[20]  43(B07)  1  7  7  0  -1296.6  4092004.5 -0.1  1 0  936 2352 1587
[21]  44(B08)  1  7  7  0  -1805.7  4092008.2  0.1  1 0  373 1330 2360
[22]  46(B10)  1 12  7  0  -1539.2  4092005.4  0.1  1 0 1134 2546 1567
[24]  49(B13)  1  7  7  0  -2109.0  4092005.2  0.0  1 0  320  192   96
$GNGGA,000000.000,,,,,0,00,,,M,,,,0000*2B
$GNRMC,000000.000,A,,,,,,,060180,,*29
$GPGSA,A,1,,,,,,,,,,,,,,,*1E
$BDGSA,A,1,,,,,,,,,,,,,,,*0F
$GLGSA,A,1,,,,,,,,,,,,,,,*02
$GPGSV,2,1,06,01,00,000,44,07,00,000,40,08,00,000,39,11,00,000,35*7A
$GPGSV,2,2,06,17,00,000,28,18,00,000,29*71
$B3CN0,0,0,0,0,0,0,0,0,0,0,0,0,0,0*4C
---00000004--- Acq_st=3 0  2019-4-24 7:21:8 
[00]  00(G01)  7 43  7  0  -2157.4  2046002.7 -0.0  2 0 2747 3461 1563
[01]  06(G07)  7 45  7  0    195.5  2045999.7 -0.1  2 0 2591 3529 1293
[02]  07(G08)  7 41  7  0   1516.6  2045998.0  0.1  2 0 1309 2270  972
[03]  10(G11)  7 43  7  0   -632.2  2046000.7 -0.0  2 0 2375 2982 1249
[04]  16(G17)  7 37  7  0  -3125.3  2046004.0  0.2  2 0  751 1681 1354
[05]  17(G18)  7 44  7  0   -267.5  2046000.3  0.0  2 0 2279 2852  962
[06]  21(G22)  7 20  7  0  -3029.4  2046003.8  0.4 10 0  701 1000  589
[08]  27(G28)  1  7  7  0  -2389.3  2046004.2  0.2  1 0 1229 1569 1094
[09]  29(G30)  7 33  7  0  -2065.3  2046002.6  0.4  5 0 3530 4873 1856
[16]  37(B01)  f 39 18  0  -1063.2  4092002.5  0.0  2 0 1505 1312  211
[17]  38(B02)  f 38 27  0  -1104.8  4092002.6  0.8  2 0 1126  838   90
[18]  39(B03)  7 32 32  1   -996.1  4092002.8 -0.0  2 0  290  768 2157
[19]  40(B04)  f 38 20  0  -1076.1  4092002.6  0.3  2 0 1210 1047  533
[20]  43(B07)  7 19  7  0  -1295.1  4092003.3  0.4 10 0 1717 2060  689
[21]  44(B08)  7 19  7  0  -1808.7  4092004.5  0.4 10 0 2019 2489 1031
[22]  46(B10)  1 45  7  0  -1538.2  4092003.6  1.0  1 0 1677 2735 1463
[24]  49(B13)  1 10  7  0  -1911.5  4092004.7 -0.1  1 0  467   63  233
ch25 satid=63 freq=1513 acq ok!
$GNGGA,000000.000,,,,,0,00,,,M,,,,0000*2B
$GNRMC,000000.000,A,,,,,,,060180,,*29
$GPGSA,A,1,,,,,,,,,,,,,,,*1E
$BDGSA,A,1,,,,,,,,,,,,,,,*0F
$GLGSA,A,1,,,,,,,,,,,,,,,*02
$GPGSV,2,1,08,01,00,000,43,07,00,000,45,08,00,000,41,11,00,000,43*78
$GPGSV,2,2,08,17,00,000,37,18,00,000,44,22,00,000,19,30,00,000,33*71
$BDGSV,2,1,06,01,00,000,39,02,00,000,37,03,00,000,32,04,00,000,37*62
$BDGSV,2,2,06,07,00,000,19,08,00,000,19*61
$B3CN0,0,0,0,0,0,0,0,0,0,0,0,0,0,0*4C
---00000005--- Acq_st=3 0  2019-4-24 7:21:9 
[00]  00(G01)  7 42  7  0  -2147.8  2046002.7  0.0  2 0 2499 3478 1450
[01]  06(G07)  7 45  7  0    203.1  2045999.7  0.0  2 0 2512 3526 1775
[02]  07(G08)  7 42  7  0   1520.2  2045998.0 -0.1  2 0 1397 2347  709
[03]  10(G11)  7 43  7  0   -624.7  2046000.7 -0.0  2 0 2269 2373  867
[04]  16(G17)  7 38  7  0  -3117.5  2046004.0 -0.0  2 0 1545 1723  940
[05]  17(G18)  7 43  7  0   -262.2  2046000.3  0.1  2 0 2234 3056 1058
[06]  21(G22)  7 37  7  0  -3024.8  2046003.8 -0.8  2 0  977 1101  269
[08]  27(G28)  1  7  7  0  -2386.9  2046003.4 -0.2  1 0 1484 1591 1148
[09]  29(G30)  7 45  7  0  -2058.3  2046002.6 -0.1  2 0 2623 3831 1451
[16]  37(B01) 1f 40 23  0  -1063.5  4092002.6  0.7  2 0 1114  732  206
[17]  38(B02) 1f 38 26  0  -1093.5  4092002.6  0.1  2 0 1322  874  371
[18]  39(B03)  7 32 32  1  -1005.7  4092002.6 -0.0  2 0  537  635 1809
[19]  40(B04) 1f 38 23  0  -1071.9  4092002.5 -0.5  2 0 1235 1126  169
[20]  43(B07)  7 43  7  0  -1289.4  4092003.3 -0.1  2 0 1591 1858 1092
[21]  44(B08)  7 42  7  0  -1804.0  4092004.5 -0.0  2 0 1688 1487  315
[22]  46(B10)  7 43  8  0  -1531.5  4092003.9  0.1  2 0 1645 2308 1137
[24]  49(B13)  1 11  7  0  -1898.0  4092005.6  0.2  1 0  412  292  128
[25]  63(B27)  1  7  7  0   1513.0  4091995.6 -0.0  1 0 2102 1935 1013
[48]  37(B01)  1 10 18  0   -789.0 20460019.2 -0.2  1 0  548  298  313
[49]  38(B02)  1 20 19  1   -700.9 20460021.9 -0.1  1 0  630  279  656
[51]  40(B04)  1 23 10  1   -893.1 20460015.9 -0.1  1 0  487  120  163
ch26 satid=65 freq=-3166 acq ok!
ch27 satid=66 freq=-308 acq ok!
ch32 satid=78 freq=2000 acq ok!
ch33 satid=79 freq=-1250 acq ok!
$GNGGA,000000.000,,,,,0,00,,,M,,,,0000*2B
$GNRMC,000000.000,A,,,,,,,060180,,*29
$GPGSA,A,1,,,,,,,,,,,,,,,*1E
$BDGSA,A,1,,,,,,,,,,,,,,,*0F
$GLGSA,A,1,,,,,,,,,,,,,,,*02
$GPGSV,2,1,08,01,00,000,42,07,00,000,45,08,00,000,42,11,00,000,43*7A
$GPGSV,2,2,08,17,00,000,38,18,00,000,43,22,00,000,37,30,00,000,45*74
$BDGSV,2,1,07,01,00,000,40,02,00,000,38,03,00,000,31,04,00,000,38*6E
$BDGSV,2,2,07,07,00,000,43,08,00,000,42,10,00,000,43*57
$B3CN0,0,0,0,0,0,0,0,0,0,0,0,0,0,0*4C
---00000006--- Acq_st=3 0  2019-4-24 7:21:10 
[00]  00(G01)  7 42  7  0  -2156.9  2046002.7 -0.0  2 0 2789 4264 2027
[01]  06(G07)  7 44  8  0    199.4  2045999.7 -0.0  2 0 2618 4435 2045
[02]  07(G08)  7 41  7  0   1516.2  2045998.0 -0.0  2 0 1134 2452 1557
[03]  10(G11)  7 43  7  0   -628.1  2046000.7  0.0  2 0 1487 2466  997
[04]  16(G17)  7 38  7  0  -3119.5  2046003.9 -0.1  2 0  493 1157  904
[05]  17(G18)  7 43  7  0   -264.7  2046000.3 -0.0  2 0 2432 3430 2004
[06]  21(G22)  7 37  9  0  -3026.0  2046003.8  0.1  2 0 1406 1399  578
[08]  27(G28)  1  7  7  0  -2389.2  2046003.7  0.0  1 0  693 1716 1152
[09]  29(G30)  7 45  8  0  -2059.5  2046002.6 -0.0  2 0 3412 4369 1644
[16]  37(B01) 1f 40 13  0  -1064.3  4092002.6 -0.5  2 0 1234 1159  430
[17]  38(B02) 1f 40 26  0  -1099.7  4092002.6 -0.4  2 0  887  649  280
[18]  39(B03)  7 31 31  1  -1005.2  4092002.5  0.1  2 0  405  938 2016
[19]  40(B04) 1f 39 23  0  -1076.6  4092002.7  0.1  2 0 1070 1571  865
[20]  43(B07)  7 43  7  0  -1295.7  4092003.3  0.0  2 0 1296 1756 1009
[21]  44(B08)  7 41  7  0  -1802.3  4092004.6 -0.0  2 0 1461 2196 1263
[22]  46(B10)  7 43  7  0  -1535.1  4092003.9  0.0  2 0 1938 2820 1333
[24]  49(B13)  1  7  7  0  -2576.7  4092005.6  0.1  1 0  304  239  239
[25]  63(B27)  1  7  7  0   1640.3  4091995.2  0.1  1 0 2025 2693 1309
[26]  65(B29)  1  7  7  0  -3036.1  4092007.9  0.1  1 0 1629 2492  788
[27]  66(B30)  1  7  7  0   -378.7  4092000.0 -0.1  1 0  217  379  131
[32]  78(N-3)  1 17  7  0   2000.4  1022001.7  0.0  1 0   384  789 2016
[33]  79(N-2)  1  7  7  0  -1102.9  1022002.0 -0.0  1 0   296  470 1457
[48]  37(B01)  1 10 10  1  -1433.3 20460020.1  0.0  1 0  286  105  351
[49]  38(B02)  1 16 21  0   -345.5 20460019.1  0.1  1 0  364  666  741
[51]  40(B04)  1 23 21  1  -1361.9 20460023.2 -0.2  1 0  121  334  271
ch34 satid=82 freq=2500 acq ok!
ch35 satid=83 freq=-250 acq ok!
$GNGGA,000000.000,,,,,0,00,,,M,,,,0000*2B
$GNRMC,000000.000,A,,,,,,,060180,,*29
$GPGSA,A,1,,,,,,,,,,,,,,,*1E
$BDGSA,A,1,,,,,,,,,,,,,,,*0F
$GLGSA,A,1,,,,,,,,,,,,,,,*02
$GPGSV,2,1,08,01,00,000,42,07,00,000,44,08,00,000,41,11,00,000,43*78
$GPGSV,2,2,08,17,00,000,38,18,00,000,43,22,00,000,37,30,00,000,45*74
$BDGSV,2,1,07,01,00,000,39,02,00,000,40,03,00,000,31,04,00,000,39*6E
$BDGSV,2,2,07,07,00,000,43,08,00,000,41,10,00,000,43*54
$B3CN0,0,0,0,0,0,0,0,0,0,0,0,0,0,0*4C
---00000007--- Acq_st=7 0  2019-4-24 7:21:11 
[00]  00(G01)  7 43  7  0  -2146.6  2046002.7  0.0  2 0 2157 3309 1218
[01]  06(G07)  7 44  7  0    203.8  2045999.7 -0.0  2 0 2955 3785 1854
[02]  07(G08)  7 42  7  0   1522.4  2045997.9  0.0  2 0  920 1832  573
[03]  10(G11)  7 43  9  0   -624.4  2046000.7 -0.0  2 0 2041 2537 1135
[04]  16(G17)  7 38  7  0  -3119.7  2046004.0 -0.0  2 0 1384 1925  694
[05]  17(G18)  7 44  7  0   -257.0  2046000.3  0.1  2 0 1815 2753 1119
[06]  21(G22)  7 37 10  0  -3021.2  2046003.8 -0.1  2 0  867 1276  734
[09]  29(G30)  7 45  7  0  -2055.9  2046002.6  0.0  2 0 2843 4250 1728
[16]  37(B01) 1f 38 19  0  -1057.5  4092002.6  0.6  2 0 1556 1683  778
[17]  38(B02) 1f 38 28  0  -1094.4  4092002.6 -0.0  2 0 1280 1399  863
[18]  39(B03)  7 28 30  1   -983.7  4092002.5  0.1  2 0  154  670 1875
[19]  40(B04) 1f 38 22  0  -1074.1  4092002.8 -0.1  2 0  734 1270  583
[20]  43(B07)  7 42  7  0  -1284.4  4092003.2  0.0  2 0 1482 2210 1394
[21]  44(B08)  7 41  7  0  -1800.9  4092004.5  0.0  2 0 2090 2384 1176
[22]  46(B10)  7 43 10  0  -1533.1  4092003.9 -0.0  2 0 1639 2179  710
[24]  49(B13)  1  7  7  0  -3028.0  4092005.0 -0.0  1 0  588  534  140
[25]  63(B27)  7 29  7  0   1649.5  4091995.6  0.2  5 0 1284 2479 1487
[26]  65(B29)  7 26  7  0  -3030.0  4092007.9  0.2 10 0 2162 2770 1560
[27]  66(B30)  1  7  7  0   -253.2  4092000.0 -0.0  1 0  111  348  551
[32]  78(N-3)  1 24 12  0   1914.7  1021998.8  1.0  1 0  1882 2405  898
[33]  79(N-2)  1 33 18  0  -1359.4  1022001.4  1.0  1 0   964 1698  883
[34]  82(N01)  1 25 23  0   2471.6  1021998.8  0.4  1 0   623 1149  555
[35]  83(N02)  1 26 23  0   -368.3  1022001.5  0.4  1 0   741 1574  875
[48]  37(B01)  1 18 14  0  -1680.1 20460016.4  0.0  1 0  545  151  223
[49]  38(B02)  1 19 10  1   -575.4 20460024.8 -0.1  1 0  199  664  579
[51]  40(B04)  1 19 18  0  -1604.1 20460017.2 -0.2  1 0  173  644  637
$GNGGA,000000.000,,,,,0,00,,,M,,,,0000*2B
$GNRMC,000000.000,A,,,,,,,060180,,*29
$GPGSA,A,1,,,,,,,,,,,,,,,*1E
$BDGSA,A,1,,,,,,,,,,,,,,,*0F
$GLGSA,A,1,,,,,,,,,,,,,,,*02
$GPGSV,2,1,08,01,00,000,43,07,00,000,44,08,00,000,42,11,00,000,43*7A
$GPGSV,2,2,08,17,00,000,38,18,00,000,44,22,00,000,37,30,00,000,45*73
$BDGSV,3,1,09,01,00,000,38,02,00,000,38,03,00,000,29,04,00,000,38*67
$BDGSV,3,2,09,07,00,000,42,08,00,000,41,10,00,000,43,27,00,000,29*64
$BDGSV,3,3,09,29,00,000,26*5E
$B3CN0,0,0,0,0,0,0,0,0,0,0,0,0,0,0*4C
---00000008--- Acq_st=3 0  2019-4-24 7:21:12 
[00]  00(G01)  7 43  7  0  -2154.4  2046002.7 -0.1  2 0 2461 3434 1582
[01]  06(G07)  7 44  8  0    202.0  2045999.7 -0.0  2 0 3189 4477 2173
[02]  07(G08)  7 42  7  0   1520.1  2045998.0 -0.0  2 0  592 1748 1021
[03]  10(G11)  7 43  7  0   -627.3  2046000.7  0.0  2 0 1904 2916 1387
[04]  16(G17)  7 38  7  0  -3116.1  2046003.9  0.2  2 0  640 1194  757
[05]  17(G18)  7 43  7  0   -259.3  2046000.3 -0.0  2 0 2113 3036 1500
[06]  21(G22)  7 37  7  0  -3018.0  2046003.8  0.8  2 0  654 1152  862
[08]  02(G03)  1 12  7  0  -2844.8  2046005.3  0.0  1 0  334  412  861
[09]  29(G30)  7 45  7  0  -2059.3  2046002.6  0.0  2 0 2811 4516 2044
[16]  37(B01) 1f 39 21  0  -1061.6  4092002.7 -0.4  2 0 1109 1057  556
[17]  38(B02) 1f 38 10  0  -1095.5  4092002.7 -0.7  2 0  866  965  325
[18]  39(B03)  7 27 34  1  -1000.7  4092002.6 -0.1  2 0  592  577 1600
[19]  40(B04) 1f 39 24  0  -1071.2  4092002.6 -0.0  2 0 1587 1632  775
[20]  43(B07)  7 42  7  0  -1292.4  4092003.3 -0.0  2 0 1767 1878  435
[21]  44(B08)  7 42  7  0  -1803.1  4092004.6  0.0  2 0 1215 1460  535
[22]  46(B10)  7 42  7  0  -1532.3  4092003.9  0.0  2 0 1532 2351 1152
[25]  63(B27)  7 43  7  0   1651.5  4091995.6 -0.1  2 0 1013 1819  958
[26]  65(B29)  7 44  7  0  -3032.7  4092007.9  0.1  2 0 1294 2282  915
[27]  66(B30)  1 12  7  0   -235.1  4092000.1 -0.1  1 0  376  338  380
[32]  78(N-3)  7 47  7  0   1911.6  1021998.7  0.0  2 0  1599 2175  911
[33]  79(N-2)  7 42 15  0  -1362.0  1022000.8  0.2  2 0   697 1458 1112
[34]  82(N01)  7 27 19  0   2467.0  1021998.3  0.7 10 0   373  692  463
[35]  83(N02)  7 25 14  0   -371.3  1022000.1  0.7 10 0  1112 1576  826
[48]  37(B01)  1 14 18  0  -2144.4 20460024.7  0.1  1 0   58  489  502
[49]  38(B02)  1 16 19  0  -1140.5 20460021.5  0.1  1 0  469  169  517
[51]  40(B04)  1 36 19  0   -643.2 20460019.4  0.1  1 0  816  558  458
ch11 satid=27 freq=-3000 acq ok!
$GNGGA,072113.537,2944.9053,N,10633.0893,E,1,10,1.6,331.0,M,,,,0000*10
$GNRMC,072113.537,A,2944.9053,N,10633.0893,E,0.35,0.00,090180,,*1D
$GPGSA,A,3,01,07,08,11,17,18,30,,,,,,2.4,1.6,1.8*38
$BDGSA,A,3,01,02,04,,,,,,,,,,2.4,1.6,1.8*2C
$GLGSA,A,3,,,,,,,,,,,,,2.4,1.6,1.8*26
$GPGSV,2,1,08,01,00,000,43,07,00,000,44,08,00,000,42,11,00,000,43*7A
$GPGSV,2,2,08,17,00,000,38,18,00,000,43,22,00,000,37,30,00,000,45*74
$BDGSV,3,1,09,01,00,000,39,02,00,000,38,03,00,000,27,04,00,000,39*69
$BDGSV,3,2,09,07,00,000,42,08,00,000,42,10,00,000,42,27,00,000,43*6A
$BDGSV,3,3,09,29,00,000,44*5A
$B3CN0,0,0,0,0,0,0,0,0,0,0,0,0,0,0*4C
---00000009--- Acq_st=3 0  2000-1-9 7:21:14 
[00]  00(G01)  f 43  7  0  -2150.8  2046002.7 -0.0  2 0 2003 3518 1213
[01]  06(G07)  f 44  7  0    203.9  2045999.7  0.0  2 0 3105 4183 1777
[02]  07(G08)  f 42  7  0   1516.4  2045998.0 -0.0  2 0  991 2273  759
[03]  10(G11)  f 43  8  0   -625.5  2046000.7 -0.1  2 0 1968 3173 1788
[04]  16(G17)  f 37  7  0  -3112.8  2046003.9  0.2  2 0  728 1638 1420
[05]  17(G18)  f 43  7  0   -259.9  2046000.3  0.1  2 0 1757 2698 1368
[06]  21(G22)  f 37  7  0  -3027.7  2046003.8 -0.0  2 0  700  657  423
[08]  02(G03)  1  7 11  0  -2920.1  2046005.3  0.1  1 0  259  400  650
[09]  29(G30)  f 45  7  0  -2056.7  2046002.6  0.0  2 0 3519 4525 2063
[10]  18(G19)  1  7 13  0  -3958.2  2046006.9 -0.1  1 0  677  405 1009
[11]  27(G28)  1  7  7  0  -3000.0  2046005.5 -0.0  1 0  554  754 2316
[16]  37(B01) 1f 39 10  0  -1062.8  4092002.7 -0.4  2 0  855 1226  453
[17]  38(B02) 1f 38 25  0  -1095.2  4092002.8 -0.7  2 0  988 1540  633
[18]  39(B03)  7 25 31  1  -1007.6  4092002.5 -0.1  2 0  182  359 1521
[19]  40(B04) 1f 39 19  0  -1072.7  4092002.6 -0.4  2 0 1018  694  362
[20]  43(B07)  7 42  7  0  -1287.8  4092003.3 -0.1  2 0 1483 2118 1260
[21]  44(B08)  7 42  7  0  -1803.5  4092004.6 -0.0  2 0 1634 1914 1133
[22]  46(B10)  7 43  7  0  -1536.2  4092003.9 -0.0  2 0 1565 2175 1231
[25]  63(B27)  7 42  7  0   1651.5  4091995.6  0.0  2 0 1500 2347 1014
[26]  65(B29)  7 43 11  0  -3029.7  4092007.9 -0.0  2 0 1488 2828 1250
[27]  66(B30)  1  7  9  0   -141.5  4092000.3 -0.2  1 0  417  267  362
[32]  78(N-3)  7 47  8  0   1913.6  1021998.7 -0.0  2 0  1802 2417  973
[33]  79(N-2)  7 44 19  0  -1359.5  1022000.8 -0.1  2 0   808 1228  772
[34]  82(N01)  7 40 24  0   2468.1  1021998.3 -0.6  2 0   655 1051  588
[35]  83(N02)  7 44 26  0   -368.0  1022000.2  0.1  2 0  1311 2154 1150
[49]  38(B02)  f 18 14  1  -1040.1 20460018.6 -0.0  2 0  485  169  578
---00000010--- Acq_st=3 0  2000-1-9 7:21:14 
[00]  00(G01)  f 43  8  0  -2146.5  2046002.7  0.0  2 0 2856 3983 1962
[01]  06(G07)  f 45  7  0    207.6  2045999.7  0.0  2 0 2957 3918 1901
[02]  07(G08)  f 41  7  0   1525.6  2045998.0 -0.0  2 0 1457 1982  712
[03]  10(G11)  f 43  7  0   -621.0  2046000.7  0.0  2 0 2026 2954 2102
[04]  16(G17)  f 37  7  0  -3105.7  2046004.0  0.1  2 0 1092 1130  330
[05]  17(G18)  f 43  7  0   -251.5  2046000.3 -0.0  2 0 1973 3210 1392
[06]  21(G22)  f 35  9  0  -3020.4  2046003.8 -0.4  2 0  667  697  288
[08]  02(G03)  1  7  7  0  -2653.6  2046005.3  0.2  1 0  555  378  194
[09]  29(G30)  f 44  7  0  -2052.5  2046002.6  0.0  2 0 3466 4631 2306
[10]  18(G19)  1 27  7  0  -4091.1  2046005.7  0.4  1 0  817  763  669
[11]  27(G28)  1 30  8  0  -2884.8  2046004.1  0.7  1 0 1183 2145 1005
[16]  37(B01) 1f 38 10  0  -1055.3  4092002.6  0.6  2 0  425  750  308
[17]  38(B02) 1f 39 21  0  -1089.9  4092002.7 -0.1  2 0 1162 1451  873
[18]  39(B03)  7 24 33  1  -1009.7  4092002.7 -0.1  2 0  562  622 1688
[19]  40(B04) 1f 39 20  0  -1068.4  4092002.6 -0.2  2 0  663  580  144
[20]  43(B07)  7 42  7  0  -1286.0  4092003.3  0.1  2 0 2055 2158  871
[21]  44(B08)  7 42  7  0  -1800.7  4092004.6 -0.0  2 0 1471 2187 1040
[22]  46(B10)  7 43  8  0  -1526.1  4092003.9  0.0  2 0 1891 2088  846
[25]  63(B27)  7 43  7  0   1652.8  4091995.6  0.0  2 0 1404 1847  683
[26]  65(B29)  7 43  7  0  -3026.2  4092007.8 -0.0  2 0 1688 2277 1469
[32]  78(N-3)  7 48 12  0   1919.9  1021998.7 -0.0  2 0  1328 2062 1138
[33]  79(N-2)  7 44 18  0  -1353.3  1022000.8 -0.1  2 0   889 1463  677
[34]  82(N01)  7 40 24  0   2474.6  1021998.3 -0.7  2 0   436  885  475
[35]  83(N02)  7 45 28  0   -362.4  1022000.1  0.1  2 0   577 1720 1191
[48]  37(B01)  1 10 18  0  -1602.6 20460014.4  0.1  1 0  201   23  451
[49]  38(B02)  f 10 10  0  -1438.8 20460024.3 -0.1  2 0  354  147  481
[51]  40(B04)  1 25 25  0  -1161.3 20460023.0 -0.2  1 0  147  486  603
calculate DOP row 0,[  0.21  -0.97  -0.12   1.00]
calculate DOP row 1,[ -0.20  -0.79  -0.58   1.00]
calculate DOP row 2,[  0.60  -0.77  -0.22   1.00]
calculate DOP row 3,[  0.44  -0.68  -0.59   1.00]
calculate DOP row 4,[  0.70  -0.43  -0.58   1.00]
calculate DOP row 5,[  0.60   0.04  -0.80   1.00]
calculate DOP row 6,[  0.81  -0.58   0.06   0.00]
calculate DOP row 7,[  0.97  -0.23   0.07   0.00]
calculate DOP row 8,[ -0.16  -0.98   0.10   0.00]
calculate DOP row 9,[ -0.69  -0.72   0.06   1.00]
DOP:  0.38   0.74   2.79   1.19
Refix G01: 2, 285692.931520, -2151
Refix G07: 2, 285692.932043, 200
Refix G08: 2, 285692.923902, 1516
Refix G09: 2, 285692.917040, 1464
Refix G11: 2, 285692.932213, -628
Refix G13: 2, 285692.916256, -1886
Refix G17: 2, 285692.921940, -3121
Refix G18: 2, 285692.930766, -260
Refix G28: 2, 285692.924103, -2887
Refix G30: 2, 285692.931017, -2059
$GNGGA,072115.000,2944.9046,N,10633.0904,E,1,10,1.5,328.5,M,,,,0000*12
$GNRMC,072115.000,A,2944.9046,N,10633.0904,E,0.35,0.00,090180,,*11
$GPGSA,A,3,01,07,08,11,17,18,30,,,,,,2.0,1.5,1.3*34
$BDGSA,A,3,01,02,04,,,,,,,,,,2.0,1.5,1.3*20
$GLGSA,A,3,,,,,,,,,,,,,2.0,1.5,1.3*2A
$GPGSV,2,1,08,01,00,000,43,07,00,000,45,08,00,000,41,11,00,000,43*78
$GPGSV,2,2,08,17,00,000,37,18,00,000,43,22,00,000,35,30,00,000,44*78
$BDGSV,3,1,09,01,00,000,38,02,00,000,39,03,00,000,24,04,00,000,39*6A
$BDGSV,3,2,09,07,00,000,42,08,00,000,42,10,00,000,43,27,00,000,43*6B
$BDGSV,3,3,09,29,00,000,43*5D
$B3CN0,0,0,0,0,0,0,0,0,0,0,0,0,0,0*4C
---00000011--- Acq_st=3 0  2000-1-9 7:21:15 
[00]  00(G01)  f 43  7  0  -2152.2  2046002.7 -0.0  2 0 2133 3154 1139
[01]  06(G07)  f 45  7  0    201.1  2045999.7  0.0  2 0 2413 3846 1870
[02]  07(G08)  f 42  7  0   1516.3  2045998.0 -0.0  2 0 1352 1826 1030
[03]  10(G11)  f 43  7  0   -628.7  2046000.7 -0.0  2 0 2427 2845 1466
[04]  16(G17)  f 38  7  0  -3121.4  2046004.0  0.1  2 0 1294 1573 1260
[05]  17(G18)  f 43  7  0   -260.5  2046000.3  0.0  2 0 1968 3278 1588
[06]  21(G22)  f 37  7  0  -3022.5  2046003.9 -0.5  2 0  848 1522 1006
[08]  02(G03)  1  7  7  0  -2698.3  2046004.5  0.0  1 0  450  284  205
[09]  29(G30)  f 44  7  0  -2056.8  2046002.6  0.0  2 0 2432 4275 2433
[10]  18(G19)  7 22  7  0  -4087.8  2046005.1  0.4 10 0  823  711  209
[11]  27(G28)  7 32  7  0  -2889.3  2046003.6  0.3  5 0  882 1525  949
[16]  37(B01) 1f 40 22  0  -1060.3  4092002.5 -0.8  2 0 1314 1544  280
[17]  38(B02) 1f 39 22  0  -1099.2  4092002.8 -0.1  2 0 1138 1080  100
[18]  39(B03)  7 25 32  1  -1003.5  4092002.6  0.1  2 0  117  392 1217
[19]  40(B04) 1f 39 26  0  -1075.5  4092002.8 -0.2  2 0  847 1234  684
[20]  43(B07) 1f 41  7  0  -1292.4  4092003.3 -0.0  2 0 1615 1989  740
[21]  44(B08) 1f 42  7  0  -1804.2  4092004.6  0.0  2 0  920 1542  492
[22]  46(B10) 1f 42  7  0  -1535.1  4092003.9 -0.0  2 0 1496 2199  965
[25]  63(B27) 1f 42  7  0   1648.1  4091995.6  0.0  2 0 1570 1783  396
[26]  65(B29) 1f 43  7  0  -3031.2  4092007.8 -0.0  2 0 1758 1776  705
[32]  78(N-3)  7 48  7  0   1912.4  1021998.7  0.0  2 0  1639 2415  922
[33]  79(N-2)  7 44 13  0  -1359.1  1022000.8  0.0  2 0  1037 1517  678
[34]  82(N01)  7 40 24  0   2467.0  1021998.4  0.0  2 0   693  730   86
[35]  83(N02)  7 45 27  0   -367.1  1022000.2  0.1  2 0  1290 2089 1176
[48]  37(B01)  1 36 21  0  -1606.7 20460018.4 -0.0  1 0  428  515  336
[49]  38(B02)  f 20 10  1  -1897.7 20460030.8 -0.1  2 0  337  354  465
[51]  40(B04)  1 25 23  1   -458.3 20460019.9  0.1  1 0  454  250  353
calculate DOP row 0,[  0.21  -0.97  -0.12   1.00]
calculate DOP row 1,[ -0.20  -0.79  -0.58   1.00]
calculate DOP row 2,[  0.44  -0.68  -0.59   1.00]
calculate DOP row 3,[  0.70  -0.43  -0.58   1.00]
calculate DOP row 4,[  0.60  -0.77  -0.22   1.00]
calculate DOP row 5,[  0.19  -0.63  -0.75   0.00]
calculate DOP row 6,[ -0.45  -0.89   0.02   0.00]
calculate DOP row 7,[  0.61  -0.59  -0.53   0.00]
calculate DOP row 8,[  0.39  -0.90  -0.20   0.00]
calculate DOP row 9,[  0.59   0.12  -0.80   0.00]
calculate DOP row 10,[  0.60   0.04  -0.80   1.00]
calculate DOP row 11,[  0.81  -0.58   0.06   0.00]
calculate DOP row 12,[ -0.16  -0.98   0.10   0.00]
calculate DOP row 13,[  0.97  -0.23   0.07   0.00]
calculate DOP row 14,[ -0.69  -0.72   0.06   1.00]
DOP:  0.31   0.23   0.62   0.30
Refix G01: 2, 285693.931521, -2146
Refix G07: 2, 285693.932043, 205
Refix G08: 2, 285693.923901, 1519
Refix G09: 2, 285693.917039, 1467
Refix G11: 2, 285693.932214, -624
Refix G13: 2, 285693.916257, -1884
Refix G17: 2, 285693.921942, -3117
Refix G18: 2, 285693.930767, -256
Refix G28: 2, 285693.924105, -2884
Refix G30: 2, 285693.931018, -2055
$GNGGA,072116.000,2944.9040,N,10633.0910,E,1,15,0.9,327.5,M,,,,0000*15
$GNRMC,072116.000,A,2944.9040,N,10633.0910,E,0.29,0.00,090180,,*1C
$GPGSA,A,3,01,07,08,11,17,18,30,,,,,,1.1,0.9,0.5*3C
$BDGSA,A,3,01,02,04,07,08,10,27,29,,,,,1.1,0.9,0.5*28
$GLGSA,A,3,,,,,,,,,,,,,1.1,0.9,0.5*22
$GPGSV,3,1,12,01,63,125,43,07,66,191,45,08,30,043,42,11,74,059,43*70
$GPGSV,3,2,12,17,23,251,38,18,54,069,43,22,00,000,37,30,63,290,44*78
$GPGSV,3,3,12,19,00,000,22,28,33,314,32,09,07,203,00,13,05,310,00*75
$BDGSV,3,1,11,01,40,125,40,02,46,218,39,03,55,171,25,04,23,109,39*68
$BDGSV,3,2,11,07,64,076,41,08,70,160,42,10,70,000,42,27,26,041,42*64
$BDGSV,3,3,11,29,38,241,43,13,47,193,00,30,75,349,00*5D
$B3CN0,0,21,0,0,0,0,0,0,0,0,0,0,0,0*7F
---00000012--- Acq_st=3 0  2000-1-9 7:21:16 
[00]  00(G01)  f 43  7  0  -2141.1  2046002.7  0.0  2 0 2033 3041 1444
[01]  06(G07)  f 45  7  0    210.6  2045999.7 -0.0  2 0 2658 3764 1843
[02]  07(G08)  f 41  7  0   1522.9  2045997.9  0.0  2 0 1477 2190  960
[03]  10(G11)  f 43  9  0   -618.5  2046000.8 -0.1  2 0 1641 2852 1412
[04]  16(G17)  f 38  7  0  -3114.2  2046004.0 -0.1  2 0 1342  853  445
[05]  17(G18)  f 44  7  0   -250.8  2046000.3  0.1  2 0 2153 2834 1482
[06]  21(G22)  f 36 13  0  -3016.4  2046003.8 -0.5  2 0  710 1195  615
[09]  29(G30)  f 45  7  0  -2049.1  2046002.6  0.0  2 0 2490 4112 2086
[10]  18(G19)  7 34  9  0  -4079.3  2046005.1 -0.1  5 0  515  524  270
[11]  27(G28)  7 42  7  0  -2879.7  2046003.6  0.1  2 0 1482 1926  416
[16]  37(B01) 1f 40 10  0  -1060.9  4092002.7  0.7  2 0 1105 1457  465
[17]  38(B02) 1f 40 26  0  -1088.2  4092002.7 -0.4  2 0 1332 1832 1000
[18]  39(B03)  7 14 32  1   -997.8  4092002.7  0.2  2 0  263  273 1796
[19]  40(B04) 1f 39 14  0  -1067.9  4092002.6  0.6  2 0 1217 1260  307
[20]  43(B07) 1f 42  7  0  -1285.8  4092003.3 -0.0  2 0 1733 2394 1138
[21]  44(B08) 1f 42  7  0  -1794.0  4092004.6 -0.0  2 0 1552 1507  373
[22]  46(B10) 1f 43  9  0  -1526.3  4092003.9  0.0  2 0 2161 2678  758
[25]  63(B27) 1f 42  7  0   1654.2  4091995.5 -0.0  2 0 1777 2385  874
[26]  65(B29) 1f 43  7  0  -3024.3  4092007.8 -0.0  2 0 1811 2661 1328
[32]  78(N-3)  f 33  7  0   1919.4  1021998.7 -0.0  5 0  1523 2547 1210
[33]  79(N-2)  f 33  7  0  -1352.4  1022000.8 -0.0  5 0  1230 1547  660
[34]  82(N01)  f 32 20  0   2475.0  1021998.3  0.2  5 0   735  935  250
[35]  83(N02)  f 33 21  0   -361.5  1022000.2  0.1  5 0   779 1350  629
[48]  37(B01)  1 14 17  1   -762.4 20460023.0 -0.2  1 0  228  318  232
[49]  38(B02)  f 10 19  1  -2282.9 20460037.5  0.1  2 0  434  500  515
[51]  40(B04)  1 24 10  1   -169.7 20460021.4  0.1  1 0  148  322  440
[52]  43(B07)  1  7  7  0  -1216.1 20460019.0  0.2  1 0  341  455  285
[53]  44(B08)  1  7  7  0  -1023.7 20460029.8  0.1  1 0  310  171  348
[54]  46(B10)  1  7  7  0   -760.3 20460022.4 -0.1  1 0  266  111  340
[57]  63(B27)  1  7  7  0   1389.1 20459973.4  0.0  1 0  172  582  543
[58]  65(B29)  1  7  7  0  -2504.6 20460049.0  0.1  1 0  652  628  329
calculate DOP row 0,[  0.21  -0.97  -0.12   1.00]
calculate DOP row 1,[ -0.20  -0.79  -0.58   1.00]
calculate DOP row 2,[  0.70  -0.43  -0.58   1.00]
calculate DOP row 3,[  0.60  -0.77  -0.22   1.00]
calculate DOP row 4,[  0.44  -0.68  -0.59   1.00]
calculate DOP row 5,[  0.39  -0.90  -0.20   0.00]
calculate DOP row 6,[  0.19  -0.63  -0.75   0.00]
calculate DOP row 7,[ -0.45  -0.89   0.02   0.00]
calculate DOP row 8,[  0.60   0.04  -0.80   1.00]
calculate DOP row 9,[  0.61  -0.59  -0.53   0.00]
calculate DOP row 10,[  0.59   0.12  -0.80   0.00]
calculate DOP row 11,[ -0.16  -0.98   0.10   0.00]
calculate DOP row 12,[  0.81  -0.58   0.06   0.00]
calculate DOP row 13,[  0.97  -0.23   0.07   0.00]
calculate DOP row 14,[ -0.69  -0.72   0.06   1.00]
DOP:  0.31   0.23   0.62   0.30
Refix G01: 2, 285694.931522, -2136
Refix G07: 2, 285694.932043, 215
Refix G08: 2, 285694.923900, 1527
Refix G09: 2, 285694.917038, 1475
Refix G11: 2, 285694.932214, -614
Refix G13: 2, 285694.916259, -1875
Refix G17: 2, 285694.921944, -3108
Refix G18: 2, 285694.930767, -246
Refix G28: 2, 285694.924107, -2875
Refix G30: 2, 285694.931019, -2045
$GNGGA,072117.000,2944.9040,N,10633.0910,E,1,15,0.9,328.0,M,,,,0000*1E
$GNRMC,072117.000,A,2944.9040,N,10633.0910,E,0.11,0.00,090180,,*16
$GPGSA,A,3,01,07,08,11,17,18,30,,,,,,1.1,0.9,0.5*3C
$BDGSA,A,3,01,02,04,07,08,10,27,29,,,,,1.1,0.9,0.5*28
$GLGSA,A,3,,,,,,,,,,,,,1.1,0.9,0.5*22
$GPGSV,3,1,12,01,63,125,43,07,66,191,45,08,30,043,41,11,74,059,43*73
$GPGSV,3,2,12,17,23,251,38,18,54,069,44,22,00,000,36,30,63,290,45*7F
$GPGSV,3,3,12,19,00,000,34,28,33,314,42,09,07,203,00,13,05,310,00*75
$BDGSV,3,1,11,01,40,125,40,02,46,218,40,04,23,109,39,07,64,076,42*67
$BDGSV,3,2,11,08,70,160,42,10,70,000,43,27,26,041,42,29,38,241,43*64
$BDGSV,3,3,11,03,55,171,00,13,47,193,00,30,75,349,00*59
$B3CN0,0,0,0,0,0,0,0,0,0,0,0,0,0,0*4C
---00000013--- Acq_st=3 0  2000-1-9 7:21:17 
[00]  00(G01)  f 43  7  0  -2144.2  2046002.7  0.0  2 0 2195 3492 1478
[01]  06(G07)  f 45  7  0    211.4  2045999.7  0.1  2 0 2503 4061 1839
[02]  07(G08)  f 41  7  0   1523.4  2045998.0 -0.1  2 0 1291 2795 1646
[03]  10(G11)  f 43  7  0   -621.4  2046000.7  0.1  2 0 1718 2581 1005
[04]  16(G17)  f 37  7  0  -3114.1  2046003.9  0.4  2 0  767  662  289
[05]  17(G18)  f 44  7  0   -253.7  2046000.3 -0.1  2 0 1970 3328 1661
[06]  21(G22)  f 36 13  0  -3019.5  2046003.9 -0.5  2 0  551  843  692
[09]  29(G30)  f 45  7  0  -2048.1  2046002.6 -0.0  2 0 3123 5032 2216
[10]  18(G19)  7 35  7  0  -4070.3  2046005.2  0.1  2 0 1116 1076  394
[11]  27(G28)  7 42  8  0  -2877.8  2046003.7  0.0  2 0 1970 2666 1186
[16]  37(B01) 1f 41 10  0  -1055.9  4092002.7  0.1  2 0 1485 1409  443
[17]  38(B02) 1f 39 20  0  -1092.9  4092002.6 -0.2  2 0 1347 1367  337
[18]  39(B03)  7 10 33  1  -1008.2  4092002.6  0.0  2 0  268  514 1726
[19]  40(B04) 1f 40 23  0  -1072.6  4092002.7 -0.1  2 0 1126 1135  353
[20]  43(B07) 1f 43  7  0  -1284.9  4092003.2  0.1  2 0 1738 1896  773
[21]  44(B08) 1f 42  7  0  -1797.4  4092004.6 -0.0  2 0 1240 1813  709
[22]  46(B10) 1f 43  7  0  -1529.0  4092003.9  0.0  2 0 2212 2952 1253
[25]  63(B27) 1f 43  8  0   1654.8  4091995.5  0.0  2 0 1674 2334  968
[26]  65(B29) 1f 43  7  0  -3024.0  4092007.8 -0.0  2 0 1472 2149 1052
[32]  78(N-3)  f 47 18  0   1921.9  1021998.7 -0.0  2 0  1490 2368 1175
[33]  79(N-2)  f 43  7  0  -1350.3  1022000.8 -0.1  2 0  1014 1710  706
[34]  82(N01)  f 39 20  0   2477.2  1021998.4 -0.4  2 0   780  962  182
[35]  83(N02)  f 44 22  0   -360.0  1022000.2  0.1  2 0   891 1744  805
[48]  37(B01)  1 14 18  0   -891.5 20460020.8  0.1  1 0   83  118  541
[51]  40(B04)  1 24 21  0   -406.1 20460022.0 -0.0  1 0  475  518   37
[52]  43(B07)  1  7  7  0  -1089.3 20460017.5  0.0  1 0  456  318  173
[53]  44(B08)  1  7  7  0   -846.1 20460028.0  0.0  1 0  338  296  299
[54]  46(B10)  1  7  7  0    -41.7 20460022.7  0.1  1 0  608  671  348
[57]  63(B27)  1  7  7  0   1118.8 20459976.8 -0.1  1 0  711  777  466
[58]  65(B29)  1  7  7  0  -2807.8 20460048.8  0.0  1 0  554  267  472
calculate DOP row 0,[  0.21  -0.97  -0.12   1.00]
calculate DOP row 1,[ -0.20  -0.79  -0.58   1.00]
calculate DOP row 2,[  0.70  -0.43  -0.58   1.00]
calculate DOP row 3,[  0.60  -0.77  -0.22   1.00]
calculate DOP row 4,[  0.44  -0.68  -0.59   1.00]
calculate DOP row 5,[  0.61  -0.59  -0.53   0.00]
calculate DOP row 6,[  0.19  -0.63  -0.75   0.00]
calculate DOP row 7,[ -0.45  -0.89   0.02   0.00]
calculate DOP row 8,[  0.39  -0.90  -0.20   0.00]
calculate DOP row 9,[  0.59   0.12  -0.80   0.00]
calculate DOP row 10,[  0.60   0.04  -0.80   1.00]
calculate DOP row 11,[ -0.16  -0.98   0.10   0.00]
calculate DOP row 12,[  0.81  -0.58   0.06   0.00]
calculate DOP row 13,[  0.97  -0.23   0.07   0.00]
calculate DOP row 14,[ -0.69  -0.72   0.06   1.00]
DOP:  0.31   0.23   0.62   0.30
Refix G01: 2, 285695.931524, -2139
Refix G07: 2, 285695.932042, 213
Refix G08: 2, 285695.923899, 1526
Refix G09: 2, 285695.917037, 1473
Refix G11: 2, 285695.932214, -616
Refix G13: 2, 285695.916260, -1875
Refix G17: 2, 285695.921946, -3110
Refix G18: 2, 285695.930767, -248
Refix G28: 2, 285695.924108, -2877
Refix G30: 2, 285695.931020, -2047
$GNGGA,072118.000,2944.9040,N,10633.0910,E,1,15,0.9,327.4,M,,,,0000*1A
$GNRMC,072118.000,A,2944.9040,N,10633.0910,E,0.33,0.00,090180,,*19
$GPGSA,A,3,01,07,08,11,17,18,30,,,,,,1.1,0.9,0.5*3C
$BDGSA,A,3,01,02,04,07,08,10,27,29,,,,,1.1,0.9,0.5*28
$GLGSA,A,3,,,,,,,,,,,,,1.1,0.9,0.5*22
$GPGSV,3,1,12,01,63,125,43,07,66,191,45,08,30,043,41,11,74,059,43*73
$GPGSV,3,2,12,17,23,251,37,18,54,069,44,22,00,000,36,30,63,290,45*70
$GPGSV,3,3,12,19,00,000,35,28,33,314,42,09,07,203,00,13,05,310,00*74
$BDGSV,3,1,11,01,40,125,41,02,46,218,39,04,23,109,40,07,64,076,43*67
$BDGSV,3,2,11,08,70,160,42,10,70,000,43,27,26,041,43,29,38,241,43*65
$BDGSV,3,3,11,03,55,171,00,13,47,193,00,30,75,349,00*59
$B3CN0,0,0,0,0,0,0,0,0,0,0,0,0,0,0*4C
---00000014--- Acq_st=7 0  2000-1-9 7:21:18 
[00]  00(G01)  f 43  7  0  -2137.0  2046002.7 -0.0  2 0 2096 3450 1685
[01]  06(G07)  f 45  7  0    213.3  2045999.6 -0.0  2 0 2782 3815 1876
[02]  07(G08)  f 42  7  0   1528.6  2045998.0  0.0  2 0 1085 2499 1619
[03]  10(G11)  f 43  7  0   -615.0  2046000.7  0.0  2 0 2595 3149 1039
[04]  16(G17)  f 38  7  0  -3107.3  2046004.0 -0.2  2 0  924 1379  854
[05]  17(G18)  f 44  7  0   -247.4  2046000.3  0.1  2 0 1761 3138 1376
[06]  21(G22)  f 36  7  0  -3021.4  2046003.9  0.4  2 0  729 1640 1000
[09]  29(G30)  f 45  7  0  -2044.5  2046002.6 -0.0  2 0 2372 4060 1879
[10]  18(G19)  7 36  7  0  -4077.2  2046005.2 -0.2  2 0  723  863  134
[11]  27(G28)  7 42  7  0  -2876.0  2046003.6 -0.0  2 0 1635 2127  835
[16]  37(B01) 1f 40 10  0  -1055.7  4092002.7  0.5  2 0 1307 1454  727
[17]  38(B02) 1f 39 24  0  -1090.0  4092002.8  0.0  2 0  909 1593  942
[18]  39(B03)  7 10 34  1  -1007.3  4092002.6 -0.1  2 0  405  341 1394
[19]  40(B04) 1f 39 22  0  -1064.5  4092002.6 -0.1  2 0 1183 1099  458
[20]  43(B07) 1f 43  7  0  -1280.4  4092003.2 -0.0  2 0 1765 2060  685
[21]  44(B08) 1f 42  7  0  -1792.8  4092004.6  0.0  2 0 1791 2155 1124
[22]  46(B10) 1f 43  9  0  -1526.7  4092003.9 -0.1  2 0 1939 2367  898
[25]  63(B27) 1f 42  7  0   1657.1  4091995.5 -0.0  2 0 2283 2331  994
[26]  65(B29) 1f 43  7  0  -3021.9  4092007.8  0.0  2 0 1996 2723 1193
[32]  78(N-3)  f 47 14  0   1924.1  1021998.7  0.0  2 0  1519 2819  976
[33]  79(N-2)  f 44  7  0  -1346.2  1022000.8 -0.0  2 0  1186 1741  717
[34]  82(N01)  f 39 20  0   2477.9  1021998.4 -0.5  2 0   651  955  542
[35]  83(N02)  f 44 20  0   -355.6  1022000.2 -0.0  2 0   820 1480  640
[49]  38(B02)  1 10 10  1   -898.8 20460015.7  0.1  1 0  611  268   50
[52]  43(B07)  1  7  7  0   -841.2 20460020.4 -0.1  1 0  535  826  417
[53]  44(B08)  1  7  7  0   -314.3 20460029.0 -0.1  1 0  440  274  678
[54]  46(B10)  1  7  7  0    -88.7 20460023.6  0.0  1 0  267  674  443
[57]  63(B27)  1  7  7  0   1061.4 20459973.4  0.1  1 0  849 1013  548
[58]  65(B29)  1  7  7  0  -2787.4 20460049.1  0.1  1 0  379  706  488
calculate DOP row 0,[  0.21  -0.97  -0.12   1.00]
calculate DOP row 1,[ -0.20  -0.79  -0.58   1.00]
calculate DOP row 2,[  0.70  -0.43  -0.58   1.00]
calculate DOP row 3,[  0.60  -0.77  -0.22   1.00]
calculate DOP row 4,[  0.44  -0.68  -0.59   1.00]
calculate DOP row 5,[  0.19  -0.63  -0.75   0.00]
calculate DOP row 6,[ -0.45  -0.89   0.02   0.00]
calculate DOP row 7,[  0.60   0.04  -0.80   1.00]
calculate DOP row 8,[  0.61  -0.59  -0.53   0.00]
calculate DOP row 9,[  0.39  -0.90  -0.20   0.00]
calculate DOP row 10,[  0.59   0.12  -0.80   0.00]
calculate DOP row 11,[  0.81  -0.58   0.06   0.00]
calculate DOP row 12,[ -0.16  -0.98   0.10   0.00]
calculate DOP row 13,[ -0.69  -0.72   0.06   1.00]
calculate DOP row 14,[  0.97  -0.23   0.07   0.00]
DOP:  0.31   0.23   0.62   0.30
Refix G01: 2, 285696.931525, -2144
Refix G07: 2, 285696.932042, 207
Refix G08: 2, 285696.923898, 1521
Refix G09: 2, 285696.917036, 1469
Refix G11: 2, 285696.932215, -622
Refix G13: 2, 285696.916261, -1878
Refix G17: 2, 285696.921948, -3114
Refix G18: 2, 285696.930767, -253
Refix G28: 2, 285696.924110, -2882
Refix G30: 2, 285696.931022, -2052
$GNGGA,072119.000,2944.9040,N,10633.0910,E,1,15,0.9,326.9,M,,,,0000*17
$GNRMC,072119.000,A,2944.9040,N,10633.0910,E,0.12,0.00,240419,,*11
$GPGSA,A,3,01,07,08,11,17,18,30,,,,,,1.1,0.9,0.5*3C
$BDGSA,A,3,01,02,04,07,08,10,27,29,,,,,1.1,0.9,0.5*28
$GLGSA,A,3,,,,,,,,,,,,,1.1,0.9,0.5*22
$GPGSV,3,1,12,01,63,125,43,07,66,191,45,08,30,043,42,11,74,059,43*70
$GPGSV,3,2,12,17,23,251,38,18,54,069,44,22,00,000,36,30,63,290,45*7F
$GPGSV,3,3,12,19,00,000,36,28,33,314,42,09,07,203,00,13,05,310,00*77
$BDGSV,3,1,11,01,40,125,40,02,46,218,39,04,23,109,39,07,64,076,43*68
$BDGSV,3,2,11,08,70,160,42,10,70,000,43,27,26,041,42,29,38,241,43*64
$BDGSV,3,3,11,03,55,171,00,13,47,193,00,30,75,349,00*59
$B3CN0,0,0,0,0,0,0,0,0,0,0,0,0,0,0*4C
---00000015--- Acq_st=7 0  2019-4-24 7:21:19 
[00]  00(G01)  f 43  7  0  -2137.3  2046002.7 -0.0  2 0 2894 3839 1581
[01]  06(G07)  f 45  7  0    213.2  2045999.7  0.0  2 0 2476 3632 1714
[02]  07(G08)  f 42  7  0   1524.1  2045997.9  0.0  2 0 1221 1684  340
[03]  10(G11)  f 43  7  0   -619.2  2046000.7 -0.0  2 0  842 1948 1411
[04]  16(G17)  f 38  7  0  -3105.4  2046004.0 -0.2  2 0 1280 1457  755
[05]  17(G18)  f 44  7  0   -249.4  2046000.2 -0.1  2 0 2085 3274 1365
[06]  21(G22)  f 36 11  0  -3024.2  2046003.8  0.4  2 0  616  831  738
[09]  29(G30)  f 45  7  0  -2046.2  2046002.6  0.0  2 0 2996 4711 1800
[10]  18(G19)  f 36  7  0  -4070.3  2046005.2  0.1  2 0  733 1207  243
[11]  27(G28)  f 42 10  0  -2878.6  2046003.6  0.1  2 0 1510 2710 1515
[16]  37(B01) 1f 41 10  0  -1052.2  4092002.7  0.4  2 0  535  619  605
[17]  38(B02) 1f 40 25  0  -1092.7  4092002.7  0.1  2 0  975 1013  179
[18]  39(B03)  7 36 31  1  -1003.9  4092002.6  0.1  2 0  522  792 1822
[19]  40(B04) 1f 40 22  0  -1068.6  4092002.8  0.3  2 0 1184 1560  667
[20]  43(B07) 1f 42  7  0  -1286.3  4092003.2 -0.1  2 0 1571 2224 1333
[21]  44(B08) 1f 42  7  0  -1795.3  4092004.6 -0.0  2 0 1370 2077 1000
[22]  46(B10) 1f 43  9  0  -1527.2  4092003.9  0.0  2 0 1071 1728  601
[25]  63(B27) 1f 42  7  0   1654.8  4091995.5 -0.0  2 0 1722 1791  900
[26]  65(B29) 1f 43  8  0  -3025.0  4092007.8 -0.0  2 0 1894 2531 1052
[32]  78(N-3)  f 46  7  0   1922.5  1021998.7 -0.0  2 0  1774 2989 1438
[33]  79(N-2)  f 44  7  0  -1348.9  1022000.8  0.1  2 0   866 1526  755
[34]  82(N01)  f 39 20  0   2479.2  1021998.4 -0.2  2 0   547  703  642
[35]  83(N02)  f 44 23  0   -358.4  1022000.2  0.0  2 0  1054 1704  888
[48]  37(B01)  1 19 19  1   -574.4 20460020.1  0.0  1 0  221  708  897
[49]  38(B02)  1 10 10  1   -996.9 20460020.5 -0.2  1 0  522   89  356
[51]  40(B04)  1 14 19  0   -645.3 20460021.6  0.0  1 0  405  398   91
[52]  43(B07)  1  7  7  0   -817.2 20460019.1  0.1  1 0  630  550  600
[53]  44(B08)  1  7 12  0    412.0 20460026.6  0.0  1 0  459  485  245
[54]  46(B10)  1  7  7  0    -41.9 20460024.8 -0.0  1 0  520  847  437
[57]  63(B27)  1  7  7  0    329.2 20459974.2 -0.1  1 0  872  552  631
[58]  65(B29)  1 10  7  0  -2781.7 20460047.8  0.1  1 0  325   49  220
calculate DOP row 0,[  0.21  -0.97  -0.12   1.00]
calculate DOP row 1,[ -0.20  -0.79  -0.58   1.00]
calculate DOP row 2,[  0.60  -0.77  -0.22   1.00]
calculate DOP row 3,[  0.44  -0.68  -0.59   1.00]
calculate DOP row 4,[  0.70  -0.43  -0.58   1.00]
calculate DOP row 5,[  0.19  -0.63  -0.75   0.00]
calculate DOP row 6,[ -0.45  -0.89   0.02   0.00]
calculate DOP row 7,[ -0.52  -0.35  -0.78   1.00]
calculate DOP row 8,[  0.61  -0.59  -0.53   0.00]
calculate DOP row 9,[  0.39  -0.90  -0.20   0.00]
calculate DOP row 10,[  0.59   0.12  -0.80   0.00]
calculate DOP row 11,[  0.60   0.04  -0.80   1.00]
calculate DOP row 12,[  0.81  -0.58   0.06   0.00]
calculate DOP row 13,[ -0.16  -0.98   0.10   0.00]
calculate DOP row 14,[  0.97  -0.23   0.07   0.00]
calculate DOP row 15,[ -0.69  -0.72   0.06   1.00]
DOP:  0.25   0.23   0.52   0.29
Refix G01: 2, 285697.931526, -2139
Refix G07: 2, 285697.932042, 212
Refix G08: 2, 285697.923897, 1524
Refix G09: 2, 285697.917035, 1471
Refix G11: 2, 285697.932215, -617
Refix G13: 2, 285697.916262, -1875
Refix G17: 2, 285697.921950, -3111
Refix G18: 2, 285697.930767, -249
Refix G28: 2, 285697.924112, -2879
Refix G30: 2, 285697.931023, -2048
$GNGGA,072120.000,2944.9043,N,10633.0907,E,1,16,0.9,326.5,M,,,,0000*17
$GNRMC,072120.000,A,2944.9043,N,10633.0907,E,0.26,0.00,240419,,*19
$GPGSA,A,3,01,07,08,11,17,18,28,30,,,,,1.0,0.9,0.5*37
$BDGSA,A,3,01,02,04,07,08,10,27,29,,,,,1.0,0.9,0.5*29
$GLGSA,A,3,,,,,,,,,,,,,1.0,0.9,0.5*23
$GPGSV,3,1,12,01,63,125,43,07,66,191,45,08,30,043,42,11,74,059,43*70
$GPGSV,3,2,12,17,23,251,38,18,54,069,44,22,00,000,36,30,63,290,45*7F
$GPGSV,3,3,12,19,00,000,36,28,33,314,42,09,07,203,00,13,05,310,00*77
$BDGSV,3,1,11,01,40,125,41,02,46,218,40,03,55,171,36,04,23,109,40*6B
$BDGSV,3,2,11,07,64,076,42,08,70,160,42,10,70,000,43,27,26,041,42*66
$BDGSV,3,3,11,29,38,241,43,13,47,193,00,30,75,349,00*5D
$B3CN0,0,0,0,0,0,0,0,0,0,0,0,0,0,0*4C
---00000016--- Acq_st=7 0  2019-4-24 7:21:20 
[00]  00(G01)  f 44  7  0  -2136.2  2046002.7 -0.0  2 0 2347 3408 1573
[01]  06(G07)  f 45  7  0    213.1  2045999.7  0.0  2 0 2915 4060 2099
[02]  07(G08)  f 41  7  0   1522.2  2045998.0 -0.0  2 0 1519 2168 1084
[03]  10(G11)  f 43  7  0   -619.2  2046000.7 -0.0  2 0 1741 2768 1468
[04]  16(G17)  f 37  7  0  -3123.8  2046004.0  0.2  2 0 1026 1116  835
[05]  17(G18)  f 43  7  0   -249.6  2046000.3 -0.0  2 0 1839 2570 1015
[06]  21(G22)  f 37  9  0  -3019.2  2046003.8  0.8  2 0  762 1709  960
[09]  29(G30)  f 45  7  0  -2047.0  2046002.6 -0.0  2 0 2323 4359 1947
[10]  18(G19)  f 37  7  0  -4074.0  2046005.3  0.4  2 0  914 1436  643
[11]  27(G28)  f 42  7  0  -2878.0  2046003.7 -0.1  2 0 2020 3164 1402
[16]  37(B01) 1f 41 18  0  -1061.1  4092002.7  0.4  2 0  851  947  745
[17]  38(B02) 1f 40 26  0  -1093.7  4092002.8 -0.3  2 0 1220 1555  590
[18]  39(B03)  7 10 35  1  -1005.0  4092002.7 -0.1  2 0  324  516 1390
[19]  40(B04) 1f 40 24  0  -1066.7  4092002.7 -0.1  2 0 1162 1710  805
[20]  43(B07) 1f 42  7  0  -1282.8  4092003.2  0.1  2 0 1490 1510  480
[21]  44(B08) 1f 42  7  0  -1795.3  4092004.6  0.1  2 0 1983 2172  840
[22]  46(B10) 1f 43  7  0  -1528.4  4092003.9 -0.0  2 0 1365 2395 1460
[25]  63(B27) 1f 42  7  0   1657.9  4091995.6  0.0  2 0 1572 2127  839
[26]  65(B29) 1f 43  9  0  -3025.1  4092007.8 -0.0  2 0 1568 2259  965
[32]  78(N-3)  f 46 14  0   1923.1  1021998.7 -0.0  2 0  1464 2691 1491
[33]  79(N-2)  f 43  7  0  -1347.7  1022000.8  0.0  2 0   883 1536  869
[34]  82(N01)  f 39 20  0   2476.0  1021998.4 -0.6  2 0   438  863  278
[35]  83(N02)  f 44 20  0   -357.2  1022000.2 -0.0  2 0   746 1669  593
[48]  37(B01)  1 16 20  0   -506.8 20460020.5 -0.0  1 0  373   30  201
[49]  38(B02)  1 10 10  0  -1437.6 20460014.1 -0.1  1 0  711  352  110
[51]  40(B04)  1 23 23  0   -523.7 20460018.9  0.3  1 0  650  667  442
calculate DOP row 0,[  0.21  -0.97  -0.12   1.00]
calculate DOP row 1,[ -0.20  -0.79  -0.58   1.00]
calculate DOP row 2,[  0.44  -0.68  -0.59   1.00]
calculate DOP row 3,[  0.60  -0.77  -0.22   1.00]
calculate DOP row 4,[ -0.52  -0.35  -0.78   1.00]
calculate DOP row 5,[  0.39  -0.90  -0.20   0.00]
calculate DOP row 6,[ -0.45  -0.89   0.02   0.00]
calculate DOP row 7,[  0.70  -0.43  -0.58   1.00]
calculate DOP row 8,[  0.61  -0.59  -0.53   0.00]
calculate DOP row 9,[  0.19  -0.63  -0.75   0.00]
calculate DOP row 10,[  0.59   0.12  -0.80   0.00]
calculate DOP row 11,[  0.60   0.04  -0.80   1.00]
calculate DOP row 12,[  0.81  -0.58   0.06   0.00]
calculate DOP row 13,[ -0.16  -0.98   0.10   0.00]
calculate DOP row 14,[  0.97  -0.23   0.07   0.00]
calculate DOP row 15,[ -0.69  -0.72   0.06   1.00]
DOP:  0.25   0.23   0.52   0.29
Refix G01: 2, 285698.931528, -2136
Refix G07: 2, 285698.932042, 215
Refix G08: 2, 285698.923896, 1526
Refix G09: 2, 285698.917034, 1473
Refix G11: 2, 285698.932216, -614
Refix G13: 2, 285698.916263, -1873
Refix G17: 2, 285698.921952, -3108
Refix G18: 2, 285698.930767, -246
Refix G28: 2, 285698.924114, -2877
Refix G30: 2, 285698.931024, -2045
$GNGGA,072121.000,2944.9044,N,10633.0905,E,1,16,0.9,325.8,M,,,,0000*1D
$GNRMC,072121.000,A,2944.9044,N,10633.0905,E,0.20,0.00,240419,,*1B
$GPGSA,A,3,01,07,08,11,17,18,28,30,,,,,1.0,0.9,0.5*37
$BDGSA,A,3,01,02,04,07,08,10,27,29,,,,,1.0,0.9,0.5*29
$GLGSA,A,3,,,,,,,,,,,,,1.0,0.9,0.5*23
$GPGSV,3,1,12,01,63,125,44,07,66,191,45,08,30,043,41,11,74,059,43*74
$GPGSV,3,2,12,17,23,251,37,18,54,069,43,22,00,000,37,30,63,290,45*76
$GPGSV,3,3,12,19,00,000,37,28,33,314,42,09,07,203,00,13,05,310,00*76
$BDGSV,3,1,11,01,40,125,41,02,46,218,40,04,23,109,40,07,64,076,42*68
$BDGSV,3,2,11,08,70,160,42,10,70,000,43,27,26,041,42,29,38,241,43*64
$BDGSV,3,3,11,03,55,171,00,13,47,193,00,30,75,349,00*59
$B3CN0,0,0,0,0,0,0,0,0,0,0,0,0,0,0*4C
---00000017--- Acq_st=3 0  2019-4-24 7:21:21 
[00]  00(G01)  f 43  7  0  -2140.3  2046002.7  0.0  2 0 2088 3258 1589
[01]  06(G07)  f 44  7  0    213.4  2045999.7 -0.0  2 0 3020 3847 1616
[02]  07(G08)  f 42  8  0   1524.4  2045998.0 -0.1  2 0  779 1619 1013
[03]  10(G11)  f 44  7  0   -617.6  2046000.7 -0.0  2 0 1732 2553  931
[04]  16(G17)  f 36  7  0  -3117.5  2046004.0 -0.1  2 0 1041  854  271
[05]  17(G18)  f 43 10  0   -248.5  2046000.3  0.0  2 0 1925 3002 1721
[06]  21(G22)  f 36  7  0  -3020.9  2046003.8 -0.0  2 0  555  948  670
[08]  02(G03)  1  7  7  0  -3545.9  2046005.6 -0.0  1 0  288  433  604
[09]  29(G30)  f 45  7  0  -2048.9  2046002.6 -0.0  2 0 2986 4398 1850
[10]  18(G19)  f 37  7  0  -4079.8  2046005.1  0.4  2 0 1210 1240  627
[11]  27(G28)  f 43  7  0  -2877.2  2046003.7  0.0  2 0 1544 2155 1195
[16]  37(B01) 1f 39 13  0  -1054.0  4092002.6 -0.2  2 0 1511 1622  319
[17]  38(B02) 1f 40 26  0  -1091.1  4092002.8 -0.4  2 0  856 1270  443
[18]  39(B03)  7 10 31  1  -1012.2  4092002.6  0.2  2 0  386  263  909
[19]  40(B04) 1f 40 23  0  -1066.2  4092002.6  0.3  2 0  987 1150  765
[20]  43(B07) 1f 42  7  0  -1287.3  4092003.3 -0.0  2 0 1821 2326  912
[21]  44(B08) 1f 43  7  0  -1797.1  4092004.6  0.0  2 0 1608 1888  764
[22]  46(B10) 1f 43  7  0  -1528.3  4092003.9 -0.1  2 0 1653 1972  760
[25]  63(B27) 1f 42  7  0   1651.9  4091995.5 -0.0  2 0 1052 1592  381
[26]  65(B29) 1f 43  7  0  -3024.0  4092007.8  0.0  2 0 2203 2348  592
[32]  78(N-3)  f 46 18  0   1922.0  1021998.7  0.0  2 0  1628 2585 1349
[33]  79(N-2)  f 44  7  0  -1349.3  1022000.8  0.1  2 0   866 1623  919
[34]  82(N01)  f 38 19  0   2474.7  1021998.4 -0.1  2 0   450  904  590
[35]  83(N02)  f 43 17  0   -358.4  1022000.2  0.0  2 0  1078 2095  916
[48]  37(B01)  1 10 17  1   -444.8 20460022.6  0.0  1 0  572  383  251
[49]  38(B02)  1 20 10  0  -1755.9 20460018.3  0.2  1 0  679  274  302
[51]  40(B04)  1 19 19  1    246.8 20460020.3  0.0  1 0  229  477  413
[52]  43(B07)  1  7  7  0   -869.0 20460017.8  0.1  1 0  432  624  950
[53]  44(B08)  1  7  7  0  -1868.8 20460029.2 -0.1  1 0  300  370  382
[54]  46(B10)  1  7  7  0   -943.4 20460025.8 -0.0  1 0  603  614  634
[57]  63(B27)  1  7  7  0   1243.7 20459975.7 -0.2  1 0   91  477  360
[58]  65(B29)  1  7  9  0  -2274.8 20460047.2 -0.1  1 0  531  482  535
calculate DOP row 0,[ -0.20  -0.79  -0.58   1.00]
calculate DOP row 1,[  0.60  -0.77  -0.22   1.00]
calculate DOP row 2,[  0.21  -0.97  -0.12   1.00]
calculate DOP row 3,[  0.44  -0.68  -0.59   1.00]
calculate DOP row 4,[  0.70  -0.43  -0.58   1.00]
calculate DOP row 5,[  0.19  -0.63  -0.75   0.00]
calculate DOP row 6,[ -0.45  -0.89   0.02   0.00]
calculate DOP row 7,[  0.60   0.04  -0.80   1.00]
calculate DOP row 8,[ -0.52  -0.35  -0.78   1.00]
calculate DOP row 9,[  0.61  -0.59  -0.53   0.00]
calculate DOP row 10,[  0.39  -0.90  -0.20   0.00]
calculate DOP row 11,[  0.59   0.12  -0.80   0.00]
calculate DOP row 12,[ -0.16  -0.98   0.10   0.00]
calculate DOP row 13,[  0.97  -0.23   0.07   0.00]
calculate DOP row 14,[  0.81  -0.58   0.06   0.00]
calculate DOP row 15,[ -0.69  -0.72   0.06   1.00]
DOP:  0.25   0.23   0.52   0.29
Refix G01: 2, 285699.931529, -2137
Refix G07: 2, 285699.932042, 214
Refix G08: 2, 285699.923895, 1525
Refix G09: 2, 285699.917033, 1472
Refix G11: 2, 285699.932216, -615
Refix G13: 2, 285699.916264, -1873
Refix G17: 2, 285699.921954, -3109
Refix G18: 2, 285699.930767, -247
Refix G28: 2, 285699.924115, -2878
Refix G30: 2, 285699.931025, -2046
$GNGGA,072122.000,2944.9045,N,10633.0904,E,1,16,0.9,325.3,M,,,,0000*15
$GNRMC,072122.000,A,2944.9045,N,10633.0904,E,0.20,0.00,240419,,*18
$GPGSA,A,3,01,07,08,11,17,18,28,30,,,,,1.0,0.9,0.5*37
$BDGSA,A,3,01,02,04,07,08,10,27,29,,,,,1.0,0.9,0.5*29
$GLGSA,A,3,,,,,,,,,,,,,1.0,0.9,0.5*23
$GPGSV,3,1,12,01,63,125,43,07,66,191,44,08,30,043,42,11,74,059,44*76
$GPGSV,3,2,12,17,23,251,36,18,54,069,43,22,00,000,36,30,63,290,45*76
$GPGSV,3,3,12,19,00,000,37,28,33,314,43,09,07,203,00,13,05,310,00*77
$BDGSV,3,1,11,01,40,125,39,02,46,218,40,04,23,109,40,07,64,076,42*67
$BDGSV,3,2,11,08,70,160,43,10,70,000,43,27,26,041,42,29,38,241,43*65
$BDGSV,3,3,11,03,55,171,00,13,47,193,00,30,75,349,00*59
$B3CN0,0,0,0,0,0,0,0,0,0,0,0,0,0,0*4C
---00000018--- Acq_st=3 0  2019-4-24 7:21:22 
[00]  00(G01)  f 44  7  0  -2128.5  2046002.7  0.1  2 0 2371 3260 1381
[01]  06(G07)  f 44  9  0    222.9  2045999.6  0.0  2 0 2183 3545 2028
[02]  07(G08)  f 41  8  0   1531.9  2045997.9  0.0  2 0 1461 1985  836
[03]  10(G11)  f 43  7  0   -609.9  2046000.7  0.1  2 0 1725 2863 1038
[04]  16(G17)  f 37  7  0  -3097.4  2046004.0  0.2  2 0  585 1201  508
[05]  17(G18)  f 44  7  0   -238.4  2046000.3 -0.0  2 0 1883 3314 1269
[06]  21(G22)  f 37 10  0  -3010.3  2046003.9 -0.2  2 0  811 1532  931
[08]  02(G03)  7 20  7  0  -3363.4  2046004.3  0.5 10 0  462  815 1010
[09]  29(G30)  f 45  7  0  -2038.6  2046002.6  0.1  2 0 2279 4109 1508
[10]  18(G19)  f 35  7  0  -4069.7  2046005.2 -0.3  2 0 1088 1940  905
[11]  27(G28)  f 42 11  0  -2868.0  2046003.7 -0.0  2 0 1649 2659 1483
[16]  37(B01) 1f 40 16  0  -1046.6  4092002.5  0.6  2 0  848 1217 1007
[17]  38(B02) 1f 40 23  0  -1079.7  4092002.7 -0.2  2 0  891 1001  479
[18]  39(B03)  7 26 32  1  -1011.4  4092002.6 -0.0  2 0  565  621 1390
[19]  40(B04) 1f 40 18  0  -1057.4  4092002.7 -0.5  2 0  709 1177  554
[20]  43(B07) 1f 42  7  0  -1279.8  4092003.2 -0.1  2 0 1491 1626  539
[21]  44(B08) 1f 42  7  0  -1787.6  4092004.5  0.0  2 0 1524 1656  430
[22]  46(B10) 1f 43  8  0  -1519.8  4092003.9 -0.0  2 0 1474 2110  672
[25]  63(B27) 1f 42  7  0   1666.1  4091995.5  0.1  2 0 1557 2412 1057
[26]  65(B29) 1f 43  7  0  -3013.1  4092007.8 -0.0  2 0 2379 2476  673
[32]  78(N-3)  f 46 18  0   1931.8  1021998.7 -0.0  2 0  1053 2418 1129
[33]  79(N-2)  f 44  7  0  -1339.1  1022000.8 -0.0  2 0   592 1714  957
[34]  82(N01)  f 38 18  0   2485.2  1021998.4  0.1  2 0   325  348  120
[35]  83(N02)  f 44 22  0   -347.6  1022000.2 -0.1  2 0   698 1579  660
[48]  37(B01)  1 10 18  1    -63.0 20460018.2 -0.0  1 0  488  338   69
[51]  40(B04)  1 14 24  0    386.8 20460023.2 -0.0  1 0  244  151  631
[52]  43(B07)  1  7  7  0   -700.8 20460020.1 -0.1  1 0  300  254  368
[53]  44(B08)  1  7  7  0  -1721.5 20460027.7  0.0  1 0  505  364  206
[54]  46(B10)  1  7  7  0   -434.4 20460024.1  0.1  1 0  163  820  191
[57]  63(B27)  1  7  7  0    891.4 20459974.7  0.1  1 0  197  235  244
[58]  65(B29)  1  8  7  0  -2420.5 20460047.0 -0.1  1 0  344  323  329
calculate DOP row 0,[ -0.20  -0.79  -0.58   1.00]
calculate DOP row 1,[  0.60  -0.77  -0.22   1.00]
calculate DOP row 2,[  0.21  -0.97  -0.12   1.00]
calculate DOP row 3,[  0.70  -0.43  -0.58   1.00]
calculate DOP row 4,[  0.44  -0.68  -0.59   1.00]
calculate DOP row 5,[  0.19  -0.63  -0.75   0.00]
calculate DOP row 6,[ -0.45  -0.89   0.02   0.00]
calculate DOP row 7,[ -0.52  -0.35  -0.78   1.00]
calculate DOP row 8,[  0.61  -0.59  -0.53   0.00]
calculate DOP row 9,[  0.39  -0.90  -0.20   0.00]
calculate DOP row 10,[  0.59   0.12  -0.80   0.00]
calculate DOP row 11,[  0.60   0.04  -0.80   1.00]
calculate DOP row 12,[  0.81  -0.58   0.06   0.00]
calculate DOP row 13,[ -0.69  -0.72   0.06   1.00]
calculate DOP row 14,[ -0.16  -0.98   0.10   0.00]
calculate DOP row 15,[  0.97  -0.23   0.07   0.00]
DOP:  0.25   0.23   0.52   0.29
Refix G01: 2, 285700.931530, -2132
Refix G07: 2, 285700.932042, 219
Refix G08: 2, 285700.923894, 1528
Refix G09: 2, 285700.917032, 1475
Refix G11: 2, 285700.932216, -610
Refix G13: 2, 285700.916266, -1870
Refix G17: 2, 285700.921956, -3105
Refix G18: 2, 285700.930767, -242
Refix G28: 2, 285700.924117, -2874
Refix G30: 2, 285700.931027, -2041
$GNGGA,072123.000,2944.9046,N,10633.0904,E,1,16,0.9,324.9,M,,,,0000*1C
$GNRMC,072123.000,A,2944.9046,N,10633.0904,E,0.09,0.00,240419,,*11
$GPGSA,A,3,01,07,08,11,17,18,28,30,,,,,1.0,0.9,0.5*37
$BDGSA,A,3,01,02,04,07,08,10,27,29,,,,,1.0,0.9,0.5*29
$GLGSA,A,3,,,,,,,,,,,,,1.0,0.9,0.5*23
$GPGSV,3,1,12,01,63,125,44,07,66,191,44,08,30,043,41,11,74,059,43*75
$GPGSV,3,2,12,17,23,251,37,18,54,069,44,22,00,000,37,03,00,000,20*7C
$GPGSV,3,3,12,30,63,290,45,19,00,000,35,28,33,314,42,09,07,203,00*7D
$BDGSV,3,1,11,01,40,125,40,02,46,218,40,03,55,171,26,04,23,109,40*6B
$BDGSV,3,2,11,07,64,076,42,08,70,160,42,10,70,000,43,27,26,041,42*66
$BDGSV,3,3,11,29,38,241,43,13,47,193,00,30,75,349,00*5D
$B3CN0,0,0,0,0,0,0,0,0,0,0,0,0,0,0*4C
ch27 satid=49 freq=-2250 acq ok!
---00000019--- Acq_st=3 0  2019-4-24 7:21:23 
[00]  00(G01)  f 44  9  0  -2134.8  2046002.7  0.0  2 0 2036 3628 1699
[01]  06(G07)  f 44  7  0    219.2  2045999.6 -0.0  2 0 2795 3931 1719
[02]  07(G08)  f 41  7  0   1524.1  2045997.9 -0.1  2 0 1353 2038 1173
[03]  10(G11)  f 43  7  0   -611.5  2046000.7  0.0  2 0 1591 1915 1138
[04]  16(G17)  f 38  7  0  -3107.8  2046004.0  0.3  2 0  724 1173 1135
[05]  17(G18)  f 44  7  0   -244.3  2046000.3 -0.0  2 0 1894 2948 1286
[06]  21(G22)  f 37  8  0  -3008.3  2046003.8  0.2  2 0  741 1339  463
[08]  02(G03)  7 35  7  0  -3369.0  2046004.3  0.1  2 0  985 1142  400
[09]  29(G30)  f 45  7  0  -2042.8  2046002.6 -0.0  2 0 2960 4638 2268
[10]  18(G19)  f 36  7  0  -4075.1  2046005.2  0.4  2 0  986 1171  204
[11]  27(G28)  f 41  7  0  -2875.4  2046003.7  0.0  2 0 1336 1805  777
[16]  37(B01) 1f 40 19  0  -1053.3  4092002.6 -0.2  2 0  647  527  109
[17]  38(B02) 1f 41 25  0  -1092.7  4092002.7 -0.0  2 0  444 1081  861
[18]  39(B03)  7 19 34  1  -1005.1  4092002.6 -0.1  2 0   65  419 1156
[19]  40(B04) 1f 40 21  0  -1069.7  4092002.6  0.7  2 0  943 1492  571
[20]  43(B07) 1f 42  7  0  -1281.3  4092003.2  0.1  2 0 1402 2023 1477
[21]  44(B08) 1f 42  7  0  -1791.4  4092004.6  0.0  2 0 1743 2240  909
[22]  46(B10) 1f 43  7  0  -1525.8  4092003.8 -0.0  2 0 1595 2449 1453
[24]  41(B05)  1 10 36  1  -1095.9  4092003.7  0.4  1 0  640 1361  681
[25]  63(B27) 1f 42  7  0   1662.1  4091995.5 -0.1  2 0 1155 1618  670
[26]  65(B29) 1f 43  7  0  -3018.1  4092007.8  0.0  2 0 2047 2768 1087
[27]  49(B13)  1  7  7  0  -2250.0  4092007.5  0.0  1 0  408  949 2119
[32]  78(N-3)  f 46 22  0   1928.0  1021998.7 -0.1  2 0  1525 2718 1424
[33]  79(N-2)  f 44  7  0  -1341.6  1022000.8  0.0  2 0  1029 1727  940
[34]  82(N01)  f 38 16  0   2481.9  1021998.3  0.3  2 0   366  865  445
[35]  83(N02)  f 44 19  0   -352.5  1022000.2 -0.0  2 0  1021 1882  956
[49]  38(B02)  1 10 10  1  -1021.4 20460021.9 -0.1  1 0  605  521  730
[52]  43(B07)  1  7  8  0   -910.4 20460018.4  0.0  1 0  355  248  114
[53]  44(B08)  1  7  7  0  -1304.6 20460028.8 -0.0  1 0  267  471  572
[54]  46(B10)  1  7  7  0   -134.9 20460024.3 -0.1  1 0  754  861  491
[57]  63(B27)  1  7  7  0   1204.5 20459974.0  0.0  1 0 1078  654  134
[58]  65(B29)  1  7  7  0  -2647.2 20460046.3 -0.1  1 0  552  403  206
calculate DOP row 0,[ -0.20  -0.79  -0.58   1.00]
calculate DOP row 1,[  0.60  -0.77  -0.22   1.00]
calculate DOP row 2,[  0.21  -0.97  -0.12   1.00]
calculate DOP row 3,[  0.70  -0.43  -0.58   1.00]
calculate DOP row 4,[ -0.45  -0.89   0.02   0.00]
calculate DOP row 5,[  0.44  -0.68  -0.59   1.00]
calculate DOP row 6,[  0.19  -0.63  -0.75   0.00]
calculate DOP row 7,[  0.59   0.12  -0.80   0.00]
calculate DOP row 8,[ -0.52  -0.35  -0.78   1.00]
calculate DOP row 9,[  0.61  -0.59  -0.53   0.00]
calculate DOP row 10,[  0.39  -0.90  -0.20   0.00]
calculate DOP row 11,[  0.60   0.04  -0.80   1.00]
calculate DOP row 12,[  0.81  -0.58   0.06   0.00]
calculate DOP row 13,[  0.97  -0.23   0.07   0.00]
calculate DOP row 14,[ -0.69  -0.72   0.06   1.00]
calculate DOP row 15,[ -0.16  -0.98   0.10   0.00]
DOP:  0.25   0.23   0.52   0.29
Refix G01: 2, 285701.931532, -2134
