SD initialized success
Create debug.log Failed! 3
bbram_blkflag = 1
rtcflag = 0
BBRAM Block OK: 01 EPHflag: 2c4205c9 340013df, rtc 00
Hot-start nowtime:day = 24,minute = 27,seconds = 30.00
GPS Pred_Dopp 1 -9978.30
sv_pvt.vx:-392.177673,sv_pvt.vy:105.739677,sv_pvt.vz:3205.968262
vel[0]:0.000000,vel[1]:105.739624,vel[2]:3205.968262
-0.429507 0.614702 -0.598618,df:-213.100000
BD Pred_Dopp 1 -1087.23
BD Pred_Dopp 2  -965.22
BD Pred_Dopp 3 -1228.84
GPS Pred_Dopp 4 -9579.80
sv_pvt.vx:-256.678894,sv_pvt.vy:122.520576,sv_pvt.vz:-3174.013428
vel[0]:0.000000,vel[1]:122.520569,vel[2]:-3174.013428
0.798414 1.238888 0.490460,df:-213.100000
BD Pred_Dopp 4 -1151.62
BD Pred_Dopp 5  -960.24
GPS Pred_Dopp 7 18466.84
sv_pvt.vx:-1264.799438,sv_pvt.vy:1352.106079,sv_pvt.vz:-2363.031006
vel[0]:0.000000,vel[1]:1352.105469,vel[2]:-2363.031006
-0.130723 1.606234 -0.588264,df:-213.100000
BD Pred_Dopp 7  7115.52
GPS Pred_Dopp 8 -4622.57
sv_pvt.vx:-1248.645020,sv_pvt.vy:-2394.972900,sv_pvt.vz:752.318481
vel[0]:0.000000,vel[1]:-2394.972656,vel[2]:752.318481
-0.391424 0.293629 -0.600894,df:-213.100000
BD Pred_Dopp 8 -10016.40
GPS Pred_Dopp 9 -16604.24
sv_pvt.vx:-614.583252,sv_pvt.vy:-583.686035,sv_pvt.vz:-3022.000732
vel[0]:0.000000,vel[1]:-583.686035,vel[2]:-3022.000732
0.891776 1.983182 0.410640,df:-213.100000
BD Pred_Dopp 9 -27200.50
BD Pred_Dopp 10  4507.72
GPS Pred_Dopp 11 -14398.26
sv_pvt.vx:-250.575272,sv_pvt.vy:-994.648865,sv_pvt.vz:2873.448486
vel[0]:0.000000,vel[1]:-994.648438,vel[2]:2873.448486
-0.373468 0.896608 -0.601566,df:-213.100000
BD Pred_Dopp 13 -2233.85
GPS Pred_Dopp 18 -13009.82
sv_pvt.vx:203.070404,sv_pvt.vy:-915.145813,sv_pvt.vz:3024.302490
vel[0]:0.000000,vel[1]:-915.145508,vel[2]:3024.302490
-0.457424 0.400667 -0.596180,df:-213.100000
GPS Pred_Dopp 23 -9037.68
sv_pvt.vx:-1159.752930,sv_pvt.vy:-1745.745117,sv_pvt.vz:-2132.013916
vel[0]:0.000000,vel[1]:-1745.745117,vel[2]:-2132.013916
-0.085147 1.629816 -0.581507,df:-213.100000
GPS Pred_Dopp 27  6424.62
sv_pvt.vx:-1120.571533,sv_pvt.vy:-2462.588135,sv_pvt.vz:-840.299500
vel[0]:0.000000,vel[1]:-2462.587891,vel[2]:-840.299500
-0.449085 -0.174934 -0.596979,df:-213.100000
BD Pred_Dopp 27 -5650.93
GPS Pred_Dopp 28 -1614.23
sv_pvt.vx:-1832.738403,sv_pvt.vy:-171.237839,sv_pvt.vz:2354.831543
vel[0]:0.000000,vel[1]:-171.237793,vel[2]:2354.831543
0.711396 0.301028 0.535610,df:-213.100000
BD Pred_Dopp 29 12850.85
GPS Pred_Dopp 30   193.88
sv_pvt.vx:-1662.200195,sv_pvt.vy:2005.385620,sv_pvt.vz:-966.749084
vel[0]:0.000000,vel[1]:2005.384766,vel[2]:-966.749084
0.898716 1.063499 0.402260,df:-213.100000
BD Pred_Dopp 30 -20734.85
GPS 0 Init Dop: -9853, 2
GPS 1 Init Dop: 10000,80
GPS 2 Init Dop: 10000,80
GPS 3 Init Dop: -9454, 2
GPS 4 Init Dop: 10000,80
GPS 5 Init Dop: 10000,80
GPS 6 Init Dop: 18591, 2
GPS 7 Init Dop: -4497, 2
GPS 8 Init Dop:-16479, 2
GPS 9 Init Dop: 10000,80
GPS10 Init Dop:-14273, 2
GPS11 Init Dop: 10000,80
GPS12 Init Dop: 10000,80
GPS13 Init Dop: 10000,80
GPS14 Init Dop: 10000,80
GPS15 Init Dop: 10000,80
GPS16 Init Dop: 10000,80
GPS17 Init Dop:-12884, 2
GPS18 Init Dop: 10000,80
GPS19 Init Dop: 10000,80
GPS20 Init Dop: 10000,80
GPS21 Init Dop: 10000,80
GPS22 Init Dop: -8912, 2
GPS23 Init Dop: 10000,80
GPS24 Init Dop: 10000,80
GPS25 Init Dop: 10000,80
GPS26 Init Dop:  6549, 2
GPS27 Init Dop: -1489, 2
GPS28 Init Dop: 10000,80
GPS29 Init Dop:   318, 2
GPS30 Init Dop: 10000,80
GPS31 Init Dop: 10000,80
BDS 0 Init Dop:  -962, 2
BDS 1 Init Dop:  -840, 2
BDS 2 Init Dop: -1103, 2
BDS 3 Init Dop: -1026, 2
BDS 4 Init Dop:  -835, 2
BDS 5 Init Dop: 10000,80
BDS 6 Init Dop:  7240, 2
BDS 7 Init Dop: -9891, 2
BDS 8 Init Dop:-27075, 2
BDS 9 Init Dop:  4632, 2
BDS10 Init Dop: 10000,80
BDS11 Init Dop: 10000,80
BDS12 Init Dop: -2108, 2
BDS13 Init Dop: 10000,80
BDS14 Init Dop: 10000,80
BDS15 Init Dop: 10000,80
BDS16 Init Dop: 10000,80
BDS17 Init Dop: 10000,80
BDS18 Init Dop: 10000,80
BDS19 Init Dop: 10000,80
BDS20 Init Dop: 10000,80
BDS21 Init Dop: 10000,80
BDS22 Init Dop: 10000,80
BDS23 Init Dop: 10000,80
BDS24 Init Dop: 10000,80
BDS25 Init Dop: 10000,80
BDS26 Init Dop: -5525, 2
BDS27 Init Dop: 10000,80
BDS28 Init Dop: 12975, 2
BDS29 Init Dop:-20609, 2
BDS30 Init Dop: 10000,80
BDS31 Init Dop: 10000,80
Good luck!
$GNGGA,000000.000,,,,,0,00,,,M,,,,0000*2B
$GNRMC,000000.000,A,,,,,,,060180,,*29
$GPGSA,A,1,,,,,,,,,,,,,,,*1E
$BDGSA,A,1,,,,,,,,,,,,,,,*0F
$GLGSA,A,1,,,,,,,,,,,,,,,*02
$B3CN0,0,0,0,0,0,0,0,0,0,0,0,0,0,0*4C
---00000001--- Acq_st=3 0  2019-4-24 6:27:31 
ch17 satid=38 freq=-840 acq ok!
ch18 satid=39 freq=-1103 acq ok!
$GNGGA,000000.000,,,,,0,00,,,M,,,,0000*2B
$GNRMC,000000.000,A,,,,,,,060180,,*29
$GPGSA,A,1,,,,,,,,,,,,,,,*1E
$BDGSA,A,1,,,,,,,,,,,,,,,*0F
$GLGSA,A,1,,,,,,,,,,,,,,,*02
$B3CN0,0,0,0,0,0,0,0,0,0,0,0,0,0,0*4C
---00000002--- Acq_st=3 0  2019-4-24 6:27:32 
[16]  37(B01)  1 28 14  0  -1212.0  4092005.2 -0.1  1 0  296  964 1664
[17]  38(B02)  1 19 23  0   -840.0  4092003.6  0.1  1 0  231  398 1233
[18]  39(B03)  1 36 28  0  -1103.0  4092004.3 -0.0  1 0  458 1055 1864
[19]  40(B04)  1 26 10  0  -1026.0  4092002.7  0.1  1 0  369  588 1255
[20]  41(B05)  1 10 22  0  -1085.0  4092003.0  0.0  1 0  288  269  354
$GNGGA,000000.000,,,,,0,00,,,M,,,,0000*2B
$GNRMC,000000.000,A,,,,,,,060180,,*29
$GPGSA,A,1,,,,,,,,,,,,,,,*1E
$BDGSA,A,1,,,,,,,,,,,,,,,*0F
$GLGSA,A,1,,,,,,,,,,,,,,,*02
$B3CN0,0,0,0,0,0,0,0,0,0,0,0,0,0,0*4C
---00000003--- Acq_st=3 0  2019-4-24 6:27:33 
[16]  37(B01)  1 10 36  1  -1066.8  4092002.2  0.2  1 0 1446 1092  288
[17]  38(B02)  1 10 10  1   -464.3  4092003.3  0.0  1 0  603  686  825
[18]  39(B03) 19 43 31  0  -1079.0  4092003.3  1.0  1 0 2224 2364 1009
[19]  40(B04)  9 40 20  0  -1071.1  4092003.7  0.9  1 0 1040 1414  649
[20]  41(B05)  1 16 27  1   -998.3  4092003.2  0.1  1 0  297  503  570
[21]  49(B13)  1  7  7  0  -2583.7  4092008.0 -0.2  1 0  756 2421 1742
[22]  52(B16)  1  7  7  0    500.0  4091999.7 -0.1  1 0  403  510  634
$GNGGA,000000.000,,,,,0,00,,,M,,,,0000*2B
$GNRMC,000000.000,A,,,,,,,060180,,*29
$GPGSA,A,1,,,,,,,,,,,,,,,*1E
$BDGSA,A,1,,,,,,,,,,,,,,,*0F
$GLGSA,A,1,,,,,,,,,,,,,,,*02
$B3CN0,0,0,0,0,0,0,0,0,0,0,0,0,0,0*4C
---00000004--- Acq_st=3 0  2019-4-24 6:27:34 
[16]  37(B01)  7 36 10  0  -1072.7  4092002.6  0.1  2 0 1463 1070  270
[17]  38(B02)  1 10 10  1   -586.8  4092005.0 -0.0  1 0  442  784  798
[18]  39(B03) 1f 43 30  0  -1077.1  4092002.7  0.2  2 0 1611 1579  541
[19]  40(B04)  f 39 22  0  -1075.1  4092002.6  0.6  2 0 1060 1396  639
[20]  41(B05)  7 28 19  0  -1139.0  4092003.3  0.0  2 0  139  473  957
[21]  49(B13)  7  7  7  0  -2584.9  4092006.7  0.4  5 0 1118 1795  984
[22]  52(B16)  1  7  7  0    470.9  4091998.8  0.0  1 0 1132 1041  435
$GNGGA,000000.000,,,,,0,00,,,M,,,,0000*2B
$GNRMC,000000.000,A,,,,,,,060180,,*29
$GPGSA,A,1,,,,,,,,,,,,,,,*1E
$BDGSA,A,1,,,,,,,,,,,,,,,*0F
$GLGSA,A,1,,,,,,,,,,,,,,,*02
$BDGSV,1,1,04,01,00,000,36,03,00,000,43,04,00,000,39,05,00,000,28*6D
$B3CN0,0,0,0,0,0,0,0,0,0,0,0,0,0,0*4C
---00000005--- Acq_st=3 0  2019-4-24 6:27:35 
[16]  37(B01)  f 36 17  0  -1064.2  4092002.6  0.3  2 0 1587  756  232
[17]  38(B02)  1 10 10  1   -571.7  4092004.3  0.2  1 0 1281 1000  404
[18]  39(B03) 1f 41 28  0  -1080.8  4092002.7 -0.0  2 0 1849 1951  949
[19]  40(B04)  f 38 10  0  -1075.9  4092002.6 -0.7  2 0  826 1363  286
[20]  41(B05)  7 31 25  0  -1086.3  4092003.1  0.2  2 0  152  789 1787
[21]  49(B13)  7 43  7  0  -2579.4  4092006.7 -0.0  2 0 1652 2086  765
[22]  52(B16)  7 28  7  0    469.9  4091998.7  0.1 10 0  960 1088  608
[50]  39(B03)  1 18 21  0   -858.9 20460016.2  0.2  1 0  647  313  392
[51]  40(B04)  1 13 22  0   -648.6 20460021.8  0.1  1 0  433  696  654
ch32 satid=78 freq=0 acq ok!
ch33 satid=79 freq=-3750 acq ok!
ch34 satid=82 freq=1250 acq ok!
ch35 satid=83 freq=-2250 acq ok!
ch36 satid=84 freq=3000 acq ok!
$GNGGA,000000.000,,,,,0,00,,,M,,,,0000*2B
$GNRMC,000000.000,A,,,,,,,060180,,*29
$GPGSA,A,1,,,,,,,,,,,,,,,*1E
$BDGSA,A,1,,,,,,,,,,,,,,,*0F
$GLGSA,A,1,,,,,,,,,,,,,,,*02
$BDGSV,2,1,06,01,00,000,36,03,00,000,41,04,00,000,38,05,00,000,31*67
$BDGSV,2,2,06,13,00,000,43,16,00,000,28*66
$B3CN0,0,0,0,0,0,0,0,0,0,0,0,0,0,0*4C
---00000006--- Acq_st=3 0  2019-4-24 6:27:36 
[16]  37(B01) 1f 38 18  0  -1062.4  4092002.6  0.9  2 0 1438  845  480
[17]  38(B02)  1 18 10  0   -300.2  4092006.2  0.1  1 0  228  103  326
[18]  39(B03) 1f 42 30  0  -1073.5  4092002.7  0.0  2 0 1425 2062 1082
[19]  40(B04) 1f 38 26  0  -1068.3  4092002.6  0.8  2 0 1139 1255  322
[20]  41(B05) 1f 34 28  0  -1094.4  4092003.1  0.2  2 0  161  223  503
[21]  49(B13)  7 42  7  0  -2578.4  4092006.7  0.0  2 0 1228 1802  607
[22]  52(B16)  7 36 10  0    479.0  4091998.7 -0.3  2 0  978  834  355
[32]  78(N-3)  1 25  8  0      0.0  1022001.4  0.0  1 0  1280 3219 2005
[33]  79(N-2)  1 25  7  0  -3750.0  1022004.5 -0.1  1 0   265  556 1077
[34]  82(N01)  1 25  7  0   1250.0  1022002.2  0.0  1 0   143 1233 1536
[35]  83(N02)  1 14  7  0  -2276.3  1022002.9  0.0  1 0   364  477 1257
[36]  84(N03)  1  7  7  0 -23465.2  1022000.7 -0.0  1 0   238  473 1008
[48]  37(B01)  1 16 17  1   -864.5 20460018.2  0.1  1 0  163  119  300
[50]  39(B03)  1 23 21  0  -1033.2 20460022.3 -0.1  1 0  343  379  351
[51]  40(B04)  1 22 21  1   -740.9 20460021.8  0.0  1 0  392  308  523
$GNGGA,000000.000,,,,,0,00,,,M,,,,0000*2B
$GNRMC,000000.000,A,,,,,,,060180,,*29
$GPGSA,A,1,,,,,,,,,,,,,,,*1E
$BDGSA,A,1,,,,,,,,,,,,,,,*0F
$GLGSA,A,1,,,,,,,,,,,,,,,*02
$BDGSV,2,1,06,01,00,000,37,03,00,000,42,04,00,000,38,05,00,000,35*61
$BDGSV,2,2,06,13,00,000,42,16,00,000,36*68
$B3CN0,0,0,0,0,0,0,0,0,0,0,0,0,0,0*4C
---00000007--- Acq_st=7 0  2019-4-24 6:27:37 
[16]  37(B01) 1f 39 10  0  -1064.8  4092002.5 -0.7  2 0 1240 1356  487
[18]  39(B03) 1f 43 31  0  -1073.7  4092002.7 -0.1  2 0 1237 1714  432
[19]  40(B04) 1f 39 23  0  -1068.7  4092002.6 -0.1  2 0 1280 1313  338
[20]  41(B05) 1f 38 14  0  -1096.8  4092003.1 -0.4  2 0  313  901  940
[21]  49(B13)  7 41  7  0  -2576.8  4092006.6  0.0  2 0 1332 1655  620
[22]  52(B16)  7 36  7  0    476.6  4091998.7  0.2  2 0  503  654  108
[32]  78(N-3)  1 24 17  0    -70.7  1021999.8  1.0  1 0  2047 2916 1486
[33]  79(N-2)  1 20 15  0  -3793.9  1022002.4  0.9  1 0  1126 1452  678
[34]  82(N01)  1 44  7  0   1263.0  1021998.9  1.0  1 0  1761 1499  401
[35]  83(N02)  1 44 17  0  -2265.8  1022001.8  1.0  1 0   974 1714  900
[36]  84(N03)  1 31 19  0   3063.2  1021997.9  0.9  1 0   657  619  195
[48]  37(B01)  7 10 10  0   -917.5 20460013.1  0.0  2 0  638  396  111
[50]  39(B03)  1 22 22  0  -1115.3 20460020.9 -0.1  1 0  620  310  526
[51]  40(B04)  1 23 14  1   -914.5 20460022.3 -0.0  1 0  691  434  330
ch0 satid=0 freq=-4000 acq ok!
ch1 satid=3 freq=1000 acq ok!
ch2 satid=6 freq=-1750 acq ok!
ch3 satid=7 freq=1000 acq ok!
ch4 satid=8 freq=1500 acq ok!
ch5 satid=10 freq=-2750 acq ok!
$GNGGA,000000.000,,,,,0,00,,,M,,,,0000*2B
$GNRMC,000000.000,A,,,,,,,060180,,*29
$GPGSA,A,1,,,,,,,,,,,,,,,*1E
$BDGSA,A,1,,,,,,,,,,,,,,,*0F
$GLGSA,A,1,,,,,,,,,,,,,,,*02
$BDGSV,2,1,06,01,00,000,38,03,00,000,43,04,00,000,38,05,00,000,38*62
$BDGSV,2,2,06,13,00,000,42,16,00,000,36*68
$B3CN0,0,0,0,0,0,0,0,0,0,0,0,0,0,0*4C
---00000008--- Acq_st=3 0  2019-4-24 6:27:38 
[00]  00(G01)  1 27  7  0  -3948.4  2046005.5  0.4  1 0  982 1569  400
[01]  03(G04)  1 27 10  0    975.2  2045999.2  0.2  1 0 1307 2114 1085
[02]  06(G07)  1  7  7  0  -1840.1  2046005.4  0.1  1 0 1561 3175 4804
[03]  07(G08)  1  7  7  0   1000.0  2045999.2  0.0  1 0 1897 2928 1184
[04]  08(G09)  1  7  7  0   1500.0  2046001.6  0.1  1 0 1364 2783 2934
[05]  10(G11)  1  7  7  0  -2750.0  2046005.7 -0.1  1 0  203 1005 2179
[16]  37(B01) 1f 39 19  0  -1061.3  4092002.4  0.8  2 0 1369  923  251
[18]  39(B03) 1f 43 30  0  -1071.9  4092002.6 -0.3  2 0 1843 1888  710
[19]  40(B04) 1f 38 10  0  -1070.6  4092002.5  0.3  2 0 1517 1316  123
[20]  41(B05) 1f 38 27  0  -1087.6  4092002.7  0.8  2 0  951  957  368
[21]  49(B13)  7 41  9  0  -2577.7  4092006.6 -0.1  2 0  975 1894  824
[22]  52(B16)  7 36  8  0    466.7  4091998.6  0.7  2 0  648  835   77
[32]  78(N-3)  1 29 23  0    -69.4  1021999.9  1.0  1 0  1795 2640 1399
[33]  79(N-2)  1 25  7  0  -3791.9  1022002.4  0.9  1 0   756 1364  854
[34]  82(N01)  1 44  7  0   1263.8  1021999.0  1.0  1 0  1050 1722  659
[35]  83(N02)  1 44 15  0  -2265.5  1022001.4  1.0  1 0   974 1586  676
[36]  84(N03)  1 33 17  0   3063.1  1021997.5  1.0  1 0  1114 1247  534
[48]  37(B01)  7 10 10  1  -1377.2 20460024.7 -0.2  2 0  624  470  263
[50]  39(B03)  1 20 24  0   -865.7 20460016.9  0.1  1 0  183  252  535
[51]  40(B04)  1 23 18  0   -628.0 20460021.6 -0.3  1 0  563  255  510
[52]  41(B05)  1 27 25  0   -896.5 20460017.5 -0.0  1 0  372  431  556
ch6 satid=17 freq=-2500 acq ok!
$GNGGA,000000.000,,,,,0,00,,,M,,,,0000*2B
$GNRMC,000000.000,A,,,,,,,060180,,*29
$GPGSA,A,1,,,,,,,,,,,,,,,*1E
$BDGSA,A,1,,,,,,,,,,,,,,,*0F
$GLGSA,A,1,,,,,,,,,,,,,,,*02
$BDGSV,2,1,06,01,00,000,40,03,00,000,43,04,00,000,38,05,00,000,38*6D
$BDGSV,2,2,06,13,00,000,41,16,00,000,36*6B
$B3CN0,0,0,0,0,0,0,0,0,0,0,0,0,0,0*4C
---00000009--- Acq_st=3 0  2019-4-24 6:27:39 
[00]  00(G01)  7 26  7  0  -3954.0  2046005.1  0.7 10 0 1372 2437 1199
[01]  03(G04)  7 16  7  0    973.9  2045998.7  0.9 10 0 1657 2104  890
[02]  06(G07)  1 36  7  0  -1857.1  2046002.3  0.9  1 0 3580 4326 2137
[03]  07(G08)  1 32  7  0   1106.4  2045998.4  0.9  1 0 2246 3473 1373
[04]  08(G09)  1 28  7  0   1570.9  2045997.7  0.8  1 0 2737 2109  776
[05]  10(G11)  1 29  7  0  -2577.0  2046003.2  0.8  1 0 1716 2518 1151
[06]  17(G18)  1 26  7  0  -2504.3  2046006.2  0.2  1 0  766 2324 2245
[08]  22(G23)  1  7  7  0   1750.0  2045997.7 -0.0  1 0 1253 1122  335
[09]  26(G27)  1  7  7  0   2250.0  2045999.1 -0.0  1 0  631  854  992
[16]  37(B01) 1f 39 19  0  -1067.0  4092002.5  0.6  2 0 1137 1141  246
[18]  39(B03) 1f 42 31  0  -1079.9  4092002.7 -0.1  2 0 1095 1817  738
[19]  40(B04) 1f 40 24  0  -1073.5  4092002.6  0.3  2 0 1037 1228  707
[20]  41(B05) 1f 40 23  0  -1100.9  4092003.0  0.4  2 0  178  672  352
[21]  49(B13)  7 42  7  0  -2585.5  4092006.6 -0.0  2 0  988 2101 1113
[22]  52(B16)  7 36  7  0    464.3  4091998.7  0.1  2 0  485  882  471
[32]  78(N-3)  7 49 23  0    -71.3  1022000.0  0.1  2 0  1729 3073 1727
[33]  79(N-2)  7 44 12  0  -3795.2  1022002.4 -0.0  2 0   885 1488  815
[34]  82(N01)  f 29  7  0   1262.2  1021999.2  0.4  5 0  1073 1874  814
[35]  83(N02)  7 44 17  0  -2267.3  1022001.4 -0.2  2 0  1144 2115 1060
[36]  84(N03)  7 35 17  0   3060.1  1021998.1  0.5  2 0   651 1168  351
[48]  37(B01)  7 10 10  1  -1828.4 20460031.3  0.2  2 0  113  210  247
[50]  39(B03)  f 24 10  1  -1091.6 20460018.2  0.1  2 0  505  771  190
[52]  41(B05)  1 23 21  1   -533.5 20460013.0  0.2  1 0  740  391  172
ch11 satid=29 freq=-3750 acq ok!
ch24 satid=43 freq=-1250 acq ok!
$GNGGA,000000.000,,,,,0,00,,,M,,,,0000*2B
$GNRMC,000000.000,A,,,,,,,060180,,*29
$GPGSA,A,1,,,,,,,,,,,,,,,*1E
$BDGSA,A,1,,,,,,,,,,,,,,,*0F
$GLGSA,A,1,,,,,,,,,,,,,,,*02
$GPGSV,1,1,02,01,00,000,26,04,00,000,16*7D
$BDGSV,2,1,06,01,00,000,40,03,00,000,42,04,00,000,39,05,00,000,40*62
$BDGSV,2,2,06,13,00,000,42,16,00,000,36*68
$B3CN0,0,0,24,0,0,0,0,0,0,0,0,0,0,0*7A
---00000010--- Acq_st=3 0  2019-4-24 6:27:40 
[00]  00(G01)  7 43  7  0  -3961.6  2046005.1 -0.0  2 0 1738 2187  612
[01]  03(G04)  7 42  7  0    971.3  2045998.7 -0.0  2 0 1208 2121 1105
[02]  06(G07)  7 39  7  0  -1859.5  2046002.3  0.0  2 0 3272 3963 1831
[03]  07(G08)  7 36  7  0   1106.0  2045998.5  0.1  2 0 2093 3033 1197
[04]  08(G09)  7 35  7  0   1566.2  2045997.8  0.3  5 0 2412 2599  832
[05]  10(G11)  7 32  7  0  -2583.0  2046003.2  0.2  5 0 1482 2149  779
[06]  17(G18)  7 21  7  0  -2506.4  2046003.1  0.8 10 0 2465 2653  991
[08]  22(G23)  1 33  7  0   1946.4  2045997.4  0.8  1 0  965 1270  737
[09]  26(G27)  1 22  7  0   2158.9  2045997.4  0.4  1 0 1288 1434  388
[10]  27(G28)  1 23  7  0  -2797.3  2046004.8  0.3  1 0  762 1793 1399
[11]  29(G30)  1 22  7  0  -3645.9  2046005.9  0.3  1 0 1293 2886 1916
[16]  37(B01) 1f 40 10  0  -1067.1  4092002.8  0.0  2 0 1284 1123  712
[17]  38(B02)  1 10 24  0  -1000.0  4092003.9 -0.1  1 0  368  236 1072
[18]  39(B03) 1f 45 30  0  -1087.1  4092002.7 -0.1  2 0 1668 2206  857
[19]  40(B04) 1f 40 18  0  -1080.5  4092002.8  0.6  2 0  939 1482  463
[20]  41(B05) 1f 39 26  0  -1101.3  4092002.8 -0.1  2 0 1152 1490  797
[21]  49(B13) 1f 41  7  0  -2589.5  4092006.7 -0.0  2 0 1737 2291 1007
[22]  52(B16) 1f 36  7  0    462.2  4091998.7 -0.0  2 0  832  834  513
[24]  43(B07)  1  7  7  0  -1250.0  4092005.1  0.0  1 0  126  347 1823
[25]  44(B08)  1  7  7  0  -2250.0  4092006.7 -0.0  1 0  481  437 1247
[32]  78(N-3)  7 49 15  0    -76.6  1022000.0 -0.1  2 0  1679 2860 1263
[33]  79(N-2)  7 44 20  0  -3801.0  1022002.4 -0.1  2 0   490 1449  826
[34]  82(N01)  f 33  7  0   1254.9  1021999.2  0.0  2 0   518 1237  628
[35]  83(N02)  7 44 17  0  -2271.8  1022001.4  0.2  2 0   792 1505  559
[36]  84(N03)  7 40 21  0   3055.3  1021998.1  0.1  2 0   869 1171  461
[48]  37(B01)  7 10 19  1  -2518.2 20460040.6 -0.1  2 0  424  272  119
[50]  39(B03)  f 18 25  1  -1266.0 20460019.4 -0.2  2 0  470  435  421
[51]  40(B04)  1 24 22  1   -698.9 20460021.0  0.1  1 0  263  207  221
[52]  41(B05)  1 23 20  1   -653.7 20460018.9 -0.0  1 0  861 1076  857
ch27 satid=46 freq=-1250 acq ok!
$GNGGA,000000.000,,,,,0,00,,,M,,,,0000*2B
$GNRMC,000000.000,A,,,,,,,060180,,*29
$GPGSA,A,1,,,,,,,,,,,,,,,*1E
$BDGSA,A,1,,,,,,,,,,,,,,,*0F
$GLGSA,A,1,,,,,,,,,,,,,,,*02
$GPGSV,2,1,07,01,00,000,43,04,00,000,42,07,00,000,38,08,00,000,36*78
$GPGSV,2,2,07,09,00,000,35,11,00,000,32,18,00,000,20*4B
$BDGSV,2,1,06,01,00,000,41,03,00,000,45,04,00,000,40,05,00,000,39*64
$BDGSV,2,2,06,13,00,000,41,16,00,000,36*6B
$B3CN0,0,0,19,0,0,0,0,0,0,0,0,0,0,0*74
---00000011--- Acq_st=3 0  2019-4-24 6:27:41 
[00]  00(G01)  7 43  8  0  -3946.3  2046005.0  0.0  2 0 1348 2493 1369
[01]  03(G04)  7 41  7  0    982.9  2045998.7  0.0  2 0 1294 1780  505
[02]  06(G07)  7 45  7  0  -1845.1  2046002.3 -0.0  2 0 3415 5029 2517
[03]  07(G08)  7 44  7  0   1120.9  2045998.5 -0.0  2 0 1976 3839 2186
[04]  08(G09)  7 43  7  0   1581.4  2045997.8 -0.0  2 0 2055 2613 1193
[05]  10(G11)  7 43  7  0  -2565.2  2046003.2  0.0  2 0 1927 2516 1476
[06]  17(G18)  7 43  7  0  -2491.8  2046003.1  0.1  2 0 1741 3271 1408
[08]  22(G23)  7 32  7  0   1958.2  2045997.5  0.5  5 0 1428 1175  542
[09]  26(G27)  7 26  7  0   2173.9  2045997.0  0.4 10 0 1188  924   95
[10]  27(G28)  7 25  7  0  -2781.3  2046003.5  0.6 10 0  665  797  402
[11]  29(G30)  7 23  7  0  -3631.1  2046004.6  0.8 10 0 1324 2175  976
[16]  37(B01) 1f 40 21  0  -1059.2  4092002.5 -0.3  2 0 1391 1310  541
[17]  38(B02)  1 10 10  1  -1556.6  4092003.8  0.1  1 0  510  309  980
[18]  39(B03) 1f 42 31  0  -1071.5  4092002.7  0.1  2 0 1570 2244  980
[19]  40(B04) 1f 40 23  0  -1063.7  4092002.7 -0.4  2 0 1108  792  146
[20]  41(B05) 1f 39 25  0  -1090.5  4092002.7 -0.3  2 0 1231 1208  222
[21]  49(B13) 1f 42  8  0  -2575.6  4092006.6 -0.0  2 0 1641 2044  828
[22]  52(B16) 1f 36  8  0    476.4  4091998.6  0.1  2 0  541  532  357
[24]  43(B07)  1  7  7  0  -1334.0  4092004.0  0.3  1 0 1353 2113 1025
[25]  44(B08)  1  7  7  0  -2343.8  4092007.6 -0.0  1 0 1071 1796 1127
[26]  45(B09)  1  7  7  0    724.5  4091999.6  0.0  1 0  636 1071  892
[27]  46(B10)  1  7  7  0  -1463.2  4092006.8  0.1  1 0  118 1007 2175
[32]  78(N-3)  7 49 19  0    -62.7  1022000.0 -0.1  2 0  2014 2933 1398
[33]  79(N-2)  7 44 20  0  -3785.9  1022002.4 -0.2  2 0   594 1764 1018
[34]  82(N01)  f 29  7  0   1266.2  1021999.4  0.1  5 0   919 1764  942
[35]  83(N02)  7 44 17  0  -2259.4  1022001.4 -0.1  2 0  1051 1707 1121
[36]  84(N03)  7 40 20  0   3067.3  1021998.0  0.5  2 0   333  789  735
[50]  39(B03)  f 19 10  1  -1664.1 20460027.7  0.0  2 0  758  714  196
[51]  40(B04)  1 22 27  0  -1014.5 20460021.3 -0.2  1 0  134  549  636
[52]  41(B05)  1 22 22  0   -266.9 20460023.2 -0.0  1 0  549  472  440
[53]  49(B13)  1  7  7  0  -2422.3 20460040.3 -0.1  1 0  494  592  231
[54]  52(B16)  1  7 13  0    791.5 20459992.8 -0.0  1 0  292  248  229
$GNGGA,000000.000,,,,,0,00,,,M,,,,0000*2B
$GNRMC,000000.000,A,,,,,,,060180,,*29
$GPGSA,A,1,,,,,,,,,,,,,,,*1E
$BDGSA,A,1,,,,,,,,,,,,,,,*0F
$GLGSA,A,1,,,,,,,,,,,,,,,*02
$GPGSV,3,1,11,01,00,000,43,04,00,000,42,07,00,000,45,08,00,000,43*76
$GPGSV,3,2,11,09,00,000,43,11,00,000,42,18,00,000,43,23,00,000,37*7B
$GPGSV,3,3,11,27,00,000,36,28,00,000,36,30,00,000,44*45
$BDGSV,3,1,10,01,00,000,40,03,00,000,42,04,00,000,39,05,00,000,38*6B
$BDGSV,3,2,10,13,00,000,41,16,00,000,36,07,00,000,30,08,00,000,28*6B
$BDGSV,3,3,10,09,00,000,24,10,00,000,22*67
$B3CN0,0,0,0,0,0,0,0,0,0,0,0,0,0,0*4C
---00000012--- Acq_st=3 0  2019-4-24 6:27:42 
[00]  00(G01)  7 43  7  0  -3952.4  2046005.1  0.0  2 0 1778 2684 1373
[01]  03(G04)  7 42 10  0    972.1  2045998.6 -0.0  2 0 1065 1869  879
[02]  06(G07)  7 45  7  0  -1853.1  2046002.3  0.0  2 0 3682 5033 2001
[03]  07(G08)  7 43  7  0   1110.8  2045998.5  0.0  2 0 2541 3545 1553
[04]  08(G09)  7 43  7  0   1573.2  2045997.9 -0.0  2 0 2058 2978 1543
[05]  10(G11)  7 42  7  0  -2574.7  2046003.3  0.0  2 0 1788 2853 1310
[06]  17(G18)  7 43 12  0  -2502.7  2046003.1  0.0  2 0 1809 2549  817
[08]  22(G23)  7 37  7  0   1946.9  2045997.4 -0.5  2 0  579 1110  520
[09]  26(G27)  7 36 12  0   2162.8  2045997.0 -0.2  2 0 1110  919  629
[10]  27(G28)  7 36  7  0  -2791.6  2046003.6  0.7  2 0  587  958   89
[11]  29(G30)  7 44  7  0  -3636.7  2046004.6  0.0  2 0 2223 3096 1059
[16]  37(B01) 1f 40 10  0  -1066.1  4092002.5 -0.4  2 0  721 1066  500
[17]  38(B02)  1 10 10  1  -1590.8  4092004.5  0.0  1 0  932 1253  796
[18]  39(B03) 1f 43 32  0  -1079.2  4092002.7 -0.1  2 0 1865 2032  829
[19]  40(B04) 1f 38 22  0  -1071.5  4092002.7 -0.4  2 0  911 1289  471
[20]  41(B05) 1f 38 22  0  -1096.9  4092002.8  0.9  2 0  950 1510  745
[21]  49(B13) 1f 41  7  0  -2584.9  4092006.7  0.0  2 0 1477 1758  703
[22]  52(B16) 1f 36  7  0    468.7  4091998.6 -0.1  2 0  728 1180  612
[24]  43(B07)  7 31  7  0  -1340.7  4092003.3  0.1  5 0 1574 1857  833
[25]  44(B08)  7 28  7  0  -2354.1  4092006.0  0.1 10 0 1378 1819  771
[26]  45(B09)  7 24  7  0    718.0  4091997.9  0.3 10 0  828  951   96
[27]  46(B10)  7 23  7  0  -1470.3  4092003.7  0.3 10 0 2099 2297 1075
[32]  78(N-3)  7 49 21  0    -70.3  1022000.0 -0.1  2 0  1658 3219 1580
[33]  79(N-2)  7 44  8  0  -3794.3  1022002.4  0.1  2 0   682 1668  664
[34]  82(N01)  f 31  7  0   1259.3  1021999.2  0.1  5 0  1067 1919  949
[35]  83(N02)  7 44 18  0  -2266.4  1022001.4  0.0  2 0   534 1433  757
[36]  84(N03)  7 40 21  0   3058.2  1021998.0  0.1  2 0   715 1124  665
[48]  37(B01)  1 10 13  0   -968.0 20460016.6  0.1  1 0  123  129  158
[50]  39(B03)  f 19 21  0  -2050.8 20460034.6  0.1  2 0  128  560  160
[51]  40(B04)  1 20 17  0  -1078.5 20460019.6  0.1  1 0  205  312  603
[53]  49(B13)  1  7  7  0  -3410.3 20460038.7 -0.0  1 0  214  302  418
[54]  52(B16)  1  7  7  0    762.6 20459993.1  0.1  1 0   87   83  130
ch28 satid=63 freq=1000 acq ok!
ch29 satid=65 freq=-3750 acq ok!
ch30 satid=66 freq=-1750 acq ok!
---00000013--- Acq_st=3 0  2019-4-24 6:27:43 
[00]  00(G01)  7 43  7  0  -3950.3  2046005.0  0.0  2 0 1797 2899 1356
[01]  03(G04)  7 41 13  0    977.0  2045998.7  0.0  2 0 1144 1820 1008
[02]  06(G07)  7 45  7  0  -1850.9  2046002.3  0.0  2 0 2983 4202 2151
[03]  07(G08)  7 44  7  0   1111.9  2045998.5 -0.0  2 0 2620 4019 1805
[04]  08(G09)  7 43  8  0   1573.2  2045997.9  0.0  2 0 2210 3016  860
[05]  10(G11)  7 42  7  0  -2570.7  2046003.3 -0.0  2 0 1755 2804 1482
[06]  17(G18)  7 43  7  0  -2496.7  2046003.2  0.1  2 0 1712 2539 1128
[08]  22(G23)  7 37  7  0   1955.7  2045997.4 -0.4  2 0 1007 1034  600
[09]  26(G27)  7 36  7  0   2166.2  2045997.0  0.3  2 0  869 1190  424
[10]  27(G28)  7 37  7  0  -2785.0  2046003.5  0.6  2 0  977 1184  256
[11]  29(G30)  7 43  8  0  -3636.3  2046004.6 -0.0  2 0 1769 2601 1591
[16]  37(B01) 1f 39 10  0  -1065.5  4092002.8 -0.4  2 0 1278 1292  487
[17]  38(B02)  1 10 10  0  -1749.9  4092003.9 -0.2  1 0  723  421  137
[18]  39(B03) 1f 43 31  0  -1078.5  4092002.7 -0.1  2 0 1008 1444  335
[19]  40(B04) 1f 40 10  0  -1072.3  4092002.8 -0.5  2 0 1008 1141  283
[20]  41(B05) 1f 37 26  0  -1091.3  4092002.7 -0.1  2 0  753 1044  404
[21]  49(B13) 1f 41  7  0  -2582.8  4092006.6  0.0  2 0 1767 2011  471
[22]  52(B16) 1f 36  7  0    467.6  4091998.7 -0.1  2 0  756  820  362
[24]  43(B07)  7 42  7  0  -1338.6  4092003.3  0.1  2 0 2178 2074  865
[25]  44(B08)  7 41  7  0  -2350.0  4092006.1 -0.0  2 0  876 1363  676
[26]  45(B09)  7 37  7  0    717.4  4091998.0  0.4  2 0  560  511  240
[27]  46(B10)  7 44 11  0  -1468.0  4092003.7  0.0  2 0 1836 2343  845
[28]  63(B27)  1  7  7  0   1000.0  4091997.2 -0.1  1 0 2193 3271 1365
[29]  65(B29)  1  7  7  0  -3750.0  4092009.1 -0.0  1 0  447  374  170
[30]  66(B30)  1  9  7  0  -1750.0  4092006.5 -0.0  1 0  126 1960 3938
[32]  78(N-3)  f 38 19  0    -66.7  1022000.0 -0.1  2 0  1769 3089 1513
[33]  79(N-2)  f 37  7  0  -3791.1  1022002.4  0.1  2 0   786 1522  956
[34]  82(N01)  f 31  7  0   1262.4  1021999.1 -0.1  5 0   880 1312  366
[35]  83(N02)  f 37  7  0  -2263.6  1022001.4  0.0  2 0   483 1340  444
[36]  84(N03)  f 36  7  0   3062.5  1021998.0  0.3  2 0   501 1046  768
[48]  37(B01)  1 10 10  1   -599.1 20460015.4 -0.0  1 0  591  536 1048
[50]  39(B03)  f 14 10  0  -2343.4 20460037.9 -0.0  2 0  582  488  469
[51]  40(B04)  1 22 24  0   -862.0 20460020.6 -0.1  1 0  563  940  818
[52]  41(B05)  1 24 20  0   -939.7 20460014.0 -0.0  1 0  216  194  531
[53]  49(B13)  1 12  7  0  -2969.3 20460041.7  0.1  1 0  261  541  443
[54]  52(B16)  1  7  7  0    749.7 20459994.0  0.0  1 0  258  247  221
$GNGGA,000000.000,,,,,0,00,,,M,,,,0000*2B
$GNRMC,000000.000,A,,,,,,,060180,,*29
$GPGSA,A,1,,,,,,,,,,,,,,,*1E
$BDGSA,A,1,,,,,,,,,,,,,,,*0F
$GLGSA,A,1,,,,,,,,,,,,,,,*02
$GPGSV,3,1,11,01,00,000,43,04,00,000,41,07,00,000,45,08,00,000,44*72
$GPGSV,3,2,11,09,00,000,43,11,00,000,42,18,00,000,43,23,00,000,37*7B
$GPGSV,3,3,11,27,00,000,36,28,00,000,37,30,00,000,43*43
$BDGSV,3,1,10,01,00,000,39,03,00,000,43,04,00,000,40,05,00,000,37*65
$BDGSV,3,2,10,13,00,000,41,16,00,000,36,07,00,000,42,08,00,000,41*61
$BDGSV,3,3,10,09,00,000,37,10,00,000,44*65
$B3CN0,0,0,0,0,0,0,0,0,0,0,0,0,0,0*4C
---00000014--- Acq_st=3 0  2019-4-24 6:27:44 
[00]  00(G01)  f 42  7  0  -3951.7  2046005.1 -0.0  2 0 1651 2555  916
[01]  03(G04)  f 41  9  0    976.7  2045998.7 -0.1  2 0 1640 2275 1329
[02]  06(G07)  f 45  9  0  -1850.8  2046002.3  0.0  2 0 3378 4343 1829
[03]  07(G08)  f 44  7  0   1113.2  2045998.5 -0.0  2 0 2675 3722 1878
[04]  08(G09)  f 43  7  0   1576.4  2045997.9  0.0  2 0 1728 2715 1264
[05]  10(G11)  f 43  7  0  -2569.9  2046003.3 -0.0  2 0 1910 2972 1455
[06]  17(G18)  f 43  7  0  -2496.7  2046003.2 -0.0  2 0 1688 2894 1337
[08]  22(G23)  f 36  9  0   1947.8  2045997.4  0.0  2 0  568 1008 1113
[09]  26(G27)  f 36  7  0   2171.1  2045997.1 -0.5  2 0  771 1361 1221
[10]  27(G28)  f 37  7  0  -2796.7  2046003.5  0.4  2 0  885 1232  760
[11]  29(G30)  f 43  7  0  -3635.9  2046004.7  0.0  2 0 2400 2914  903
[16]  37(B01) 1f 39 10  0  -1070.0  4092002.7 -0.1  2 0 1310 1723  917
[17]  38(B02)  1 10 13  1  -1811.1  4092006.2  0.1  1 0  540  540  270
[18]  39(B03) 1f 42 31  0  -1079.9  4092002.7 -0.1  2 0 1538 1785  581
[19]  40(B04) 1f 40 25  0  -1072.4  4092002.7 -0.7  2 0 1114 1594  683
[20]  41(B05) 1f 38 18  0  -1097.0  4092002.8 -0.6  2 0  868 1030  192
[21]  49(B13) 1f 42  7  0  -2586.1  4092006.7 -0.0  2 0 1659 1658  901
[22]  52(B16) 1f 36  8  0    475.8  4091998.7  0.3  2 0  912  995  515
[24]  43(B07)  7 42  7  0  -1338.0  4092003.4 -0.0  2 0 1853 2060  708
[25]  44(B08)  7 42  7  0  -2349.1  4092006.0 -0.0  2 0 1603 1786  937
[26]  45(B09)  7 37  7  0    721.7  4091998.0 -0.1  2 0  880  993  717
[27]  46(B10)  7 43  7  0  -1467.6  4092003.7  0.0  2 0 1821 2355 1296
[28]  63(B27)  1  7  7  0   1104.5  4091996.7  0.5  1 0 2431 3767 1969
[29]  65(B29)  1  7  7  0  -3824.5  4092008.7 -0.1  1 0  241  183  537
[30]  66(B30)  1 35 14  0  -1772.3  4092004.8  0.6  1 0 2380 3315 1654
[32]  78(N-3)  f 48 22  0    -67.4  1022000.0  0.1  2 0  1546 2991 1299
[33]  79(N-2)  f 43  7  0  -3790.9  1022002.4 -0.1  2 0   675 1458 1031
[34]  82(N01)  f 30  7  0   1262.1  1021999.4  0.1  5 0   785 1457  682
[35]  83(N02)  f 43  7  0  -2265.8  1022001.4 -0.1  2 0  1134 1851  981
[36]  84(N03)  f 40  7  0   3060.5  1021998.0 -0.0  2 0   635 1195  624
[48]  37(B01)  7 10 10  1   -688.2 20460010.8 -0.0  2 0  749  948  459
[50]  39(B03)  f 26 22  0  -2519.3 20460041.4  0.1  2 0  247   82  477
[52]  41(B05)  1 24 27  1   -531.2 20460020.9  0.0  1 0  263  598  331
[53]  49(B13)  1  8  7  0  -3067.1 20460042.0  0.0  1 0  438  510  912
[54]  52(B16)  1  7  7  0    198.0 20459994.9  0.1  1 0  297  356  194
$GNGGA,062743.854,2944.9112,N,10633.0923,E,1,15,0.8,333.2,M,,,,0000*1E
$GNRMC,062743.854,A,2944.9112,N,10633.0923,E,0.78,0.00,090180,,*10
$GPGSA,A,3,01,07,08,09,11,18,23,27,28,30,,,1.3,0.8,1.1*3B
$BDGSA,A,3,01,03,04,05,13,,,,,,,,1.3,0.8,1.1*28
$GLGSA,A,3,,,,,,,,,,,,,1.3,0.8,1.1*24
$GPGSV,3,1,11,01,00,000,42,04,00,000,41,07,00,000,45,08,00,000,44*73
$GPGSV,3,2,11,09,00,000,43,11,00,000,43,18,00,000,43,23,00,000,36*7B
$GPGSV,3,3,11,27,00,000,36,28,00,000,37,30,00,000,43*43
$BDGSV,3,1,10,01,00,000,39,03,00,000,42,04,00,000,40,05,00,000,38*6B
$BDGSV,3,2,10,13,00,000,42,16,00,000,36,07,00,000,42,08,00,000,42*61
$BDGSV,3,3,10,09,00,000,37,10,00,000,43*62
$B3CN0,0,0,27,0,0,0,0,0,0,0,0,0,0,0*79
---00000015--- Acq_st=7 0  2000-1-9 6:27:44 
[00]  00(G01)  f 42  8  0  -3949.7  2046005.0  0.0  2 0 1527 2183 1291
[01]  03(G04)  f 41 11  0    976.7  2045998.7  0.0  2 0 1340 2436 1234
[02]  06(G07)  f 45  7  0  -1850.4  2046002.3 -0.0  2 0 3390 5189 2942
[03]  07(G08)  f 44  7  0   1114.4  2045998.5  0.0  2 0 2243 3378 1525
[04]  08(G09)  f 43  7  0   1575.6  2045997.9 -0.1  2 0 2335 3073 1391
[05]  10(G11)  f 42  7  0  -2570.5  2046003.2  0.0  2 0 2228 3159 2003
[06]  17(G18)  f 43  7  0  -2495.2  2046003.2  0.0  2 0 2236 3360 1703
[08]  22(G23)  f 37  8  0   1953.0  2045997.4  0.0  2 0  924  657  222
[09]  26(G27)  f 35  7  0   2170.1  2045997.1 -0.0  2 0  872  789  356
[10]  27(G28)  f 37  7  0  -2784.7  2046003.6  0.1  2 0  236  975 1051
[11]  29(G30)  f 43  7  0  -3635.0  2046004.7 -0.0  2 0 2692 3235 1201
[16]  37(B01) 1f 40 36  0  -1064.2  4092002.8  0.5  2 0  786 1170  750
[18]  39(B03) 1f 43 31  0  -1078.8  4092002.7  0.1  2 0 1730 2004  799
[19]  40(B04) 1f 40 23  0  -1074.6  4092002.8 -0.2  2 0  714 1079  808
[20]  41(B05) 1f 37 28  0  -1100.2  4092002.7 -0.8  2 0  455  795  488
[21]  49(B13) 1f 42  7  0  -2585.2  4092006.6 -0.0  2 0 1489 1756  886
[22]  52(B16) 1f 36 10  0    467.9  4091998.7  0.1  2 0  868 1385  765
[24]  43(B07)  7 42  7  0  -1340.8  4092003.4 -0.1  2 0 1676 1378  371
[25]  44(B08)  7 41  7  0  -2351.1  4092006.1 -0.0  2 0 1065 1924 1270
[26]  45(B09)  7 37  7  0    717.1  4091997.9 -0.6  2 0  982  903  606
[27]  46(B10)  7 43  7  0  -1467.6  4092003.7 -0.0  2 0 1781 2253  821
[28]  63(B27)  7 35  7  0   1108.8  4091997.0  0.1  2 0 2293 3116 1482
[29]  65(B29)  1  7  7  0  -3604.6  4092009.1 -0.0  1 0  425  388  618
[30]  66(B30)  7 30  7  0  -1770.8  4092004.6  0.4  5 0 2669 3837 1856
[32]  78(N-3)  f 47 20  0    -65.9  1022000.0 -0.0  2 0  1851 3248 1418
[33]  79(N-2)  f 43  7  0  -3788.7  1022002.4  0.0  2 0  1051 1730  585
[34]  82(N01)  f 29  7  0   1261.4  1021999.2  0.0  5 0  1263 2039 1061
[35]  83(N02)  f 43  7  0  -2265.4  1022001.4  0.1  2 0   248 1352  631
[36]  84(N03)  f 40  7  0   3060.2  1021998.0 -0.0  2 0   514  874  777
[48]  37(B01)  7 10 17  1  -1030.8 20460015.8  0.1  2 0  629  212  238
[50]  39(B03)  f 10 20  0  -2934.8 20460049.6  0.1  2 0   77  206  267
[51]  40(B04)  1 20 23  0   -736.7 20460018.5  0.0  1 0  926  766  192
[52]  41(B05)  1 21 25  1  -1445.6 20460021.0 -0.1  1 0  381  300  777
calculate DOP row 0,[  0.07  -0.82  -0.57   1.00]
calculate DOP row 1,[  0.42  -0.31  -0.86   1.00]
calculate DOP row 2,[ -0.37  -0.83   0.41   1.00]
calculate DOP row 3,[  0.74  -0.65  -0.16   1.00]
calculate DOP row 4,[ -0.39  -0.47  -0.79   1.00]
calculate DOP row 5,[  0.36  -0.93   0.08   0.00]
calculate DOP row 6,[  0.55  -0.79   0.26   1.00]
calculate DOP row 7,[  0.38  -0.91  -0.18   1.00]
calculate DOP row 8,[  0.22  -0.89   0.41   0.00]
calculate DOP row 9,[  0.97  -0.23   0.07   0.00]
calculate DOP row 10,[  0.81  -0.58   0.06   0.00]
calculate DOP row 11,[  0.03  -0.63   0.77   1.00]
calculate DOP row 12,[ -0.79  -0.34  -0.51   1.00]
calculate DOP row 13,[ -0.60  -0.79   0.11   0.00]
calculate DOP row 14,[  0.61   0.24  -0.76   1.00]
DOP:  0.23   0.35   0.42   0.27
Refix G01: 2, 282482.927340, -3950
Refix G07: 2, 282482.932536, -1849
Refix G08: 2, 282482.928899, 1111
Refix G09: 2, 282482.922517, 1575
Refix G11: 2, 282482.931141, -2569
Refix G18: 2, 282482.930119, -2495
Refix G23: 2, 282482.918228, 1952
Refix G27: 2, 282482.920693, 2170
Refix G28: 2, 282482.920530, -2785
Refix G30: 2, 282482.927269, -3636
$GNGGA,062745.000,2944.9074,N,10633.0910,E,1,15,0.7,330.6,M,,,,0000*18
$GNRMC,062745.000,A,2944.9074,N,10633.0910,E,0.38,0.00,090180,,*1A
$GPGSA,A,3,01,07,08,09,11,18,23,27,28,30,,,1.0,0.7,0.7*30
$BDGSA,A,3,01,03,04,05,13,,,,,,,,1.0,0.7,0.7*23
$GLGSA,A,3,,,,,,,,,,,,,1.0,0.7,0.7*2F
$GPGSV,3,1,11,01,00,000,42,04,00,000,41,07,00,000,45,08,00,000,44*73
$GPGSV,3,2,11,09,00,000,43,11,00,000,42,18,00,000,43,23,00,000,37*7B
$GPGSV,3,3,11,27,00,000,35,28,00,000,37,30,00,000,43*40
$BDGSV,3,1,12,01,00,000,40,03,00,000,43,04,00,000,40,05,00,000,37*69
$BDGSV,3,2,12,13,00,000,42,16,00,000,36,07,00,000,42,08,00,000,41*60
$BDGSV,3,3,12,09,00,000,37,10,00,000,43,27,00,000,35,30,00,000,30*63
$B3CN0,0,0,0,0,0,0,0,0,0,0,0,0,0,0*4C
---00000016--- Acq_st=7 0  2000-1-9 6:27:45 
[00]  00(G01)  f 42  7  0  -3947.2  2046005.0  0.0  2 0 1433 2194 1322
[01]  03(G04)  f 42 10  0    975.6  2045998.7 -0.0  2 0 1614 1978  899
[02]  06(G07)  f 45  7  0  -1848.0  2046002.3  0.0  2 0 2889 4425 2083
[03]  07(G08)  f 44  7  0   1116.8  2045998.5  0.0  2 0 1811 3207 1580
[04]  08(G09)  f 43  7  0   1576.6  2045997.9  0.0  2 0 1979 2230  918
[05]  10(G11)  f 42  7  0  -2568.7  2046003.3  0.0  2 0 1624 2660 1333
[06]  17(G18)  f 43  7  0  -2493.8  2046003.2 -0.0  2 0 2061 2802 1177
[08]  22(G23)  f 36  9  0   1947.6  2045997.4 -0.1  2 0  696 1389  862
[09]  26(G27)  f 36 13  0   2173.3  2045997.1  0.4  2 0  814 1401  365
[10]  27(G28)  f 37  7  0  -2783.7  2046003.6 -0.5  2 0 1243 1241  483
[11]  29(G30)  f 43  7  0  -3633.6  2046004.7 -0.0  2 0 2126 2879 1044
[16]  37(B01) 1f 41 10  0  -1064.7  4092002.6  0.7  2 0 1039 1297  909
[18]  39(B03) 1f 43 30  0  -1077.8  4092002.8  0.2  2 0  900 1753  842
[19]  40(B04) 1f 40 10  0  -1071.2  4092002.7  0.6  2 0  986 1626  881
[20]  41(B05) 1f 37 19  0  -1090.5  4092002.8 -0.5  2 0  435  884  508
[21]  49(B13) 1f 42  7  0  -2578.5  4092006.7 -0.0  2 0 1486 1517  330
[22]  52(B16) 1f 36  9  0    475.4  4091998.6 -0.2  2 0  995 1151  734
[24]  43(B07) 1f 42  7  0  -1335.0  4092003.4  0.0  2 0 1296 1827  884
[25]  44(B08) 1f 41  9  0  -2345.6  4092006.0  0.1  2 0 1632 1622  813
[26]  45(B09) 1f 37  7  0    719.3  4091998.0 -0.6  2 0  427  786  667
[27]  46(B10) 1f 43  7  0  -1463.7  4092003.7  0.0  2 0 1874 1922  792
[28]  63(B27) 1f 44  7  0   1108.4  4091997.0 -0.0  2 0 2346 3381 1628
[29]  65(B29)  1  7  7  0  -3513.5  4092009.3  0.0  1 0   61   81  357
[30]  66(B30)  7 45 12  0  -1766.0  4092004.5  0.0  2 0 2258 3068 1305
[32]  78(N-3)  f 47 21  0    -63.7  1022000.0 -0.1  2 0  1386 2808 1387
[33]  79(N-2)  f 43  7  0  -3787.4  1022002.4  0.0  2 0   699 1322  895
[34]  82(N01)  f 29  7  0   1264.0  1021999.1  0.2  5 0   723 1468  682
[35]  83(N02)  f 43  7  0  -2262.2  1022001.4 -0.0  2 0   601 1380  484
[36]  84(N03)  f 40  7  0   3061.2  1021998.0  0.1  2 0   473  745  445
[48]  37(B01)  7 19 18  0  -1138.4 20460018.3  0.3  2 0  145  245  275
[50]  39(B03)  f 23 19  1  -3389.8 20460052.7  0.1  2 0  616  671  209
[51]  40(B04)  1 19 22  0   -678.3 20460021.3  0.0  1 0  533  714  623
[52]  41(B05)  1 23 21  0  -1646.7 20460024.3 -0.1  1 0  319  154  256
[53]  49(B13)  1  7  7  0  -1948.7 20460040.9 -0.1  1 0  274  470  408
[54]  52(B16)  1  7  7  0    398.9 20459993.9 -0.1  1 0  472  686  395
calculate DOP row 0,[  0.07  -0.82  -0.57   1.00]
calculate DOP row 1,[  0.42  -0.31  -0.86   1.00]
calculate DOP row 2,[  0.54  -0.22  -0.81   0.00]
calculate DOP row 3,[  0.55  -0.79   0.26   1.00]
calculate DOP row 4,[ -0.37  -0.83   0.41   1.00]
calculate DOP row 5,[  0.38  -0.91  -0.18   1.00]
calculate DOP row 6,[  0.74  -0.65  -0.16   1.00]
calculate DOP row 7,[ -0.39  -0.47  -0.79   1.00]
calculate DOP row 8,[  0.36  -0.93   0.08   0.00]
calculate DOP row 9,[  0.10  -0.57  -0.81   0.00]
calculate DOP row 10,[  0.22  -0.89   0.41   0.00]
calculate DOP row 11,[  0.54  -0.51  -0.67   0.00]
calculate DOP row 12,[  0.51  -0.86   0.03   0.00]
calculate DOP row 13,[  0.81  -0.58   0.06   0.00]
calculate DOP row 14,[  0.97  -0.23   0.07   0.00]
calculate DOP row 15,[ -0.60  -0.79   0.11   0.00]
calculate DOP row 16,[ -0.79  -0.34  -0.51   1.00]
calculate DOP row 17,[ -0.18  -0.81   0.56   0.00]
calculate DOP row 18,[  0.03  -0.63   0.77   1.00]
calculate DOP row 19,[  0.61   0.24  -0.76   1.00]
DOP:  0.21   0.20   0.21   0.18
Refix G01: 2, 282483.927343, -3943
Refix G07: 2, 282483.932537, -1841
Refix G08: 2, 282483.928898, 1118
Refix G09: 2, 282483.922516, 1580
Refix G11: 2, 282483.931143, -2562
Refix G18: 2, 282483.930120, -2487
Refix G23: 2, 282483.918227, 1956
Refix G27: 2, 282483.920692, 2176
Refix G28: 2, 282483.920532, -2779
Refix G30: 2, 282483.927272, -3629
$GNGGA,062746.000,2944.9061,N,10633.0905,E,1,20,0.6,330.2,M,,,,0000*18
$GNRMC,062746.000,A,2944.9061,N,10633.0905,E,0.30,0.00,090180,,*11
$GPGSA,A,3,01,07,08,09,11,18,23,27,28,30,,,0.8,0.6,0.5*3A
$BDGSA,A,3,01,03,04,05,07,08,09,10,13,27,,,0.8,0.6,0.5*2B
$GLGSA,A,3,,,,,,,,,,,,,0.8,0.6,0.5*25
$GPGSV,3,1,11,01,41,155,42,04,00,000,42,07,79,297,45,08,51,030,44*71
$GPGSV,3,2,11,09,23,220,43,11,70,162,42,18,53,117,43,23,08,188,36*71
$GPGSV,3,3,11,27,19,043,36,28,19,294,37,30,43,315,43*4B
$BDGSV,3,1,12,01,40,125,41,03,55,171,43,04,23,109,40,05,26,244,37*62
$BDGSV,3,2,12,13,35,183,42,16,00,000,36,07,62,054,42,08,55,154,41*69
$BDGSV,3,3,12,09,20,205,37,10,64,350,43,27,46,040,44,30,75,230,45*63
$B3CN0,19,0,23,0,0,0,0,0,0,0,0,0,0,0*45
---00000017--- Acq_st=3 0  2000-1-9 6:27:46 
[00]  00(G01)  f 42  7  0  -3949.9  2046005.1  0.0  2 0 2009 2633 1054
[01]  03(G04)  f 42 14  0    981.4  2045998.6 -0.0  2 0 1694 2468 1219
[02]  06(G07)  f 45  7  0  -1843.0  2046002.3 -0.0  2 0 3194 4768 2060
[03]  07(G08)  f 44  7  0   1118.7  2045998.5  0.0  2 0 1622 3190 1507
[04]  08(G09)  f 43  7  0   1582.3  2045997.9 -0.0  2 0 2140 3097 2031
[05]  10(G11)  f 42  7  0  -2559.4  2046003.3 -0.0  2 0 1977 2665 1572
[06]  17(G18)  f 43  7  0  -2486.6  2046003.2  0.0  2 0 2561 3080 1122
[08]  22(G23)  f 37  7  0   1957.3  2045997.4  0.1  2 0  635 1045  967
[09]  26(G27)  f 36  7  0   2177.5  2045997.1  0.3  2 0  801  809  513
[10]  27(G28)  f 38  7  0  -2777.5  2046003.5  0.4  2 0  575  744  145
[11]  29(G30)  f 44  7  0  -3627.0  2046004.6  0.0  2 0 1781 3031 1579
[12]  16(G17)  1  7  7  0  -4000.0  2046005.5  0.0  1 0  684  163  317
[16]  37(B01) 1f 40 17  0  -1057.4  4092002.6 -0.1  2 0  873 1523  755
[18]  39(B03) 1f 43 31  0  -1072.6  4092002.7  0.3  2 0 1225 1925  849
[19]  40(B04) 1f 41 22  0  -1069.8  4092002.8  0.2  2 0 1333 1780  962
[20]  41(B05) 1f 38 20  0  -1087.5  4092002.8  0.3  2 0  441  604  291
[21]  49(B13) 1f 42  7  0  -2572.7  4092006.6  0.0  2 0 1223 1509  528
[22]  52(B16) 1f 36  7  0    480.3  4091998.6  0.6  2 0  973  989  543
[24]  43(B07) 1f 43  7  0  -1331.4  4092003.4  0.0  2 0 1702 1992  927
[25]  44(B08) 1f 42  7  0  -2340.3  4092006.0 -0.0  2 0 1202 1446  899
[26]  45(B09) 1f 38  7  0    729.4  4091998.0  0.1  2 0  833 1432  763
[27]  46(B10) 1f 43  7  0  -1461.8  4092003.7 -0.1  2 0 1733 2195  783
[28]  63(B27) 1f 44  7  0   1116.2  4091997.0 -0.0  2 0 2331 3081 1101
[29]  65(B29)  1  7  7  0  -3911.6  4092010.1  0.1  1 0  160  680  717
[30]  66(B30)  7 45 15  0  -1759.6  4092004.5 -0.0  2 0 2957 3875 1743
[32]  78(N-3)  f 48 16  0    -56.9  1022000.0 -0.0  2 0  1294 3250 1851
[33]  79(N-2)  f 43  7  0  -3780.6  1022002.4  0.1  2 0   753 1123  638
[34]  82(N01)  f 30  7  0   1270.5  1021999.2 -0.1  5 0   907 1647  585
[35]  83(N02)  f 43  7  0  -2256.9  1022001.4 -0.0  2 0  1202 2024 1048
[36]  84(N03)  f 40 15  0   3069.8  1021998.1  0.3  2 0   406  937  552
[48]  37(B01)  7 10 10  0  -1937.1 20460031.0 -0.1  2 0  342  219  210
[50]  39(B03)  f 18 21  0  -3747.8 20460059.2  0.1  2 0  560  197  401
[51]  40(B04)  1 25 26  0   -850.5 20460020.6 -0.2  1 0  443  406  689
[53]  49(B13)  1  7  7  0  -1751.7 20460040.6 -0.1  1 0  326  420   95
[54]  52(B16)  1  7  7  0    340.6 20459993.8 -0.0  1 0  391  337  304
[56]  43(B07)  1  7  7  0  -1452.5 20460019.8  0.0  1 0  329  236   75
[57]  44(B08)  1  7  7  0  -2665.9 20460036.8 -0.1  1 0  347  206  366
[58]  45(B09)  1  7  7  0    796.8 20459989.0  0.0  1 0  352  507  239
[59]  46(B10)  1  7  7  0  -1111.8 20460022.5  0.1  1 0  231  510  493
[60]  63(B27)  1  7  9  0    806.8 20459980.8  0.2  1 0  454  300  254
calculate DOP row 0,[  0.07  -0.82  -0.57   1.00]
calculate DOP row 1,[  0.42  -0.31  -0.86   1.00]
calculate DOP row 2,[  0.54  -0.22  -0.81   0.00]
calculate DOP row 3,[ -0.37  -0.83   0.41   1.00]
calculate DOP row 4,[  0.74  -0.65  -0.16   1.00]
calculate DOP row 5,[ -0.39  -0.47  -0.79   1.00]
calculate DOP row 6,[  0.54  -0.51  -0.67   0.00]
calculate DOP row 7,[  0.55  -0.79   0.26   1.00]
calculate DOP row 8,[  0.38  -0.91  -0.18   1.00]
calculate DOP row 9,[  0.36  -0.93   0.08   0.00]
calculate DOP row 10,[  0.22  -0.89   0.41   0.00]
calculate DOP row 11,[  0.51  -0.86   0.03   0.00]
calculate DOP row 12,[  0.10  -0.57  -0.81   0.00]
calculate DOP row 13,[  0.81  -0.58   0.06   0.00]
calculate DOP row 14,[  0.97  -0.23   0.07   0.00]
calculate DOP row 15,[ -0.79  -0.34  -0.51   1.00]
calculate DOP row 16,[  0.03  -0.63   0.77   1.00]
calculate DOP row 17,[ -0.60  -0.79   0.11   0.00]
calculate DOP row 18,[ -0.18  -0.81   0.56   0.00]
calculate DOP row 19,[  0.61   0.24  -0.76   1.00]
DOP:  0.21   0.20   0.21   0.18
Refix G01: 2, 282484.927345, -3943
Refix G07: 2, 282484.932538, -1842
Refix G08: 2, 282484.928897, 1118
Refix G09: 2, 282484.922515, 1580
Refix G11: 2, 282484.931144, -2562
Refix G18: 2, 282484.930122, -2487
Refix G23: 2, 282484.918226, 1957
Refix G27: 2, 282484.920690, 2177
Refix G28: 2, 282484.920533, -2779
Refix G30: 2, 282484.927274, -3629
$GNGGA,062747.000,2944.9060,N,10633.0907,E,1,20,0.6,330.2,M,,,,0000*1A
$GNRMC,062747.000,A,2944.9060,N,10633.0907,E,0.35,0.00,090180,,*16
$GPGSA,A,3,01,07,08,09,11,18,23,27,28,30,,,0.8,0.6,0.5*3A
$BDGSA,A,3,01,03,04,05,07,08,09,10,13,27,,,0.8,0.6,0.5*2B
$GLGSA,A,3,,,,,,,,,,,,,0.8,0.6,0.5*25
$GPGSV,3,1,11,01,41,155,42,04,00,000,42,07,79,297,45,08,51,030,44*71
$GPGSV,3,2,11,09,23,220,43,11,70,162,42,18,53,117,43,23,08,188,37*70
$GPGSV,3,3,11,27,19,043,36,28,19,294,38,30,43,315,44*43
$BDGSV,3,1,12,01,40,125,40,03,55,171,43,04,23,109,41,05,26,244,38*6D
$BDGSV,3,2,12,13,35,183,42,16,00,000,36,07,62,054,43,08,55,154,42*6B
$BDGSV,3,3,12,09,20,205,38,10,64,350,43,27,46,040,44,30,75,230,45*6C
$B3CN0,0,0,18,0,0,0,0,0,0,0,0,0,0,0*75
---00000018--- Acq_st=3 0  2000-1-9 6:27:47 
[00]  00(G01)  f 42 14  0  -3958.7  2046005.1 -0.0  2 0  950 2255 1073
[01]  03(G04)  f 42 12  0    964.8  2045998.7 -0.0  2 0 1482 2646 1375
[02]  06(G07)  f 45  7  0  -1856.3  2046002.4  0.0  2 0 3129 4270 2439
[03]  07(G08)  f 45  7  0   1102.5  2045998.5 -0.0  2 0 2241 3552 1485
[04]  08(G09)  f 43  7  0   1564.8  2045997.9  0.0  2 0 1707 2499 1379
[05]  10(G11)  f 43  7  0  -2578.2  2046003.3  0.1  2 0 1808 2627 1288
[06]  17(G18)  f 43  7  0  -2502.1  2046003.2 -0.0  2 0 1952 2860 1453
[08]  22(G23)  f 37  7  0   1948.5  2045997.4  0.1  2 0 1009  892  517
[09]  26(G27)  f 36  7  0   2155.9  2045997.1 -0.5  2 0  534  638  221
[10]  27(G28)  f 38  7  0  -2790.8  2046003.6  0.8  2 0  345 1131  786
[11]  29(G30)  f 43  7  0  -3639.5  2046004.7 -0.0  2 0 1928 2750 1416
[12]  16(G17)  1 11  7  0  -3913.7  2046006.4 -0.0  1 0  479  681 1243
[16]  37(B01) 1f 40 10  0  -1074.5  4092002.6 -0.4  2 0  958 1306  712
[17]  38(B02)  1 10 10  0  -1000.0  4092002.9  0.1  1 0   96  126  462
[18]  39(B03) 1f 42 28  0  -1084.3  4092002.6 -0.2  2 0 1625 2205  911
[19]  40(B04) 1f 39 18  0  -1079.3  4092002.7  0.6  2 0  846 1313  424
[20]  41(B05) 1f 37 28  0  -1105.8  4092002.7 -0.6  2 0  749 1261  594
[21]  49(B13) 1f 41  7  0  -2590.3  4092006.7 -0.0  2 0 1492 1644  378
[22]  52(B16) 1f 36  9  0    457.1  4091998.6  0.0  2 0  941 1054  283
[24]  43(B07) 1f 42  7  0  -1342.2  4092003.4  0.0  2 0 2405 2547  549
[25]  44(B08) 1f 41  7  0  -2360.8  4092006.1 -0.0  2 0 1360 2093 1266
[26]  45(B09) 1f 38  7  0    713.1  4091998.0 -0.7  2 0  963 1008  422
[27]  46(B10) 1f 42 10  0  -1473.3  4092003.7  0.0  2 0 2104 2386  952
[28]  63(B27) 1f 44  7  0   1100.5  4091997.0 -0.0  2 0 2048 3167 1638
[30]  66(B30)  7 44 10  0  -1775.1  4092004.5  0.0  2 0 2164 3528 2042
[32]  78(N-3)  f 47 17  0    -71.4  1022000.0  0.0  2 0  1972 3196 1430
[33]  79(N-2)  f 43  7  0  -3796.8  1022002.4 -0.1  2 0   696 1445  975
[34]  82(N01)  f 27  7  0   1257.6  1021999.3 -0.3 10 0   916 1889 1077
[35]  83(N02)  f 43  7  0  -2271.0  1022001.4 -0.1  2 0   728 1675  952
[36]  84(N03)  f 40  9  0   3052.8  1021998.0 -0.2  2 0   543  865  653
[50]  39(B03)  f 10 13  0  -3649.3 20460060.1 -0.1  2 0  370   95  435
[51]  40(B04)  1 23 22  0   -555.7 20460022.2 -0.1  1 0  101  694  644
[52]  41(B05)  1 23 24  0   -799.8 20460019.2 -0.0  1 0  132  364  730
[53]  49(B13)  1  7  7  0  -1453.4 20460039.8 -0.0  1 0  518  532  352
[54]  52(B16)  1  7  7  0    667.5 20459993.2  0.1  1 0  878  363  364
[56]  43(B07)  1  7  7  0  -1366.3 20460021.0 -0.1  1 0  423  453  495
[57]  44(B08)  1  7  8  0  -1831.7 20460037.7  0.2  1 0  471  839  261
[58]  45(B09)  1  7  7  0   1345.2 20459988.5 -0.1  1 0  748  202  680
[59]  46(B10)  1  7 11  0  -1049.1 20460023.3 -0.1  1 0  182  144  449
[60]  63(B27)  1  7  7  0   1130.9 20459983.1 -0.1  1 0  759  185  315
calculate DOP row 0,[  0.07  -0.82  -0.57   1.00]
calculate DOP row 1,[  0.42  -0.31  -0.86   1.00]
calculate DOP row 2,[  0.54  -0.22  -0.81   0.00]
calculate DOP row 3,[  0.55  -0.79   0.26   1.00]
calculate DOP row 4,[ -0.37  -0.83   0.41   1.00]
calculate DOP row 5,[  0.38  -0.91  -0.18   1.00]
calculate DOP row 6,[  0.74  -0.65  -0.16   1.00]
calculate DOP row 7,[ -0.39  -0.47  -0.79   1.00]
calculate DOP row 8,[  0.36  -0.93   0.08   0.00]
calculate DOP row 9,[  0.54  -0.51  -0.67   0.00]
calculate DOP row 10,[  0.10  -0.57  -0.81   0.00]
calculate DOP row 11,[  0.22  -0.89   0.41   0.00]
calculate DOP row 12,[  0.51  -0.86   0.03   0.00]
calculate DOP row 13,[  0.81  -0.58   0.06   0.00]
calculate DOP row 14,[  0.97  -0.23   0.07   0.00]
calculate DOP row 15,[ -0.79  -0.34  -0.51   1.00]
calculate DOP row 16,[ -0.18  -0.81   0.56   0.00]
calculate DOP row 17,[  0.03  -0.63   0.77   1.00]
calculate DOP row 18,[ -0.60  -0.79   0.11   0.00]
calculate DOP row 19,[  0.61   0.24  -0.76   1.00]
DOP:  0.21   0.20   0.21   0.18
Refix G01: 2, 282485.927348, -3958
Refix G07: 2, 282485.932539, -1857
Refix G08: 2, 282485.928896, 1103
Refix G09: 2, 282485.922514, 1567
Refix G11: 2, 282485.931146, -2578
Refix G18: 2, 282485.930123, -2502
Refix G23: 2, 282485.918224, 1944
Refix G27: 2, 282485.920689, 2164
Refix G28: 2, 282485.920535, -2791
Refix G30: 2, 282485.927276, -3643
$GNGGA,062748.000,2944.9061,N,10633.0908,E,1,20,0.6,329.7,M,,,,0000*16
$GNRMC,062748.000,A,2944.9061,N,10633.0908,E,0.11,0.00,090180,,*11
$GPGSA,A,3,01,07,08,09,11,18,23,27,28,30,,,0.8,0.6,0.5*3A
$BDGSA,A,3,01,03,04,05,07,08,09,10,13,27,,,0.8,0.6,0.5*2B
$GLGSA,A,3,,,,,,,,,,,,,0.8,0.6,0.5*25
$GPGSV,3,1,11,01,41,155,42,04,00,000,42,07,79,297,45,08,51,030,45*70
$GPGSV,3,2,11,09,23,220,43,11,70,162,43,18,53,117,43,23,08,188,37*71
$GPGSV,3,3,11,27,19,043,36,28,19,294,38,30,43,315,43*44
$BDGSV,3,1,12,01,40,125,40,03,55,171,42,04,23,109,39,05,26,244,37*6C
$BDGSV,3,2,12,13,35,183,41,16,00,000,36,07,62,054,42,08,55,154,41*6A
$BDGSV,3,3,12,09,20,205,38,10,64,350,42,27,46,040,44,30,75,230,44*6C
$B3CN0,0,0,0,0,0,0,0,0,0,0,0,0,0,0*4C
---00000019--- Acq_st=3 0  2000-1-9 6:27:48 
[00]  00(G01)  f 43  7  0  -3955.5  2046005.1 -0.1  2 0 1298 2409 1182
[01]  03(G04)  f 41  7  0    963.6  2045998.7  0.0  2 0 1654 2447  972
[02]  06(G07)  f 46  7  0  -1857.4  2046002.3  0.0  2 0 3594 5123 2353
[03]  07(G08)  f 44  9  0   1102.9  2045998.5  0.0  2 0 2600 3924 1409
[04]  08(G09)  f 43  7  0   1564.9  2045997.9 -0.1  2 0 1686 3590 2202
[05]  10(G11)  f 43  7  0  -2578.8  2046003.3 -0.0  2 0 1237 2024  990
[06]  17(G18)  f 44  7  0  -2504.8  2046003.2  0.0  2 0 2274 3325 2361
[08]  22(G23)  f 37  7  0   1937.7  2045997.4 -0.4  2 0 1493 1733 1003
[09]  26(G27)  f 36  7  0   2163.5  2045997.0  0.3  2 0  860 1307  970
[10]  27(G28)  f 36  7  0  -2794.0  2046003.6 -0.3  2 0  547  790  597
[11]  29(G30)  f 43  7  0  -3645.0  2046004.7  0.0  2 0 1772 3179 2176
[12]  16(G17)  1 25  8  0  -3939.1  2046006.2  0.3  1 0  407  394  335
[16]  37(B01) 1f 39 21  0  -1072.3  4092002.7 -0.4  2 0 1024 1468  325
[17]  38(B02)  1 19 30  1   -959.2  4092001.6  0.0  1 0  328  400 1048
[18]  39(B03) 1f 42 31  0  -1091.6  4092002.7  0.4  2 0 1225 1614  731
[19]  40(B04) 1f 39 20  0  -1089.0  4092002.8 -0.6  2 0  870 1474  822
[20]  41(B05) 1f 37 16  0  -1107.4  4092002.7  0.9  2 0  916 1135  310
[21]  49(B13) 1f 42  7  0  -2593.0  4092006.7  0.0  2 0 1753 2099  704
[22]  52(B16) 1f 35  7  0    458.3  4091998.6  0.0  2 0  871  910  765
[24]  43(B07) 1f 42 12  0  -1349.6  4092003.4 -0.0  2 0 1537 2500 1351
[25]  44(B08) 1f 41  7  0  -2357.4  4092006.1 -0.0  2 0 1187 1683  641
[26]  45(B09) 1f 38  7  0    710.8  4091998.0 -0.1  2 0   54  166  480
[27]  46(B10) 1f 42  9  0  -1477.4  4092003.7 -0.0  2 0 1449 2119  729
[28]  63(B27) 1f 44  7  0   1100.3  4091997.0  0.0  2 0 2279 2794 1328
[30]  66(B30)  7 44 10  0  -1773.7  4092004.5 -0.0  2 0 2971 3716 1433
[32]  78(N-3)  f 47 20  0    -73.2  1022000.0  0.1  2 0  1667 3157 1509
[33]  79(N-2)  f 43 11  0  -3797.7  1022002.4  0.1  2 0   847 1271  705
[34]  82(N01)  f 30  7  0   1254.1  1021999.1 -0.1  5 0  1326 1533  872
[35]  83(N02)  f 43 12  0  -2271.8  1022001.4  0.1  2 0  1249 1685  511
[36]  84(N03)  f 40  8  0   3051.5  1021998.0  0.1  2 0   838 1041  489
[48]  37(B01)  1 14 13  1   -738.8 20460016.4 -0.0  1 0  504  382  239
[52]  41(B05)  1 18 22  0   -804.8 20460015.1 -0.1  1 0  872  314  280
[53]  49(B13)  1  7  7  0  -1997.7 20460043.2 -0.1  1 0  480  523  527
[54]  52(B16)  1  7  7  0    119.9 20459993.2 -0.1  1 0  401  370  527
[56]  43(B07)  1  7  7  0  -1414.3 20460019.9  0.1  1 0  721  276  626
[57]  44(B08)  1  7  7  0   -920.5 20460036.1 -0.1  1 0  338  798  842
[58]  45(B09)  1  8  7  0   1894.1 20459988.7 -0.0  1 0  439  299  842
[59]  46(B10)  1  7  7  0  -1142.4 20460023.0  0.0  1 0  281  543  661
[60]  63(B27)  1  7 11  0   1266.5 20459984.6  0.0  1 0  261  281  416
calculate DOP row 0,[  0.07  -0.82  -0.57   1.00]
calculate DOP row 1,[  0.42  -0.31  -0.86   1.00]
calculate DOP row 2,[  0.74  -0.65  -0.16   1.00]
calculate DOP row 3,[  0.54  -0.22  -0.81   0.00]
calculate DOP row 4,[  0.55  -0.79   0.26   1.00]
calculate DOP row 5,[ -0.37  -0.83   0.41   1.00]
calculate DOP row 6,[  0.38  -0.91  -0.18   1.00]
calculate DOP row 7,[ -0.39  -0.47  -0.79   1.00]
calculate DOP row 8,[  0.36  -0.93   0.08   0.00]
calculate DOP row 9,[  0.10  -0.57  -0.81   0.00]
calculate DOP row 10,[  0.22  -0.89   0.41   0.00]
calculate DOP row 11,[  0.54  -0.51  -0.67   0.00]
calculate DOP row 12,[  0.51  -0.86   0.03   0.00]
calculate DOP row 13,[  0.81  -0.58   0.06   0.00]
calculate DOP row 14,[  0.97  -0.23   0.07   0.00]
calculate DOP row 15,[ -0.18  -0.81   0.56   0.00]
calculate DOP row 16,[  0.03  -0.63   0.77   1.00]
calculate DOP row 17,[  0.61   0.24  -0.76   1.00]
calculate DOP row 18,[ -0.79  -0.34  -0.51   1.00]
calculate DOP row 19,[ -0.60  -0.79   0.11   0.00]
DOP:  0.21   0.20   0.21   0.18
Refix G01: 2, 282486.927350, -3958
Refix G07: 2, 282486.932540, -1856
Refix G08: 2, 282486.928896, 1104
Refix G09: 2, 282486.922513, 1566
Refix G11: 2, 282486.931148, -2577
Refix G18: 2, 282486.930125, -2501
Refix G23: 2, 282486.918223, 1943
Refix G27: 2, 282486.920688, 2164
Refix G28: 2, 282486.920537, -2792
Refix G30: 2, 282486.927278, -3642
$GNGGA,062749.000,2944.9061,N,10633.0911,E,1,20,0.6,329.8,M,,,,0000*10
$GNRMC,062749.000,A,2944.9061,N,10633.0911,E,0.27,0.00,240419,,*17
$GPGSA,A,3,01,07,08,09,11,18,23,27,28,30,,,0.8,0.6,0.5*3A
$BDGSA,A,3,01,03,04,05,07,08,09,10,13,27,,,0.8,0.6,0.5*2B
$GLGSA,A,3,,,,,,,,,,,,,0.8,0.6,0.5*25
$GPGSV,3,1,11,01,41,155,43,04,00,000,41,07,79,297,46,08,51,030,44*70
$GPGSV,3,2,11,09,23,220,43,11,70,162,43,18,53,117,44,23,08,188,37*76
$GPGSV,3,3,11,27,19,043,36,28,19,294,36,30,43,315,43*4A
$BDGSV,3,1,12,01,40,125,39,03,55,171,42,04,23,109,39,05,26,244,37*62
$BDGSV,3,2,12,13,35,183,42,16,00,000,35,07,62,054,42,08,55,154,41*6A
$BDGSV,3,3,12,09,20,205,38,10,64,350,42,27,46,040,44,30,75,230,44*6C
$B3CN0,0,0,0,0,0,0,0,0,0,0,0,0,0,0*4C
---00000020--- Acq_st=3 0  2019-4-24 6:27:49 
[00]  00(G01)  f 43 10  0  -3947.1  2046005.1 -0.0  2 0 1599 2724 1019
[01]  03(G04)  f 42 14  0    974.1  2045998.7  0.0  2 0  975 1776  940
[02]  06(G07)  f 45 11  0  -1846.7  2046002.3  0.0  2 0 2829 4468 2827
[03]  07(G08)  f 44  7  0   1114.6  2045998.5  0.0  2 0 2036 3406 1235
[04]  08(G09)  f 44  7  0   1572.8  2045997.9  0.1  2 0 2196 3512 1832
[05]  10(G11)  f 43  7  0  -2565.5  2046003.3  0.0  2 0 2308 3212 1077
[06]  17(G18)  f 43  7  0  -2493.6  2046003.2 -0.0  2 0 1950 3089 1562
[08]  22(G23)  f 37  7  0   1946.5  2045997.4 -0.3  2 0 1139 1364  914
[09]  26(G27)  f 36  7  0   2172.5  2045997.1 -0.2  2 0  640 1093  237
[10]  27(G28)  f 37  7  0  -2790.4  2046003.5  0.6  2 0  718 1301  721
[11]  29(G30)  f 43  7  0  -3635.1  2046004.7 -0.0  2 0 1247 2320 1034
[12]  16(G17)  7 25  7  0  -3941.4  2046005.0  0.2 10 0 1064 1102  386
[16]  37(B01) 1f 40 22  0  -1068.3  4092002.6  0.4  2 0 1329 1741 1109
[17]  38(B02)  7 10 10  0  -1318.5  4092003.6 -0.1  2 0  522  292 1507
[18]  39(B03) 1f 43 31  0  -1076.9  4092002.8 -0.3  2 0 1857 2331 1328
[19]  40(B04) 1f 39 21  0  -1073.6  4092002.7  0.5  2 0  965 1319  342
[20]  41(B05) 1f 37 25  0  -1095.6  4092002.8  0.9  2 0  701  919  521
[21]  49(B13) 1f 42 10  0  -2583.6  4092006.6  0.0  2 0 1386 2150 1198
[22]  52(B16) 1f 36 10  0    465.9  4091998.6 -0.2  2 0 1006  841  136
[24]  43(B07) 1f 42  7  0  -1339.3  4092003.4 -0.0  2 0 1899 2385 1064
[25]  44(B08) 1f 41  7  0  -2351.7  4092006.0  0.0  2 0 2070 2404 1055
[26]  45(B09) 1f 37  7  0    717.4  4091998.0 -0.0  2 0  611  871  647
[27]  46(B10) 1f 43  8  0  -1468.3  4092003.7  0.0  2 0 1997 2080  613
[28]  63(B27) 1f 44  7  0   1110.2  4091997.0 -0.0  2 0 1896 3064 1355
[30]  66(B30)  7 44 12  0  -1764.1  4092004.5 -0.0  2 0 2327 2922 1086
[32]  78(N-3)  f 47 16  0    -61.3  1022000.0 -0.0  2 0  1848 3165 1338
[33]  79(N-2)  f 43  7  0  -3786.9  1022002.4  0.1  2 0   700 1036  481
[34]  82(N01)  f 29  7  0   1266.2  1021999.5 -0.0  5 0   858 1561  705
[35]  83(N02)  f 43  7  0  -2261.6  1022001.4 -0.0  2 0   881 1785  936
[36]  84(N03)  f 40  7  0   3061.9  1021998.0  0.2  2 0   572 1068  756
[48]  37(B01)  1 20 10  0   -846.3 20460026.2 -0.1  1 0  498  509  439
[50]  39(B03)  1 23 23  1  -1141.4 20460016.8 -0.1  1 0  664  593  252
[51]  40(B04)  1 25 24  0   -968.1 20460019.1  0.1  1 0  492  566  368
[52]  41(B05)  1 23 23  0   -810.6 20460019.1 -0.1  1 0  313  597  504
[56]  43(B07)  1 10  7  0  -1892.9 20460020.5  0.0  1 0  428  443  423
[57]  44(B08)  1  7  7  0   -833.4 20460037.9 -0.0  1 0  355  365  114
[58]  45(B09)  1  7  7  0   2222.5 20459988.5 -0.1  1 0  464  278  154
[59]  46(B10)  1  7  7  0  -1495.6 20460023.0  0.2  1 0  419  595  474
[60]  63(B27)  1  7  7  0    846.1 20459981.6 -0.2  1 0  730  481  262
calculate DOP row 0,[  0.07  -0.82  -0.57   1.00]
calculate DOP row 1,[  0.42  -0.31  -0.86   1.00]
calculate DOP row 2,[ -0.37  -0.83   0.41   1.00]
calculate DOP row 3,[  0.54  -0.22  -0.81   0.00]
calculate DOP row 4,[  0.55  -0.79   0.26   1.00]
calculate DOP row 5,[  0.38  -0.91  -0.18   1.00]
calculate DOP row 6,[  0.74  -0.65  -0.16   1.00]
calculate DOP row 7,[ -0.39  -0.47  -0.79   1.00]
calculate DOP row 8,[  0.36  -0.93   0.08   0.00]
calculate DOP row 9,[  0.10  -0.57  -0.81   0.00]
calculate DOP row 10,[  0.22  -0.89   0.41   0.00]
calculate DOP row 11,[  0.54  -0.51  -0.67   0.00]
calculate DOP row 12,[  0.97  -0.23   0.07   0.00]
calculate DOP row 13,[  0.51  -0.86   0.03   0.00]
calculate DOP row 14,[  0.81  -0.58   0.06   0.00]
calculate DOP row 15,[ -0.60  -0.79   0.11   0.00]
calculate DOP row 16,[  0.03  -0.63   0.77   1.00]
calculate DOP row 17,[  0.61   0.24  -0.76   1.00]
calculate DOP row 18,[ -0.79  -0.34  -0.51   1.00]
calculate DOP row 19,[ -0.18  -0.81   0.56   0.00]
DOP:  0.21   0.20   0.21   0.18
Refix G01: 2, 282487.927353, -3951
Refix G07: 2, 282487.932541, -1849
Refix G08: 2, 282487.928895, 1110
Refix G09: 2, 282487.922512, 1572
Refix G11: 2, 282487.931149, -2570
Refix G18: 2, 282487.930126, -2495
Refix G23: 2, 282487.918222, 1947
Refix G27: 2, 282487.920686, 2167
Refix G28: 2, 282487.920539, -2787
Refix G30: 2, 282487.927281, -3636
$GNGGA,062750.000,2944.9061,N,10633.0911,E,1,20,0.6,329.5,M,,,,0000*15
$GNRMC,062750.000,A,2944.9061,N,10633.0911,E,0.10,0.00,240419,,*1B
$GPGSA,A,3,01,07,08,09,11,18,23,27,28,30,,,0.8,0.6,0.5*3A
$BDGSA,A,3,01,03,04,05,07,08,09,10,13,27,,,0.8,0.6,0.5*2B
$GLGSA,A,3,,,,,,,,,,,,,0.8,0.6,0.5*25
$GPGSV,3,1,12,01,41,155,43,04,00,000,42,07,79,297,45,08,51,030,44*73
$GPGSV,3,2,12,09,23,220,44,11,70,162,43,18,53,117,43,23,08,188,37*75
$GPGSV,3,3,12,27,19,043,36,28,19,294,37,30,43,315,43,17,00,000,25*79
$BDGSV,3,1,12,01,40,125,40,03,55,171,43,04,23,109,39,05,26,244,37*6D
$BDGSV,3,2,12,13,35,183,42,16,00,000,36,07,62,054,42,08,55,154,41*69
$BDGSV,3,3,12,09,20,205,37,10,64,350,43,27,46,040,44,30,75,230,44*62
$B3CN0,0,0,0,0,0,0,0,0,0,0,0,0,0,0*4C
---00000021--- Acq_st=3 0  2019-4-24 6:27:50 
[00]  00(G01)  f 43  7  0  -3955.3  2046005.1 -0.0  2 0 1640 2493  971
[01]  03(G04)  f 42 12  0    968.0  2045998.7 -0.0  2 0 1641 2440 1541
[02]  06(G07)  f 45  7  0  -1853.8  2046002.3 -0.0  2 0 2763 3870 1711
[03]  07(G08)  f 44  7  0   1103.1  2045998.5 -0.0  2 0 1918 3492 2133
[04]  08(G09)  f 44  7  0   1569.8  2045997.9 -0.0  2 0 1493 2637 1149
[05]  10(G11)  f 43  7  0  -2575.6  2046003.3  0.0  2 0 1752 2726 1327
[06]  17(G18)  f 43  7  0  -2500.4  2046003.2  0.0  2 0 1967 3217 1894
[08]  22(G23)  f 37  7  0   1948.2  2045997.4  0.1  2 0  116  886  684
[09]  26(G27)  f 37  7  0   2161.9  2045997.2 -0.4  2 0  831 1314  676
[10]  27(G28)  f 37 14  0  -2792.9  2046003.5 -0.1  2 0 1148 1397  568
[11]  29(G30)  f 44  7  0  -3640.6  2046004.7  0.0  2 0 1636 2961 1276
[12]  16(G17)  7 33  7  0  -3944.2  2046005.0 -0.0  5 0  686  845  250
[16]  37(B01) 1f 41 10  0  -1068.6  4092002.7  0.1  2 0 1281 1388  829
[17]  38(B02)  7 10 10  0  -1174.8  4092003.3  0.2  2 0  179 1114 1389
[18]  39(B03) 1f 42 30  0  -1088.2  4092002.7 -0.0  2 0 1803 2122  846
[19]  40(B04) 1f 40 10  0  -1082.3  4092002.6 -0.7  2 0 1946 1787  711
[20]  41(B05) 1f 38 22  0  -1107.4  4092002.8  0.1  2 0  756  995  737
[21]  49(B13) 1f 42  7  0  -2589.0  4092006.6  0.0  2 0 1115 1837  781
[22]  52(B16) 1f 36  7  0    452.9  4091998.7  0.3  2 0  668  391  215
[24]  43(B07) 1f 42  8  0  -1346.2  4092003.4  0.1  2 0 1813 2033  987
[25]  44(B08) 1f 41  7  0  -2351.3  4092006.1 -0.1  2 0 1596 1957 1085
[26]  45(B09) 1f 37  7  0    713.7  4091998.0 -0.4  2 0  329  839  523
[27]  46(B10) 1f 43  7  0  -1476.7  4092003.8 -0.0  2 0 1850 2209  790
[28]  63(B27) 1f 44  7  0   1102.8  4091997.0  0.0  2 0 2213 3146 1401
