SD initialized success
Create debug.log Failed! 3
bbram_blkflag = 1
rtcflag = 128
BBRAM Block OK: 01 EPHflag: 00000000 1036837f, rtc 80
Start Channel by LuYu
$GNGGA,000000.000,,,,,0,00,,,M,,,,0000*2B
$GNRMC,000000.000,A,,,,,,,060180,,*29
$GPGSA,A,1,,,,,,,,,,,,,,,*1E
$BDGSA,A,1,,,,,,,,,,,,,,,*0F
$GLGSA,A,1,,,,,,,,,,,,,,,*02
$B3CN0,0,0,0,0,0,0,0,0,0,0,0,0,0,0*4C
---00000001--- Acq_st=3 0  2000-1-1 0:1:38 
[00]  02(G03)  1 22  7  0    539.9  2045999.2  0.2  1 0 1006 1515  862
[01]  07(G08)  1  7  7  0  -4750.0  2046006.2  0.1  1 0  737  383  839
$GNGGA,000000.000,,,,,0,00,,,M,,,,0000*2B
$GNRMC,000000.000,A,,,,,,,060180,,*29
$GPGSA,A,1,,,,,,,,,,,,,,,*1E
$BDGSA,A,1,,,,,,,,,,,,,,,*0F
$GLGSA,A,1,,,,,,,,,,,,,,,*02
$B3CN0,0,0,0,0,0,0,0,0,0,0,0,0,0,0*4C
---00000002--- Acq_st=3 0  2000-1-1 0:1:39 
[00]  02(G03)  7 16  7  0    544.7  2045999.2  0.9 10 0 1055 1831  645
[01]  07(G08)  1  8  7  0  -5304.5  2046006.3  0.0  1 0  970  940  298
[02]  13(G14)  1 18  7  0   1634.6  2045998.5  0.2  1 0  977 1535  205
[03]  15(G16)  1 22  7  0  -1439.2  2046003.8  0.2  1 0 1272 2979 2453
[04]  21(G22)  1 18  7  0   1000.0  2046000.1 -0.0  1 0  643 1938 1307
[05]  22(G23)  1 15  7  0  -4000.0  2046007.4  0.0  1 0  154 1538 2561
[06]  25(G26)  1  7  7  0    500.0  2046002.1  0.0  1 0  293 1125 3575
$GNGGA,000000.000,,,,,0,00,,,M,,,,0000*2B
$GNRMC,000000.000,A,,,,,,,060180,,*29
$GPGSA,A,1,,,,,,,,,,,,,,,*1E
$BDGSA,A,1,,,,,,,,,,,,,,,*0F
$GLGSA,A,1,,,,,,,,,,,,,,,*02
$GPGSV,1,1,01,03,00,000,16*4C
$B3CN0,0,0,0,0,0,0,0,0,0,0,0,0,0,0*4C
---00000003--- Acq_st=3 0  2000-1-1 0:1:40 
[00]  02(G03)  7 41  7  0    543.5  2045999.2 -0.1  2 0 1450 1934  805
[01]  07(G08)  1 11  7  0  -4949.5  2046006.8 -0.1  1 0  802  765  348
[02]  13(G14)  7 23  7  0   1640.4  2045997.7  0.6 10 0 1298 1701  943
[03]  15(G16)  7 18  7  0  -1435.0  2046001.7  0.8 10 0 2664 3133 1010
[04]  21(G22)  1 31  7  0   1024.3  2045998.5  0.8  1 0 1473 2271  657
[05]  22(G23)  1 28  7  0  -4036.0  2046005.2  0.7  1 0 1597 2473 1393
[06]  25(G26)  1 28 10  0    452.3  2045999.5  0.7  1 0 3783 3992 1242
[08]  26(G27)  1 25 10  0  -4521.0  2046008.0  0.1  1 0  973 1673  915
[09]  30(G31)  1 26  7  0    486.6  2045999.7  0.1  1 0 2568 3365 1419
[10]  31(G32)  1 11  7  0   2293.1  2045999.5 -0.1  1 0  327 1189 1870
[16]  37(B01)  1 10 10  0  -1250.0  4092005.7 -0.0  1 0  364  305 1433
[17]  38(B02)  1 10 18  1  -1000.0  4092002.8 -0.0  1 0  491  642  229
[18]  39(B03)  1 10 34  1  -1000.0  4092001.8  0.0  1 0  238  547 1724
[19]  40(B04)  1 10 10  0  -1000.0  4092003.5  0.0  1 0  254  370  952
$GNGGA,000000.000,,,,,0,00,,,M,,,,0000*2B
$GNRMC,000000.000,A,,,,,,,060180,,*29
$GPGSA,A,1,,,,,,,,,,,,,,,*1E
$BDGSA,A,1,,,,,,,,,,,,,,,*0F
$GLGSA,A,1,,,,,,,,,,,,,,,*02
$GPGSV,1,1,03,03,00,000,41,14,00,000,23,16,00,000,16*48
$B3CN0,0,0,0,0,0,0,0,0,0,0,0,0,0,0*4C
---00000004--- Acq_st=3 0  2000-1-1 0:1:41 
[00]  02(G03)  7 41  7  0    545.2  2045999.3  0.0  2 0  728 1975 1156
[01]  07(G08)  1 12  7  0  -5488.3  2046007.7 -0.0  1 0  220  390  550
[02]  13(G14)  7 41 10  0   1633.6  2045997.8  0.1  2 0 1652 2138  979
[03]  15(G16)  7 44  7  0  -1435.9  2046001.8  0.0  2 0 2016 3075 1249
[04]  21(G22)  7 32  7  0   1028.0  2045998.6  0.3  5 0 1388 2852 1222
[05]  22(G23)  7 31  7  0  -4033.8  2046005.2  0.3  5 0 1923 2216 1194
[06]  25(G26)  7 27  7  0    452.1  2045999.3  0.6 10 0 2846 3261 1725
[08]  26(G27)  7 27  7  0  -4524.1  2046005.7  0.5 10 0 1537 2220 1099
[09]  30(G31)  7 14  7  0    482.9  2045999.3  0.9 10 0 2015 2608 1018
[10]  31(G32)  7  7  7  0   2323.2  2045996.8  0.9  2 0 1456 1391  402
[16]  37(B01)  1 32 23  0  -1147.5  4092003.3  0.8  1 0 1747 1675  648
[17]  38(B02)  1 10 29  1   -895.2  4092001.6 -0.0  1 0  520  220  829
[18]  39(B03)  1 26 29  0  -1130.4  4092004.6  0.3  1 0  426  112 1243
[19]  40(B04)  1 24 23  0  -1136.4  4092004.2  0.1  1 0  261  696 1392
[20]  41(B05)  1 10 25  0   -722.4  4092002.4 -0.1  1 0  485  161  239
[21]  42(B06)  1  7  7  0    132.8  4092003.2  0.2  1 0  729 1386 1408
[22]  43(B07)  1  7  7  0   -830.7  4092004.0  0.1  1 0 1471 2584 1772
[24]  45(B09)  1  7  7  0  -1000.0  4092005.1 -0.0  1 0  514 1806 2373
[25]  46(B10)  1  7  7  0   -750.0  4092001.1  0.0  1 0  441  187  169
$GNGGA,000000.000,,,,,0,00,,,M,,,,0000*2B
$GNRMC,000000.000,A,,,,,,,060180,,*29
$GPGSA,A,1,,,,,,,,,,,,,,,*1E
$BDGSA,A,1,,,,,,,,,,,,,,,*0F
$GLGSA,A,1,,,,,,,,,,,,,,,*02
$GPGSV,2,1,07,03,00,000,41,14,00,000,41,16,00,000,44,22,00,000,32*7D
$GPGSV,2,2,07,23,00,000,31,26,00,000,27,27,00,000,27*4C
$B3CN0,0,0,0,0,0,0,0,0,0,0,0,0,0,0*4C
---00000005--- Acq_st=3 0  2000-1-1 0:1:42 
[00]  02(G03)  7 41 10  0    549.2  2045999.2  0.0  2 0  862 1652  688
[01]  07(G08)  1  7  7  0  -5387.0  2046006.8  0.1  1 0  878 1098  553
[02]  13(G14)  7 41  7  0   1641.6  2045997.7  0.1  2 0 1767 1788 1071
[03]  15(G16)  7 43  7  0  -1434.3  2046001.8  0.0  2 0 2630 3665 1543
[04]  21(G22)  7 43  7  0   1031.4  2045998.6  0.0  2 0 1919 3249 1118
[05]  22(G23)  7 43  8  0  -4030.2  2046005.1  0.0  2 0 2089 2897  942
[06]  25(G26)  7 45  7  0    453.0  2045999.3 -0.1  2 0 3132 4655 2140
[08]  26(G27)  7 43  7  0  -4520.7  2046005.8  0.0  2 0 1346 2461 1327
[09]  30(G31)  7 45  7  0    486.2  2045999.3  0.0  2 0 1815 2941 1529
[10]  31(G32)  7 38  7  0   2322.8  2045996.9 -0.2  2 0 1320 1407  268
[16]  37(B01)  7 39 19  0  -1148.5  4092002.7 -0.6  2 0 1443 1583  435
[17]  38(B02)  7 10 23  1   -761.8  4092001.9 -0.0  2 0  388  153  513
[18]  39(B03)  7 41 28  0  -1144.1  4092003.3 -0.6  2 0  416 1704 2704
[19]  40(B04)  7 41 20  0  -1131.5  4092003.0  0.6  2 0  658 1398 1181
[20]  41(B05)  7 19 23  0   -805.6  4092001.9 -0.1  2 0  716  523  246
[21]  42(B06)  1  7  7  0    140.9  4092001.2  0.1  1 0 1587 1551  518
[22]  43(B07)  7 15  7  0   -824.5  4092002.0  0.2 10 0 2366 2785 1030
[24]  45(B09)  1  7  7  0   -941.3  4092002.3  0.6  1 0 1780 2007  898
[25]  46(B10)  1  8  8  0   -498.5  4092001.1 -0.1  1 0  274  339  356
[26]  52(B16)  1  7  7  0   -500.0  4092004.3  0.1  1 0  470 2058 3190
[27]  54(B18)  1  7  7  0  -1000.0  4092004.2  0.0  1 0  944 2662 3188
[28]  55(B19)  1  7  7  0   2000.0  4091996.5 -0.0  1 0 1183 2669 1899
$GNGGA,022808.133,,,,,0,00,,,M,,,,0000*2A
$GNRMC,022808.133,A,,,,,,,070180,,*29
$GPGSA,A,1,,,,,,,,,,,,,,,*1E
$BDGSA,A,1,,,,,,,,,,,,,,,*0F
$GLGSA,A,1,,,,,,,,,,,,,,,*02
$GPGSV,3,1,09,03,00,000,41,14,00,000,41,16,00,000,43,22,00,000,43*73
$GPGSV,3,2,09,23,00,000,43,26,00,000,45,27,00,000,43,31,00,000,45*73
$GPGSV,3,3,09,32,00,000,38*4A
$BDGSV,1,1,04,01,00,000,40,03,00,000,40,04,00,000,41,05,00,000,20*68
$B3CN0,0,0,0,0,0,0,0,0,0,0,0,0,0,0*4C
---00000006--- Acq_st=3 0  2000-1-1 0:1:43 
[00]  02(G03)  f 41  7  0    548.2  2045999.2  0.1  2 0 1162 1972  734
[02]  13(G14)  f 40  7  0   1647.0  2045997.8 -0.0  2 0 1633 1786 1068
[03]  15(G16)  f 43  7  0  -1433.0  2046001.8  0.1  2 0 2138 3593 1474
[04]  21(G22)  f 43 10  0   1030.8  2045998.6  0.0  2 0 1585 2668 1086
[05]  22(G23)  f 43  9  0  -4028.6  2046005.2 -0.0  2 0 1745 2229 1010
[06]  25(G26)  f 44  7  0    459.1  2045999.3  0.0  2 0 2505 3548 1367
[08]  26(G27)  f 42 10  0  -4519.7  2046005.8  0.0  2 0 1531 2001  817
[09]  30(G31)  f 43  7  0    486.6  2045999.3 -0.0  2 0 1482 2466 1119
[10]  31(G32)  f 39  7  0   2321.0  2045996.8  0.1  2 0 1176 1472  716
[16]  37(B01)  f 38 10  0  -1142.3  4092002.8  0.2  2 0 1315 1173  191
[17]  38(B02)  7 10 25  1   -767.9  4092001.8  0.0  2 0  601  865  350
[18]  39(B03)  f 42 29  0  -1139.5  4092003.1  0.0  2 0  624 1674 1668
[19]  40(B04)  f 41 10  0  -1128.6  4092002.9  0.1  2 0  748 2026 1427
[20]  41(B05)  7 36 27  0  -1032.1  4092002.6  0.0  2 0  237  123  178
[21]  42(B06)  1  7  7  0    147.3  4092000.6  0.1  1 0  422 1421  689
[22]  43(B07)  7 44  7  0   -821.9  4092002.0  0.0  2 0 2510 2879  783
[24]  45(B09)  7 36  7  0   -934.3  4092002.3  0.0  2 0 1974 2201  884
[25]  46(B10)  1  7  7  0   -634.3  4092001.1  0.0  1 0  383  371  255
[26]  52(B16)  1  7  7  0   -388.0  4092000.7  0.2  1 0 2399 2369 1055
[27]  54(B18)  1  7  7  0   -968.6  4092002.4  0.2  1 0 1872 2897 1095
[28]  55(B19)  1  7  7  0   1984.8  4091994.6  0.5  1 0 1109 1742  879
[29]  57(B21)  1  7  7  0  -2102.3  4092006.5 -0.1  1 0  340  476  308
[30]  58(B22)  1  7  7  0    112.7  4092000.1  0.1  1 0 2631 3874 1846
$GNGGA,022809.133,,,,,0,00,,,M,,,,0000*2B
$GNRMC,022809.133,A,,,,,,,070180,,*28
$GPGSA,A,1,,,,,,,,,,,,,,,*1E
$BDGSA,A,1,,,,,,,,,,,,,,,*0F
$GLGSA,A,1,,,,,,,,,,,,,,,*02
$GPGSV,3,1,09,03,00,000,41,14,00,000,40,16,00,000,43,22,00,000,43*72
$GPGSV,3,2,09,23,00,000,43,26,00,000,45,27,00,000,42,31,00,000,43*74
$GPGSV,3,3,09,32,00,000,39*4B
$BDGSV,2,1,05,01,00,000,39,03,00,000,41,04,00,000,41,07,00,000,44*65
$BDGSV,2,2,05,09,00,000,36*51
$B3CN0,0,0,0,0,0,0,0,0,0,0,0,0,0,0*4C
---00000007--- Acq_st=3 0  2000-1-1 0:1:44 
[00]  02(G03)  f 40  7  0    550.4  2045999.2  0.2  2 0  991 2385 1407
[02]  13(G14)  f 41  7  0   1646.2  2045997.8  0.1  2 0 1337 2539 1189
[03]  15(G16)  f 43  7  0  -1428.5  2046001.8 -0.1  2 0 1901 2929  821
[04]  21(G22)  f 43 10  0   1033.2  2045998.6 -0.0  2 0 2208 2619  700
[05]  22(G23)  f 43  7  0  -4024.9  2046005.1 -0.0  2 0 1850 2990 1418
[06]  25(G26)  f 44  7  0    457.5  2045999.3 -0.0  2 0 2228 3692 2152
[08]  26(G27)  f 42  7  0  -4523.2  2046005.8 -0.1  2 0 1680 2322 1087
[09]  30(G31)  f 43  7  0    484.5  2045999.3  0.1  2 0 2724 3405 1113
[10]  31(G32)  f 39  7  0   2333.5  2045996.9 -0.1  2 0 1004 1465  493
[16]  37(B01) 1f 40 10  0  -1145.1  4092002.8  0.3  2 0 1510 1587  790
[17]  38(B02)  7 18 29  1  -1011.0  4092002.6 -0.0  2 0  373   55  340
[18]  39(B03) 1f 42 27  0  -1136.8  4092003.1 -0.1  2 0  884 1871 1309
[19]  40(B04) 1f 41 23  0  -1127.7  4092003.0 -0.2  2 0  429 1504 1270
[20]  41(B05)  7 13 10  0  -1381.6  4092003.8 -0.0  2 0  336  548  552
[21]  42(B06)  1  7  7  0    143.1  4092000.6 -0.2  1 0  341 1386 1097
[22]  43(B07)  7 43  7  0   -820.6  4092002.0 -0.0  2 0 1398 1799  283
[24]  45(B09)  7 43  7  0   -938.4  4092002.3 -0.0  2 0 1970 2770 1088
[25]  46(B10)  1  7  7  0   -214.6  4092001.1 -0.1  1 0  919  347   97
[26]  52(B16)  7 36  7  0   -381.2  4092000.9 -0.0  2 0 2442 2882  712
[27]  54(B18)  7 31  7  0   -967.1  4092002.4  0.2  5 0 2059 3091 1851
[28]  55(B19)  7 29  7  0   1987.7  4091994.7  0.5  5 0 1575 1901  763
[29]  57(B21)  1  7  7  0  -2009.6  4092006.3  0.1  1 0  184  208   80
[30]  58(B22)  7 23  7  0    118.3  4091999.6  0.2 10 0 2488 3420 1611
[32]  75(N-6)  1  7  7  0 354784.9  1022003.6  0.0  1 0   154  597 1341
[48]  37(B01)  1 10 17  0  -1112.6 20460022.1 -0.1  1 0  198  546  264
[50]  39(B03)  1 21 20  1  -1161.9 20460018.5 -0.1  1 0  297  400  423
[51]  40(B04)  1 19 22  0   -593.2 20460015.4  0.1  1 0  346  373  504
$GNGGA,022810.133,,,,,0,00,,,M,,,,0000*23
$GNRMC,022810.133,A,,,,,,,070180,,*20
$GPGSA,A,1,,,,,,,,,,,,,,,*1E
$BDGSA,A,1,,,,,,,,,,,,,,,*0F
$GLGSA,A,1,,,,,,,,,,,,,,,*02
$GPGSV,3,1,09,03,00,000,40,14,00,000,41,16,00,000,43,22,00,000,43*72
$GPGSV,3,2,09,23,00,000,43,26,00,000,44,27,00,000,42,31,00,000,43*75
$GPGSV,3,3,09,32,00,000,39*4B
$BDGSV,3,1,11,01,00,000,40,02,00,000,19,03,00,000,42,04,00,000,41*61
$BDGSV,3,2,11,05,00,000,18,07,00,000,43,09,00,000,43,16,00,000,36*69
$BDGSV,3,3,11,18,00,000,31,19,00,000,29,22,00,000,22*50
$B3CN0,0,0,0,0,0,0,0,0,0,0,0,0,0,0*4C
---00000008--- Acq_st=3 0  2000-1-1 0:1:45 
[00]  02(G03)  f 41  7  0    551.0  2045999.2  0.0  2 0 1085 1494  528
[02]  13(G14)  f 41  7  0   1648.0  2045997.8  0.1  2 0 1203 1733  832
[03]  15(G16)  f 43  8  0  -1427.2  2046001.8  0.0  2 0 1524 2613 1065
[04]  21(G22)  f 43  7  0   1034.0  2045998.6 -0.0  2 0 2085 3231 1286
[05]  22(G23)  f 42  7  0  -4024.8  2046005.2  0.0  2 0 1299 2261 1255
[06]  25(G26)  f 45  7  0    458.2  2045999.3 -0.0  2 0 2039 3573 1690
[08]  26(G27)  f 42  7  0  -4516.8  2046005.8 -0.0  2 0 1873 2088  913
[09]  30(G31)  f 43  7  0    487.9  2045999.3  0.0  2 0 1664 3191 1811
[10]  31(G32)  f 39  7  0   2331.2  2045996.9 -0.0  2 0  778 1060  467
[16]  37(B01) 1f 40 10  0  -1147.6  4092002.9  0.6  2 0 1136 1609  382
[17]  38(B02)  7 10 26  1  -1174.1  4092003.1 -0.1  2 0  182  383  445
[18]  39(B03) 1f 42 29  0  -1139.2  4092003.0 -0.1  2 0 1134 2304 1562
[19]  40(B04) 1f 40 21  0  -1129.1  4092002.9 -0.3  2 0  873 1215  434
[20]  41(B05)  7 10 29  1  -2006.8  4092005.3  0.0  2 0  336  291  343
[22]  43(B07) 1f 43  7  0   -820.9  4092002.0  0.0  2 0 2391 2902 1410
[24]  45(B09) 1f 43  7  0   -937.3  4092002.3  0.0  2 0 1559 2059  884
[25]  46(B10)  1  7  7  0    423.2  4092000.9  0.1  1 0  427  249  224
[26]  52(B16) 1f 43  7  0   -381.1  4092000.8  0.0  2 0 2285 2816 1104
[27]  54(B18)  7 44 11  0   -965.2  4092002.4 -0.0  2 0 2139 3093 1134
[28]  55(B19)  7 42  9  0   1990.0  4091994.7 -0.1  2 0  703 1497  804
[29]  57(B21)  1 10  7  0  -2381.2  4092006.4 -0.1  1 0  254  281  345
[30]  58(B22)  7 45  7  0    120.7  4091999.6 -0.1  2 0 2740 3261 1108
[32]  75(N-6)  1 31 16  0  -3920.1  1022002.7  0.8  1 0   511 1137  701
[33]  76(N-5)  1 29 19  0   -237.3  1022000.5  0.9  1 0  2885 3819 1574
[34]  78(N-3)  1 23 19  0  -3336.8  1022002.4  0.3  1 0   431  579  319
[35]  79(N-2)  1 22 19  0  -4900.5  1022005.2  0.1  1 0   128  332  533
[36]  82(N01)  1  7 14  0   1500.0  1022000.3  0.1  1 0   325 1034  703
[37]  83(N02)  1  7 11  0   -250.0  1022001.8 -0.0  1 0  1265 2959 2495
[38]  84(N03)  1  7  7  0   -250.0  1022001.6  0.0  1 0   181  365  517
[40]  85(N04)  1  7  7  0   2984.1  1021999.9  0.0  1 0   669 1458 1289
[41]  86(N05)  1  7  7  0 -18237.3  1022005.1 -0.0  1 0   449  856 2164
[48]  37(B01)  1 10 10  0  -1430.7 20460019.3 -0.1  1 0  466  575  342
[50]  39(B03)  1 23 21  1   -836.0 20460017.6 -0.0  1 0  736  814  738
[51]  40(B04)  1 22 20  0   -930.7 20460022.3 -0.1  1 0   89  550  607
$GNGGA,022811.133,,,,,0,00,,,M,,,,0000*22
$GNRMC,022811.133,A,,,,,,,070180,,*21
$GPGSA,A,1,,,,,,,,,,,,,,,*1E
$BDGSA,A,1,,,,,,,,,,,,,,,*0F
$GLGSA,A,1,,,,,,,,,,,,,,,*02
$GPGSV,3,1,09,03,00,000,41,14,00,000,41,16,00,000,43,22,00,000,43*73
$GPGSV,3,2,09,23,00,000,42,26,00,000,45,27,00,000,42,31,00,000,43*75
$GPGSV,3,3,09,32,00,000,39*4B
$BDGSV,3,1,09,01,00,000,40,03,00,000,42,04,00,000,40,07,00,000,43*63
$BDGSV,3,2,09,09,00,000,43,16,00,000,43,18,00,000,44,19,00,000,42*69
$BDGSV,3,3,09,22,00,000,45*50
$B3CN0,0,0,0,0,0,0,0,0,0,0,0,0,0,0*4C
---00000009--- Acq_st=7 0  2000-1-1 0:1:46 
[00]  02(G03)  f 40  7  0    558.3  2045999.3  0.0  2 0  893 1567  837
[02]  13(G14)  f 41  7  0   1647.7  2045997.8 -0.1  2 0 1066 2214 1210
[03]  15(G16)  f 44  7  0  -1428.2  2046001.8  0.1  2 0 1783 3044 1265
[04]  21(G22)  f 43  8  0   1034.4  2045998.6  0.0  2 0 2408 3413 1351
[05]  22(G23)  f 42  7  0  -4024.3  2046005.2 -0.0  2 0 1901 2652 1239
[06]  25(G26)  f 45  7  0    459.7  2045999.3 -0.0  2 0 2230 3929 1808
[08]  26(G27)  f 42  7  0  -4513.5  2046005.8 -0.0  2 0 1149 1858  709
[09]  30(G31)  f 43  8  0    490.5  2045999.3 -0.0  2 0 1870 2462 1202
[10]  31(G32)  f 39  7  0   2332.7  2045996.9 -0.1  2 0  841 1468 1056
[16]  37(B01) 1f 41 21  0  -1142.0  4092002.7 -0.1  2 0 1578 1334  448
[17]  38(B02)  7 18 10  0  -1522.9  4092004.0 -0.0  2 0  500  190  185
[18]  39(B03) 1f 43 31  0  -1134.9  4092002.9  0.2  2 0 1690 2571 1735
[19]  40(B04) 1f 40 24  0  -1125.9  4092002.8  0.3  2 0 1279 1240  384
[20]  41(B05)  7 10 28  1  -2010.0  4092005.3  0.1  2 0  422  510  226
[22]  43(B07) 1f 43  7  0   -819.8  4092002.0  0.0  2 0 1986 2700 1003
[24]  45(B09) 1f 43  7  0   -933.2  4092002.3  0.0  2 0 1598 2514 1384
[26]  52(B16) 1f 43  7  0   -377.0  4092000.9  0.0  2 0 2345 2786 1457
[27]  54(B18)  7 44  7  0   -961.5  4092002.4 -0.0  2 0 2381 2897 1380
[28]  55(B19)  7 42  7  0   1988.2  4091994.7  0.0  2 0 1425 1894  929
[29]  57(B21)  1  7  7  0  -2034.5  4092006.8  0.0  1 0  395   73  608
[30]  58(B22)  7 44  7  0    121.4  4091999.6  0.0  2 0 2475 3175 1468
[32]  75(N-6)  7 36 14  0  -3916.5  1022002.4  0.2  2 0   728 1126  862
[33]  76(N-5)  7 33 13  0   -232.4  1022000.0  0.3  5 0  2664 3387 1284
[34]  78(N-3)  7 24  7  0  -3336.0  1022002.1  0.1 10 0   590  769  657
[35]  79(N-2)  7  9  7  0  -4887.2  1022002.9  0.4 10 0   539  424  383
[36]  82(N01)  1 23 18  0   1332.0  1021999.0  0.6  1 0   406  855  250
[37]  83(N02)  1 29 17  0   -388.2  1022000.3  1.0  1 0  2180 3536 1716
[38]  84(N03)  1 27 15  0   -354.1  1022000.7  1.0  1 0   801  826  350
[40]  85(N04)  1 43 16  0   2918.0  1021998.2  1.0  1 0  1346 1444  418
[41]  86(N05)  1 23 16  0  -4842.4  1022003.4  0.9  1 0  1621 2288  926
[48]  37(B01)  1 18 10  0   -749.6 20460015.9 -0.1  1 0  612  406  136
[50]  39(B03)  1 17 20  1  -1220.7 20460026.6  0.2  1 0  530  525  672
[51]  40(B04)  1 20 23  0   -658.3 20460019.5 -0.1  1 0  788  292  291
[54]  43(B07)  1  7  7  0   -275.0 20460010.8 -0.1  1 0  272  471  207
[56]  45(B09)  1  7  7  0   -442.2 20460014.5  0.1  1 0  451  691  203
[58]  52(B16)  1  7  7  0    -80.3 20460006.9  0.1  1 0  427  331  455
---00000010--- Acq_st=7 0  2000-1-1 0:1:47 
[00]  02(G03)  f 40 13  0    555.6  2045999.3 -0.0  2 0 1253 1722 1054
[02]  13(G14)  f 41  7  0   1647.2  2045997.8  0.1  2 0 1065 1406  625
[03]  15(G16)  f 43  7  0  -1427.7  2046001.8 -0.1  2 0 1492 2869 1023
[04]  21(G22)  f 43  7  0   1036.4  2045998.6  0.0  2 0 1292 2682 1902
[05]  22(G23)  f 42  7  0  -4022.4  2046005.1 -0.0  2 0 1419 2638 1419
[06]  25(G26)  f 44  7  0    460.3  2045999.3 -0.0  2 0 2802 4260 1975
[08]  26(G27)  f 42  7  0  -4517.1  2046005.8 -0.1  2 0 1335 2142 1528
[09]  30(G31)  f 43  7  0    488.5  2045999.3  0.0  2 0 1856 2833 1317
[10]  31(G32)  f 39  7  0   2323.5  2045996.9  0.2  2 0 1147 1733  682
[16]  37(B01) 1f 41 17  0  -1147.2  4092002.9  0.1  2 0  848 1226  794
[17]  38(B02)  7 10 23  0  -2028.9  4092005.4  0.1  2 0  443  271  247
[18]  39(B03) 1f 43 29  0  -1137.3  4092003.1 -0.3  2 0  713 1801  999
[19]  40(B04) 1f 40 19  0  -1127.3  4092002.9 -0.4  2 0 1009 1204  484
[20]  41(B05)  7 16 30  1  -2014.0  4092005.4  0.1  2 0  517  660  425
[22]  43(B07) 1f 43  7  0   -814.7  4092002.0  0.0  2 0 1920 2566 1217
[24]  45(B09) 1f 43  7  0   -931.8  4092002.3  0.1  2 0 1697 1999  856
[26]  52(B16) 1f 43  7  0   -379.5  4092000.9 -0.0  2 0 2431 2846 1047
[27]  54(B18)  7 44 11  0   -960.5  4092002.4 -0.1  2 0 2107 2980 1447
[28]  55(B19)  7 42  7  0   1991.0  4091994.7 -0.0  2 0 1529 2386 1063
[30]  58(B22)  7 44  7  0    121.8  4091999.6 -0.0  2 0 2699 3535 1450
[32]  75(N-6)  7 43 17  0  -3917.1  1022002.4  0.0  2 0   819 1250  480
[33]  76(N-5)  7 49 17  0   -231.6  1022000.1  0.1  2 0  2482 3895 1738
[34]  78(N-3)  7 37 19  0  -3338.0  1022002.1  0.1  2 0   255  509  435
[35]  79(N-2)  7 34 14  0  -4890.3  1022002.9  0.0  5 0   526  739  331
[36]  82(N01)  1 27 14  0   1322.8  1021998.6  0.7  1 0   832  784  447
[37]  83(N02)  1 31 16  0   -388.3  1022000.1  1.0  1 0  2183 3842 2011
[38]  84(N03)  1 29 14  0   -370.0  1021999.8  0.9  1 0   561  857  474
[40]  85(N04)  1 44 16  0   2917.3  1021997.9  1.0  1 0   852 1631  666
[41]  86(N05)  1 28 18  0  -4843.1  1022002.9  1.0  1 0  1543 1903  602
[48]  37(B01)  1 10 20  0   -982.3 20460022.6 -0.1  1 0  267  164  289
[50]  39(B03)  1 14 20  0  -1359.2 20460026.4 -0.0  1 0  458  703  472
[51]  40(B04)  1 19 17  0   -700.9 20460025.2  0.1  1 0  895  235  375
[54]  43(B07)  1  7  7  0   -288.7 20460013.6 -0.1  1 0  447  229  374
[56]  45(B09)  1  7  7  0  -1067.7 20460012.8 -0.0  1 0   63   11  243
[58]  52(B16)  1  9  7  0   -758.6 20460004.5  0.2  1 0  248  551  224
$GNGGA,022812.133,,,,,0,00,,,M,,,,0000*21
$GNRMC,022812.133,A,,,,,,,070180,,*22
$GPGSA,A,1,,,,,,,,,,,,,,,*1E
$BDGSA,A,1,,,,,,,,,,,,,,,*0F
$GLGSA,A,1,,,,,,,,,,,,,,,*02
$GPGSV,3,1,09,03,00,000,40,14,00,000,41,16,00,000,43,22,00,000,43*72
$GPGSV,3,2,09,23,00,000,42,26,00,000,44,27,00,000,42,31,00,000,43*74
$GPGSV,3,3,09,32,00,000,39*4B
$BDGSV,3,1,09,01,00,000,41,03,00,000,43,04,00,000,40,07,00,000,43*63
$BDGSV,3,2,09,09,00,000,43,16,00,000,43,18,00,000,44,19,00,000,42*69
$BDGSV,3,3,09,22,00,000,44*51
$B3CN0,0,0,0,0,0,0,0,0,0,0,0,0,0,0*4C
---00000011--- Acq_st=3 0  2000-1-1 0:1:48 
[00]  02(G03)  f 41 11  0    557.7  2045999.2 -0.1  2 0 1325 1594 1176
[01]  07(G08)  1  7  7  0  -4750.0  2046006.6 -0.0  1 0  398  249  148
[02]  13(G14)  f 41  7  0   1651.8  2045997.8 -0.1  2 0 1323 2199 1389
[03]  15(G16)  f 43  7  0  -1427.3  2046001.8  0.0  2 0 2222 2937 1212
[04]  21(G22)  f 43  7  0   1034.2  2045998.6 -0.0  2 0 1788 2799 1349
[05]  22(G23)  f 43 14  0  -4025.4  2046005.2 -0.0  2 0 1491 2529 1261
[06]  25(G26)  f 44  7  0    460.3  2045999.3 -0.0  2 0 3168 4439 2311
[08]  26(G27)  f 42  7  0  -4516.2  2046005.8 -0.0  2 0 1449 2639 1461
[09]  30(G31)  f 43  7  0    488.1  2045999.3 -0.0  2 0 1770 2725 1330
[10]  31(G32)  f 39  7  0   2328.7  2045996.9  0.1  2 0 1057 1471  700
[16]  37(B01) 1f 41 10  0  -1142.4  4092002.9  0.6  2 0 1249 1381  514
[17]  38(B02)  7 10 25  1  -2017.8  4092005.3  0.1  2 0  395  236  321
[18]  39(B03) 1f 43 30  0  -1138.8  4092003.0  0.3  2 0 1479 2100 1162
[19]  40(B04) 1f 40 10  0  -1128.1  4092002.9 -0.3  2 0 1238 1400  641
[20]  41(B05)  7 10 32  1  -2016.1  4092005.5 -0.1  2 0  440  306  310
[22]  43(B07) 1f 43  7  0   -818.8  4092002.0 -0.0  2 0 2245 2896 1271
[24]  45(B09) 1f 43  7  0   -933.8  4092002.3 -0.0  2 0 1708 2099  730
[26]  52(B16) 1f 43  7  0   -379.1  4092000.9  0.0  2 0 1862 2581 1169
[27]  54(B18)  7 44 13  0   -963.4  4092002.4  0.0  2 0 1963 2970 1292
[28]  55(B19)  7 42  7  0   1991.9  4091994.7  0.0  2 0 1637 1907 1287
[30]  58(B22)  7 44  7  0    122.0  4091999.6  0.0  2 0 2134 3000 1505
[32]  75(N-6)  7 43 18  0  -3915.8  1022002.4 -0.2  2 0   898 1327  567
[33]  76(N-5)  7 49 16  0   -230.7  1022000.1  0.1  2 0  2232 3887 1979
[34]  78(N-3)  7 37 17  0  -3335.4  1022002.1 -0.1  2 0   375  546  212
[35]  79(N-2)  7 35 15  0  -4890.2  1022003.0 -0.1  2 0   519  522  171
[36]  82(N01)  7 37 19  0   1323.3  1021999.2  0.2  2 0   615  494  241
[37]  83(N02)  7 50 16  0   -385.3  1022000.2  0.0  2 0  1977 3686 1839
[38]  84(N03)  7 36 15  0   -353.9  1022000.2  0.1  2 0   254  291  395
[40]  85(N04)  7 44 15  0   2919.7  1021998.1  0.0  2 0  1048 1518 1007
[41]  86(N05)  7 36 17  0  -4841.1  1022003.1  0.2  2 0  1467 2578 1288
[54]  43(B07)  1  7  7  0   -458.0 20460013.8 -0.1  1 0  754  476  158
[56]  45(B09)  1  7  7  0  -1179.7 20460014.2  0.2  1 0  426  178  269
[58]  52(B16)  1  7  7  0   -600.5 20460006.1  0.1  1 0  772  743  540
$GNGGA,022813.133,,,,,0,00,,,M,,,,0000*20
$GNRMC,022813.133,A,,,,,,,070180,,*23
$GPGSA,A,1,,,,,,,,,,,,,,,*1E
$BDGSA,A,1,,,,,,,,,,,,,,,*0F
$GLGSA,A,1,,,,,,,,,,,,,,,*02
$GPGSV,3,1,09,03,00,000,41,14,00,000,41,16,00,000,43,22,00,000,43*73
$GPGSV,3,2,09,23,00,000,43,26,00,000,44,27,00,000,42,31,00,000,43*75
$GPGSV,3,3,09,32,00,000,39*4B
$BDGSV,3,1,09,01,00,000,41,03,00,000,43,04,00,000,40,07,00,000,43*63
$BDGSV,3,2,09,09,00,000,43,16,00,000,43,18,00,000,44,19,00,000,42*69
$BDGSV,3,3,09,22,00,000,44*51
$B3CN0,0,0,0,0,0,0,0,0,0,0,0,0,0,0*4C
---00000012--- Acq_st=3 0  2000-1-1 0:1:49 
[00]  02(G03)  f 41  7  0    555.5  2045999.2  0.1  2 0 1755 2378  664
[01]  07(G08)  1  7  7  0  -3960.4  2046006.2 -0.1  1 0  545  261  488
[02]  13(G14)  f 40  9  0   1646.2  2045997.8 -0.0  2 0 2133 2599 1046
[03]  15(G16)  f 44  7  0  -1430.7  2046001.8  0.0  2 0 2011 3113 1784
[04]  21(G22)  f 43 10  0   1033.4  2045998.6  0.1  2 0 1590 2964 1252
[05]  22(G23)  f 43  7  0  -4027.2  2046005.2  0.0  2 0 1830 2950 1241
[06]  25(G26)  f 45  7  0    459.4  2045999.4 -0.0  2 0 2730 4049 2138
[08]  26(G27)  f 42  7  0  -4517.8  2046005.8 -0.1  2 0 1348 1975  915
[09]  30(G31)  f 43  7  0    485.4  2045999.3  0.0  2 0 2282 3492 1488
[10]  31(G32)  f 39  7  0   2328.8  2045996.9  0.1  2 0  623  808  170
[16]  37(B01) 1f 40 20  0  -1148.3  4092002.9 -0.1  2 0  939 1017   65
[17]  38(B02)  7 10 10  0  -2390.9  4092006.3 -0.0  2 0  366  566  336
[18]  39(B03) 1f 43 28  0  -1138.7  4092002.9  0.2  2 0 1841 2245 1216
[19]  40(B04) 1f 41 21  0  -1129.3  4092002.8 -0.3  2 0 1177 1251  429
[20]  41(B05)  7 10 29  1  -2001.7  4092005.3 -0.1  2 0  802  193  455
[22]  43(B07) 1f 43  7  0   -821.3  4092002.0 -0.0  2 0 2133 2699 1258
[24]  45(B09) 1f 43  7  0   -937.1  4092002.3  0.0  2 0 1592 2209 1358
[26]  52(B16) 1f 44  7  0   -381.3  4092000.9  0.0  2 0 2114 2737 1098
[27]  54(B18)  7 44  8  0   -966.0  4092002.4 -0.0  2 0 2277 2847 1436
[28]  55(B19)  7 41 11  0   1990.3  4091994.7 -0.1  2 0 1306 1714  416
[30]  58(B22)  7 44  7  0    115.9  4091999.6  0.0  2 0 2732 3418 1527
[32]  75(N-6)  7 43 19  0  -3917.9  1022002.5  0.0  2 0  1038 1309  400
[33]  76(N-5)  7 49 17  0   -233.0  1022000.1 -0.1  2 0  2296 3876 1775
[34]  78(N-3)  7 37 16  0  -3337.2  1022002.0 -0.0  2 0   546 1092  667
[35]  79(N-2)  7 36 17  0  -4893.8  1022003.0 -0.2  2 0   505  855  356
[36]  82(N01)  7 37 16  0   1321.7  1021999.1 -0.2  2 0   281  920  476
[37]  83(N02)  7 48 15  0   -388.7  1022000.2  0.0  2 0  1696 3369 1858
[38]  84(N03)  7 36 18  0   -354.8  1022000.2  0.2  2 0   422  510  213
[40]  85(N04)  7 44 14  0   2917.7  1021998.1 -0.0  2 0   761 1801  938
[41]  86(N05)  7 46 17  0  -4842.1  1022003.1 -0.0  2 0   960 2042  918
[48]  37(B01)  1 10 10  1  -1253.1 20460017.1  0.1  1 0  185  264  252
[50]  39(B03)  1 18 14  1   -752.3 20460015.9  0.1  1 0  444  159  455
[51]  40(B04)  1 36 24  0  -1202.9 20460019.4  0.1  1 0  334  160  481
[54]  43(B07)  1  7  7  0   -391.6 20460012.2 -0.0  1 0  273  159  118
[56]  45(B09)  1  7  8  0  -1627.2 20460016.1  0.0  1 0  415  463  256
[58]  52(B16)  1  7  7  0     -7.2 20460005.7 -0.2  1 0   46  252  139
$GNGGA,022814.133,,,,,0,00,,,M,,,,0000*27
$GNRMC,022814.133,A,,,,,,,070180,,*24
$GPGSA,A,1,,,,,,,,,,,,,,,*1E
$BDGSA,A,1,,,,,,,,,,,,,,,*0F
$GLGSA,A,1,,,,,,,,,,,,,,,*02
$GPGSV,3,1,09,03,00,000,41,14,00,000,40,16,00,000,44,22,00,000,43*75
$GPGSV,3,2,09,23,00,000,43,26,00,000,45,27,00,000,42,31,00,000,43*74
$GPGSV,3,3,09,32,00,000,39*4B
$BDGSV,3,1,09,01,00,000,40,03,00,000,43,04,00,000,41,07,00,000,43*63
$BDGSV,3,2,09,09,00,000,43,16,00,000,43,18,00,000,44,19,00,000,41*6A
$BDGSV,3,3,09,22,00,000,44*51
$B3CN0,0,0,0,0,0,0,0,0,0,0,0,0,0,0*4C
---00000013--- Acq_st=3 0  2000-1-1 0:1:50 
[00]  02(G03)  f 41  7  0    549.7  2045999.2 -0.1  2 0 1521 2047 1132
[01]  07(G08)  1  7  7  0  -3540.1  2046006.1 -0.1  1 0  569  641  307
[02]  13(G14)  f 40  7  0   1644.7  2045997.8 -0.1  2 0 1488 2075  857
[03]  15(G16)  f 43  7  0  -1427.6  2046001.8 -0.0  2 0 2678 4557 2163
[04]  21(G22)  f 43  7  0   1033.5  2045998.6  0.0  2 0 1464 2581  989
[05]  22(G23)  f 43  7  0  -4028.9  2046005.1  0.0  2 0 1501 2337  782
[06]  25(G26)  f 45  7  0    458.6  2045999.3 -0.0  2 0 2221 4263 1696
[08]  26(G27)  f 43  7  0  -4519.3  2046005.8  0.0  2 0 1523 2022  385
[09]  30(G31)  f 44  7  0    484.8  2045999.3  0.0  2 0 2148 3327 1865
[10]  31(G32)  f 39  7  0   2327.3  2045996.9 -0.2  2 0 1176 1390  533
[16]  37(B01) 1f 40 18  0  -1146.3  4092002.9  0.4  2 0 1557 1592  734
[17]  38(B02)  7 10 10  0  -2501.1  4092006.3 -0.0  2 0   92  484  444
[18]  39(B03) 1f 42 28  0  -1140.6  4092002.9 -0.1  2 0 1275 1767  865
[19]  40(B04) 1f 39 10  0  -1128.4  4092002.9  0.1  2 0  922  990  613
[20]  41(B05)  7 22 30  1  -2005.0  4092005.2 -0.1  2 0  345  356  428
[21]  42(B06)  1  7  7  0   -357.4  4092001.4  0.2  1 0 1237 2085 1308
[22]  43(B07) 1f 43  7  0   -822.2  4092002.0  0.0  2 0 1971 2496  440
[24]  45(B09) 1f 43  7  0   -932.1  4092002.3 -0.0  2 0 1970 2439  946
[25]  46(B10)  1  7  7  0  -1032.6  4092005.5 -0.1  1 0  295 1376 2474
[26]  52(B16) 1f 44  7  0   -380.4  4092000.9 -0.0  2 0 2319 2960 1343
[27]  54(B18)  7 43  9  0   -964.7  4092002.4  0.0  2 0 1864 2852  976
[28]  55(B19)  7 41  7  0   1990.0  4091994.7  0.0  2 0 1280 1646  597
[30]  58(B22)  7 44  7  0    121.8  4091999.6  0.0  2 0 2175 2775  915
[32]  75(N-6)  f 40  7  0  -3916.7  1022002.5 -0.1  2 0   722 1383  491
[33]  76(N-5)  f 42  7  0   -231.1  1022000.1  0.0  2 0  2189 3899 1967
[34]  78(N-3)  f 36  7  0  -3337.2  1022002.2  0.0  2 0   282  624  396
[35]  79(N-2)  f 35  7  0  -4889.4  1022003.1  0.1  2 0   293  425  373
[36]  82(N01)  7 36 16  0   1318.1  1021999.2  0.1  2 0   510  559  429
[37]  83(N02)  7 48 16  0   -386.4  1022000.2  0.1  2 0  2049 3583 1703
[38]  84(N03)  7 36 19  0   -352.5  1022000.1 -0.3  2 0   548  754  591
[40]  85(N04)  7 44 15  0   2918.5  1021998.1 -0.0  2 0   839 1704 1131
[41]  86(N05)  7 45 18  0  -4842.4  1022003.1 -0.1  2 0  1590 2412  959
[48]  37(B01)  7 10 10  0  -1536.3 20460025.8 -0.1  2 0  558  230  251
[50]  39(B03)  1 18 10  1  -1070.4 20460024.1 -0.3  1 0  527  281  489
[51]  40(B04)  1 23 25  1  -1987.7 20460022.1  0.0  1 0  335  603  831
$GNGGA,022815.133,,,,,0,00,,,M,,,,0000*26
$GNRMC,022815.133,A,,,,,,,070180,,*25
$GPGSA,A,1,,,,,,,,,,,,,,,*1E
$BDGSA,A,1,,,,,,,,,,,,,,,*0F
$GLGSA,A,1,,,,,,,,,,,,,,,*02
$GPGSV,3,1,09,03,00,000,41,14,00,000,40,16,00,000,43,22,00,000,43*72
$GPGSV,3,2,09,23,00,000,43,26,00,000,45,27,00,000,43,31,00,000,44*72
$GPGSV,3,3,09,32,00,000,39*4B
$BDGSV,3,1,10,01,00,000,40,03,00,000,42,04,00,000,39,05,00,000,22*60
$BDGSV,3,2,10,07,00,000,43,09,00,000,43,16,00,000,44,18,00,000,43*6F
$BDGSV,3,3,10,19,00,000,41,22,00,000,44*64
$B3CN0,0,0,0,0,0,0,0,0,0,0,0,0,0,0*4C
---00000014--- Acq_st=3 0  2000-1-1 0:1:51 
[00]  02(G03)  f 41  7  0    553.3  2045999.2  0.1  2 0 1406 1824 1105
[01]  07(G08)  1 13  7  0  -3516.2  2046005.9  0.1  1 0  460  387  160
[02]  13(G14)  f 41  7  0   1641.3  2045997.8  0.0  2 0 1048 1709 1154
[03]  15(G16)  f 44  7  0  -1432.3  2046001.8  0.0  2 0 2360 3644 1775
[04]  21(G22)  f 44  7  0   1027.5  2045998.6  0.1  2 0  961 3032 1246
[05]  22(G23)  f 43  7  0  -4029.7  2046005.2 -0.1  2 0 2235 2852  818
[06]  25(G26)  f 45  7  0    455.9  2045999.3  0.0  2 0 2480 3741 1771
[08]  26(G27)  f 42  7  0  -4521.5  2046005.8  0.0  2 0  782 1939 1092
[09]  30(G31)  f 44  7  0    484.0  2045999.3  0.1  2 0 1648 2756 1500
[10]  31(G32)  f 39 11  0   2322.3  2045996.9  0.0  2 0 1090 1360  517
[16]  37(B01) 1f 41 20  0  -1151.7  4092002.8 -0.3  2 0  860 1502  635
[17]  57(B21)  1  7  7  0  -2495.9  4092007.1 -0.2  1 0  282  471  930
[18]  39(B03) 1f 43 29  0  -1143.1  4092003.0  0.0  2 0 1333 2372 1156
[19]  40(B04) 1f 40 23  0  -1130.4  4092002.9  0.6  2 0  689  913  607
[20]  41(B05)  7 10 30  1  -2020.3  4092005.1  0.0  2 0   94  156  285
[21]  42(B06)  7 26  7  0   -358.1  4092000.9  0.4 10 0 1198 1815  551
[22]  43(B07) 1f 44  7  0   -826.6  4092002.0  0.0  2 0 1996 2614  971
[24]  45(B09) 1f 43  7  0   -940.1  4092002.3 -0.0  2 0 1830 2428 1178
[25]  46(B10)  7 17  7  0  -1033.1  4092002.5  0.7 10 0 1960 2356  998
[26]  52(B16) 1f 43  7  0   -384.1  4092000.9  0.0  2 0 2256 3030 1084
[27]  54(B18) 1f 43  9  0   -971.0  4092002.4  0.0  2 0 1814 2098  602
[28]  55(B19) 1f 42  7  0   1984.7  4091994.7 -0.0  2 0 1711 2030  761
[30]  58(B22) 1f 44  7  0    119.6  4091999.6 -0.0  2 0 2309 3519 2031
[32]  75(N-6)  f 42  7  0  -3919.0  1022002.5 -0.1  2 0   596 1099  504
[33]  76(N-5)  f 46 10  0   -234.4  1022000.1 -0.1  2 0  2528 3863 1643
[34]  78(N-3)  f 36  7  0  -3340.4  1022002.0 -0.1  2 0   330  438  434
[35]  79(N-2)  f 36  7  0  -4894.6  1022003.1 -0.0  2 0   398  780  425
[36]  82(N01)  7 37 16  0   1316.6  1021999.1 -0.0  2 0   611  893  403
[37]  83(N02)  7 49 18  0   -390.6  1022000.2 -0.1  2 0  1657 3536 1842
[38]  84(N03)  7 37 13  0   -353.6  1022000.2 -0.1  2 0   448  871  296
[40]  85(N04)  7 44 15  0   2916.4  1021998.1 -0.0  2 0  1212 1762  751
[41]  86(N05)  7 46 18  0  -4846.0  1022003.0 -0.1  2 0  1116 1935  993
[48]  37(B01)  7 10 10  0  -1610.0 20460025.2  0.0  2 0  375  434  230
[50]  39(B03)  1 10 22  0  -1416.8 20460020.0 -0.0  1 0  401  339  438
[51]  40(B04)  1 23 22  0  -2154.9 20460023.2 -0.0  1 0  102  300  742
[54]  43(B07)  1  7  7  0   -693.0 20460010.3 -0.1  1 0  607  648  464
[56]  45(B09)  1  7  8  0   -572.4 20460014.6  0.1  1 0  114  349  237
[58]  52(B16)  1  7  7  0    -21.5 20460005.7  0.1  1 0  261  562  288
$GNGGA,022816.133,,,,,0,00,,,M,,,,0000*25
$GNRMC,022816.133,A,,,,,,,070180,,*26
$GPGSA,A,1,,,,,,,,,,,,,,,*1E
$BDGSA,A,1,,,,,,,,,,,,,,,*0F
$GLGSA,A,1,,,,,,,,,,,,,,,*02
$GPGSV,3,1,09,03,00,000,41,14,00,000,41,16,00,000,44,22,00,000,44*73
$GPGSV,3,2,09,23,00,000,43,26,00,000,45,27,00,000,42,31,00,000,44*73
$GPGSV,3,3,09,32,00,000,39*4B
$BDGSV,3,1,11,01,00,000,41,03,00,000,43,04,00,000,40,06,00,000,26*68
$BDGSV,3,2,11,07,00,000,44,09,00,000,43,10,00,000,17,16,00,000,43*67
$BDGSV,3,3,11,18,00,000,43,19,00,000,42,22,00,000,44*58
$B3CN0,0,0,0,0,0,0,0,0,0,0,0,0,0,0*4C
---00000015--- Acq_st=3 0  2000-1-1 0:1:52 
[00]  02(G03)  f 41  7  0    558.9  2045999.2 -0.0  2 0 1306 2048  976
[01]  07(G08)  1  7  7  0  -2940.8  2046005.9  0.0  1 0  511  386  547
[02]  13(G14)  f 42  7  0   1647.5  2045997.8 -0.0  2 0 1218 2001  991
[03]  15(G16)  f 43  7  0  -1428.5  2046001.8 -0.0  2 0 1600 3185 1773
[04]  21(G22)  f 43  7  0   1031.3  2045998.6 -0.1  2 0 1890 2674 1257
[05]  22(G23)  f 43 12  0  -4022.9  2046005.2  0.1  2 0 2211 3256 1447
[06]  25(G26)  f 45  7  0    460.7  2045999.3  0.0  2 0 2721 4498 2121
[08]  26(G27)  f 42  7  0  -4516.5  2046005.8  0.1  2 0 1547 2606 1474
[09]  30(G31)  f 44  7  0    487.7  2045999.3 -0.0  2 0 1834 2878  877
[10]  31(G32)  f 39  7  0   2330.9  2045996.9 -0.1  2 0  820 1524 1020
[16]  37(B01) 1f 41 10  0  -1150.3  4092002.9 -0.3  2 0 1520 1460  320
[17]  57(B21)  1  9  7  0  -2073.7  4092009.1 -0.1  1 0  270  146  882
[18]  39(B03) 1f 43 28  0  -1141.7  4092002.9 -0.1  2 0 1763 2214  980
[19]  40(B04) 1f 40 18  0  -1131.3  4092002.8  0.1  2 0 1068 1681  376
[20]  41(B05)  7 13 27  1  -2000.0  4092005.4  0.1  2 0  639  473  373
[21]  42(B06)  7 42 11  0   -354.8  4092000.8  0.1  2 0 1740 2318 1040
[22]  43(B07) 1f 43  7  0   -821.4  4092002.0  0.0  2 0 2076 2790 1618
[24]  45(B09) 1f 43  7  0   -936.4  4092002.3  0.1  2 0 1408 2014 1227
[25]  46(B10)  7 43  8  0  -1029.6  4092002.5 -0.1  2 0 1575 2152  859
[26]  52(B16) 1f 44 10  0   -382.1  4092000.9 -0.0  2 0 2221 3055 1389
[27]  54(B18) 1f 44  9  0   -965.0  4092002.4 -0.0  2 0 2606 3256 1261
[28]  55(B19) 1f 42  7  0   1989.1  4091994.7  0.0  2 0 1351 2224 1121
[29]  65(B29)  1  7  7  0  -3750.0  4092008.2  0.1  1 0  458  467  238
[30]  58(B22) 1f 44  7  0    122.9  4091999.5 -0.0  2 0 1832 2932 1766
[32]  75(N-6)  f 42 10  0  -3915.4  1022002.5  0.0  2 0  1134 1524  836
[33]  76(N-5)  f 46  7  0   -229.1  1022000.1  0.1  2 0  2313 3914 1805
[34]  78(N-3)  f 37  7  0  -3336.2  1022002.1  0.0  2 0   401  905  484
[35]  79(N-2)  f 36  7  0  -4891.3  1022003.1 -0.0  2 0   456  560  237
[36]  82(N01)  f 36  7  0   1319.3  1021999.1  0.1  2 0   535  718  437
[37]  83(N02)  f 42  7  0   -386.5  1022000.2 -0.0  2 0  2197 4014 1980
[38]  84(N03)  f 36  8  0   -352.4  1022000.2 -0.0  2 0   618  763  552
[40]  85(N04)  f 40  7  0   2920.6  1021998.1 -0.0  2 0   997 1728  625
[41]  86(N05)  f 41  7  0  -4841.5  1022003.0 -0.0  2 0  1166 2218  868
[48]  37(B01)  7 16 10  1  -1939.5 20460031.2  0.1  2 0  247  562  259
[50]  39(B03)  1 24 19  1  -1257.0 20460031.5  0.0  1 0  125  540  543
[51]  40(B04)  1 10 25  1  -2209.0 20460025.3  0.0  1 0  323  392  163
[54]  43(B07)  1  7  7  0   -753.6 20460011.7  0.0  1 0  761  685  847
[56]  45(B09)  1 11 10  0   -320.1 20460015.0 -0.2  1 0  243  400  642
[58]  52(B16)  1  7  7  0    367.7 20460005.8 -0.0  1 0  457  299  381
[59]  54(B18)  1  7  7  0  -1093.3 20460015.0  0.2  1 0 1241  516  438
[60]  55(B19)  1  7  7  0   1862.2 20459968.0 -0.0  1 0  668  668  409
[62]  58(B22)  1  7  7  0   -712.0 20459999.3 -0.1  1 0   83  435  813
$GNGGA,022817.133,,,,,0,00,,,M,,,,0000*24
$GNRMC,022817.133,A,,,,,,,070180,,*27
$GPGSA,A,1,,,,,,,,,,,,,,,*1E
$BDGSA,A,1,,,,,,,,,,,,,,,*0F
$GLGSA,A,1,,,,,,,,,,,,,,,*02
$GPGSV,3,1,09,03,00,000,41,14,00,000,42,16,00,000,43,22,00,000,43*70
$GPGSV,3,2,09,23,00,000,43,26,00,000,45,27,00,000,42,31,00,000,44*73
$GPGSV,3,3,09,32,00,000,39*4B
$BDGSV,3,1,11,01,00,000,41,03,00,000,43,04,00,000,40,06,00,000,42*6A
$BDGSV,3,2,11,07,00,000,43,09,00,000,43,10,00,000,43,16,00,000,44*66
$BDGSV,3,3,11,18,00,000,44,19,00,000,42,22,00,000,44*5F
$B3CN0,17,0,0,0,0,0,0,0,0,0,0,0,0,0*7A
---00000016--- Acq_st=7 0  2000-1-1 0:1:53 
[00]  02(G03)  f 41  7  0    558.0  2045999.2  0.1  2 0  767 1330  768
[02]  13(G14)  f 41  7  0   1646.0  2045997.8  0.0  2 0 1600 2018  676
[03]  15(G16)  f 43  7  0  -1429.6  2046001.8  0.0  2 0 2064 3386 1599
[04]  21(G22)  f 43 11  0   1030.8  2045998.6  0.0  2 0 1805 3226 1276
[05]  22(G23)  f 43  7  0  -4025.7  2046005.2 -0.0  2 0 1721 2794 1188
[06]  25(G26)  f 45  8  0    459.2  2045999.3 -0.0  2 0 2508 4177 1511
[08]  26(G27)  f 42  7  0  -4518.0  2046005.8 -0.0  2 0 2100 2528  840
[09]  30(G31)  f 44  7  0    485.7  2045999.3 -0.0  2 0 2094 3430 1236
[10]  31(G32)  f 39  7  0   2327.6  2045996.9 -0.1  2 0  917 1462  938
[16]  37(B01) 1f 41 18  0  -1145.4  4092002.9  0.5  2 0 1579 1860  769
[17]  57(B21)  1 12  7  0  -2080.8  4092006.7  0.8  1 0 1008  964  536
[18]  39(B03) 1f 43 27  0  -1141.1  4092002.9 -0.0  2 0  876 1467  498
[19]  40(B04) 1f 41 21  0  -1130.3  4092002.8 -0.2  2 0 1278 1492  586
[20]  41(B05)  7 20 31  1  -2047.5  4092005.2  0.0  2 0   57  179  187
[21]  42(B06)  7 42  7  0   -353.8  4092000.8 -0.0  2 0  867 1789  877
[22]  43(B07) 1f 43  7  0   -823.2  4092002.0  0.0  2 0 1995 2408 1001
[24]  45(B09) 1f 43  7  0   -935.1  4092002.3 -0.0  2 0 2088 2431  826
[25]  46(B10)  7 43 13  0  -1032.2  4092002.6  0.0  2 0 1967 2430 1246
[26]  52(B16) 1f 44 10  0   -382.6  4092000.9  0.0  2 0 2081 2614 1114
[27]  54(B18) 1f 44 11  0   -967.6  4092002.4  0.0  2 0 2439 2740  817
[28]  55(B19) 1f 42  7  0   1988.2  4091994.7 -0.0  2 0 1985 2454 1012
[29]  65(B29)  1  7  7  0  -3660.7  4092009.0  0.2  1 0  568  115  151
[30]  58(B22) 1f 44  7  0    119.6  4091999.6  0.0  2 0 2696 3123  721
[32]  75(N-6)  f 42  7  0  -3915.6  1022002.5  0.0  2 0   767 1310  477
[33]  76(N-5)  f 46  7  0   -230.2  1022000.1  0.0  2 0  2201 3954 2024
[34]  78(N-3)  f 37  7  0  -3335.3  1022002.2 -0.1  2 0   345  770  384
[35]  79(N-2)  f 35  7  0  -4891.8  1022003.0 -0.1  2 0   502  946  368
[36]  82(N01)  f 37  7  0   1316.9  1021999.1  0.0  2 0   347  383  540
[37]  83(N02)  f 45  7  0   -387.5  1022000.2  0.0  2 0  1932 3462 1644
[38]  84(N03)  f 37  7  0   -351.1  1022000.2 -0.1  2 0   721  841  568
[40]  85(N04)  f 42  7  0   2918.5  1021998.1  0.0  2 0   920 1615  992
[41]  86(N05)  f 44  8  0  -4842.6  1022003.1  0.1  2 0  1239 2126 1144
[48]  37(B01)  7 10 10  1  -2476.5 20460041.8  0.1  2 0  867  584  598
[54]  43(B07)  1  7  7  0  -1396.6 20460011.4 -0.0  1 0  486  898  484
[56]  45(B09)  1  7  7  0   -190.6 20460014.6  0.1  1 0  369   23  130
[58]  52(B16)  1  7  7  0    747.8 20460006.7 -0.1  1 0  327  373  613
[59]  54(B18)  1  7  7  0  -1101.5 20460014.9  0.1  1 0  743  702  415
[60]  55(B19)  1  7  7  0   1459.2 20459968.5 -0.1  1 0  147  405  780
[62]  58(B22)  1  7  7  0   -326.1 20459999.5  0.1  1 0  308  415  561
$GNGGA,022818.133,,,,,0,00,,,M,,,,0000*2B
$GNRMC,022818.133,A,,,,,,,070180,,*28
$GPGSA,A,1,,,,,,,,,,,,,,,*1E
$BDGSA,A,1,,,,,,,,,,,,,,,*0F
$GLGSA,A,1,,,,,,,,,,,,,,,*02
$GPGSV,3,1,09,03,00,000,41,14,00,000,41,16,00,000,43,22,00,000,43*73
$GPGSV,3,2,09,23,00,000,43,26,00,000,45,27,00,000,42,31,00,000,44*73
$GPGSV,3,3,09,32,00,000,39*4B
$BDGSV,3,1,12,01,00,000,41,03,00,000,43,04,00,000,41,05,00,000,20*6F
$BDGSV,3,2,12,06,00,000,42,07,00,000,43,09,00,000,43,10,00,000,43*62
$BDGSV,3,3,12,16,00,000,44,18,00,000,44,19,00,000,42,22,00,000,44*6B
$B3CN0,0,0,0,0,0,0,0,0,0,0,0,0,0,0*4C
---00000017--- Acq_st=3 0  2000-1-1 0:1:54 
[00]  02(G03)  f 41  7  0    557.7  2045999.2 -0.1  2 0 1542 2156  936
[01]  07(G08)  1  7  7  0  -4750.0  2046007.1 -0.0  1 0  381  244  579
[02]  13(G14)  f 42  7  0   1648.4  2045997.8 -0.1  2 0  941 1361  914
[03]  15(G16)  f 44  7  0  -1426.2  2046001.8 -0.0  2 0 2036 3217 1484
[04]  21(G22)  f 44  9  0   1036.1  2045998.6  0.0  2 0 1627 3203 1261
[05]  22(G23)  f 43  7  0  -4021.9  2046005.2  0.0  2 0 1693 2271  990
[06]  25(G26)  f 45  7  0    460.9  2045999.4 -0.0  2 0 2198 3724 1536
[08]  26(G27)  f 43 12  0  -4513.1  2046005.7  0.0  2 0 1532 2359 1503
[09]  30(G31)  f 44  7  0    488.4  2045999.3  0.1  2 0 1622 2750 1749
[10]  31(G32)  f 39  7  0   2331.9  2045996.9  0.0  2 0  478 1216  561
[16]  37(B01) 1f 41 21  0  -1143.9  4092002.8 -0.7  2 0 1018 1370  658
[17]  57(B21)  1 12  7  0  -2079.7  4092006.3  0.9  1 0  880 1498  866
[18]  39(B03) 1f 43 29  0  -1138.0  4092002.8  0.5  2 0 1730 2471 1170
[19]  40(B04) 1f 40 10  0  -1132.9  4092002.8  0.4  2 0 1556 1695  565
[20]  41(B05)  7 17 25  1  -2019.3  4092005.4 -0.0  2 0  242  633  526
[21]  42(B06)  7 42  7  0   -352.5  4092000.8 -0.0  2 0  801 1412  586
[22]  43(B07) 1f 44  7  0   -821.8  4092002.0 -0.0  2 0 2239 2823 1199
[24]  45(B09) 1f 43  7  0   -934.6  4092002.3  0.0  2 0 1607 1981  805
[25]  46(B10)  7 43  7  0  -1028.4  4092002.5 -0.0  2 0 2272 2216  552
[26]  52(B16) 1f 44  7  0   -380.0  4092000.9 -0.0  2 0 2438 3060 1279
[27]  54(B18) 1f 44  7  0   -962.0  4092002.4 -0.0  2 0 1860 3171 1655
[28]  55(B19) 1f 41  7  0   1990.8  4091994.6  0.0  2 0 2276 2690 1040
[29]  65(B29)  1 10  7  0  -3777.1  4092009.0  0.1  1 0  285  198  301
[30]  58(B22) 1f 44  7  0    121.2  4091999.6 -0.0  2 0 2295 2957 1287
[32]  75(N-6)  f 42  7  0  -3911.8  1022002.5  0.0  2 0   589 1239  727
[33]  76(N-5)  f 46  7  0   -226.9  1022000.1 -0.0  2 0  2249 3921 1973
[34]  78(N-3)  f 37  7  0  -3334.9  1022002.1 -0.1  2 0   582  722  216
[35]  79(N-2)  f 35  7  0  -4888.8  1022003.1  0.1  2 0   639  678  542
[36]  82(N01)  f 36  7  0   1319.5  1021999.1 -0.1  2 0   368  647  159
[37]  83(N02)  f 45  7  0   -385.1  1022000.2  0.1  2 0  1742 3090 1454
[38]  84(N03)  f 36  7  0   -349.0  1022000.2 -0.1  2 0   368  659  546
[40]  85(N04)  f 43  7  0   2920.2  1021998.1 -0.0  2 0  1632 1953  769
[41]  86(N05)  f 44  7  0  -4840.9  1022003.1 -0.0  2 0  1235 2391 1014
[50]  39(B03)  1 22 23  1   -646.2 20460020.8  0.0  1 0  680  388  449
[51]  40(B04)  1 13 10  1  -1375.4 20460022.3 -0.1  1 0  884  951  473
[54]  43(B07)  1  7  7  0  -1381.2 20460011.1 -0.1  1 0  241  410  676
[56]  45(B09)  1  7  7  0   -395.2 20460015.3  0.0  1 0  539  411  774
[58]  52(B16)  1  7  7  0    421.4 20460007.0 -0.1  1 0  418  287  299
[59]  54(B18)  1  7  7  0  -1136.7 20460013.4 -0.0  1 0  496  646  596
[60]  55(B19)  1  7  7  0   1136.1 20459968.2  0.1  1 0  162  424  305
[62]  58(B22)  1  7  7  0   -613.7 20459999.3  0.0  1 0  143  351  344
$GNGGA,022819.133,,,,,0,00,,,M,,,,0000*2A
$GNRMC,022819.133,A,,,,,,,220419,,*2B
$GPGSA,A,1,,,,,,,,,,,,,,,*1E
$BDGSA,A,1,,,,,,,,,,,,,,,*0F
$GLGSA,A,1,,,,,,,,,,,,,,,*02
$GPGSV,3,1,09,03,00,000,41,14,00,000,42,16,00,000,44,22,00,000,44*70
$GPGSV,3,2,09,23,00,000,43,26,00,000,45,27,00,000,43,31,00,000,44*72
$GPGSV,3,3,09,32,00,000,39*4B
$BDGSV,3,1,12,01,00,000,41,03,00,000,43,04,00,000,40,05,00,000,17*6A
$BDGSV,3,2,12,06,00,000,42,07,00,000,44,09,00,000,43,10,00,000,43*65
$BDGSV,3,3,12,16,00,000,44,18,00,000,44,19,00,000,41,22,00,000,44*68
$B3CN0,0,0,0,0,0,0,0,0,0,0,0,0,0,0*4C
---00000018--- Acq_st=3 0  2000-1-1 0:1:55 
[00]  02(G03)  f 41  7  0    556.3  2045999.2 -0.1  2 0 1142 1837 1170
[01]  07(G08)  1 25  7  0  -4838.1  2046007.6  0.4  1 0  677 1721 1064
[02]  13(G14)  f 42  7  0   1646.6  2045997.8 -0.0  2 0 1564 2376 1255
[03]  15(G16)  f 44  7  0  -1425.7  2046001.8  0.1  2 0 1626 3089 1914
[04]  21(G22)  f 44  7  0   1033.7  2045998.6 -0.0  2 0 1964 3408 1301
[05]  22(G23)  f 43 11  0  -4027.3  2046005.2  0.0  2 0 1482 2974 1573
[06]  25(G26)  f 45 10  0    460.8  2045999.4  0.0  2 0 2335 3762 1649
[08]  26(G27)  f 42 11  0  -4519.0  2046005.8  0.0  2 0 1516 1908  802
[09]  30(G31)  f 44  7  0    486.0  2045999.3  0.0  2 0 1430 2840 1285
[10]  31(G32)  f 40  7  0   2327.8  2045996.9  0.0  2 0  743 1328  601
[16]  37(B01) 1f 40 36  0  -1148.0  4092002.9  0.6  2 0 1143 1600  711
[17]  57(B21)  1 11  7  0  -2079.7  4092006.5  0.9  1 0  746 1463  897
[18]  39(B03) 1f 43 28  0  -1139.7  4092002.8 -0.1  2 0 2416 2317 1192
[19]  40(B04) 1f 38 23  0  -1132.6  4092002.8  0.5  2 0 1430 1678  740
[20]  41(B05)  7 10 30  1  -1994.7  4092005.2 -0.1  2 0  234  122  285
[21]  42(B06)  7 42  7  0   -353.7  4092000.8 -0.0  2 0 1243 1820  824
[22]  43(B07) 1f 44  7  0   -823.7  4092002.0  0.0  2 0 2060 2673  981
[24]  45(B09) 1f 43  7  0   -933.9  4092002.3 -0.1  2 0 1658 2662 1225
[25]  46(B10)  7 42  8  0  -1028.3  4092002.6  0.0  2 0 2251 2377  699
[26]  52(B16) 1f 44  7  0   -378.8  4092000.9  0.0  2 0 1956 2814  940
[27]  54(B18) 1f 44 11  0   -965.7  4092002.4  0.0  2 0 2313 2748 1218
[28]  55(B19) 1f 42  7  0   1986.2  4091994.7 -0.0  2 0 1734 2392  795
[29]  65(B29)  1  7  7  0  -3148.7  4092008.9  0.0  1 0  230  163  160
[30]  58(B22) 1f 44  7  0    120.2  4091999.6 -0.0  2 0 2651 3192 1512
[32]  75(N-6)  f 42  7  0  -3912.8  1022002.5  0.1  2 0   608 1362  433
[33]  76(N-5)  f 47  9  0   -227.6  1022000.1  0.0  2 0  2242 3864 1882
[34]  78(N-3)  f 37 11  0  -3332.6  1022002.0 -0.1  2 0   676  722  393
[35]  79(N-2)  f 35  9  0  -4894.2  1022003.1 -0.2  2 0   431  826  328
[36]  82(N01)  f 35  7  0   1318.4  1021999.2 -0.2  2 0   233  286  262
[37]  83(N02)  f 46  7  0   -387.2  1022000.2 -0.0  2 0  1984 3606 1520
[38]  84(N03)  f 36  7  0   -349.8  1022000.2  0.0  2 0   432  722  264
[40]  85(N04)  f 43  7  0   2920.1  1021998.1  0.0  2 0   931 1982 1199
[41]  86(N05)  f 44  7  0  -4841.9  1022003.1  0.0  2 0  1552 2673 1137
[48]  37(B01)  1 10 18  0   -993.1 20460018.4  0.2  1 0  404  331  206
[50]  39(B03)  1 10 18  0   -152.0 20460018.1  0.0  1 0  535  328  236
[51]  40(B04)  1 18 23  0   -541.4 20460019.2  0.1  1 0  259  100  254
[59]  54(B18)  1  7  7  0  -1003.6 20460015.4  0.2  1 0  397  650  554
[60]  55(B19)  1  7  7  0   1816.2 20459968.2  0.0  1 0  347  333  507
[62]  58(B22)  1  7  8  0   -473.2 20459998.6 -0.1  1 0  700  125  324
$GNGGA,022820.133,,,,,0,00,,,M,,,,0000*20
$GNRMC,022820.133,A,,,,,,,220419,,*21
$GPGSA,A,1,,,,,,,,,,,,,,,*1E
$BDGSA,A,1,,,,,,,,,,,,,,,*0F
$GLGSA,A,1,,,,,,,,,,,,,,,*02
$GPGSV,3,1,09,03,00,000,41,14,00,000,42,16,00,000,44,22,00,000,44*70
$GPGSV,3,2,09,23,00,000,43,26,00,000,45,27,00,000,42,31,00,000,44*73
$GPGSV,3,3,09,32,00,000,40*45
$BDGSV,3,1,12,01,00,000,40,03,00,000,43,04,00,000,38,05,00,000,36*67
$BDGSV,3,2,12,06,00,000,42,07,00,000,44,09,00,000,43,10,00,000,42*64
$BDGSV,3,3,12,16,00,000,44,18,00,000,44,19,00,000,42,22,00,000,44*6B
$B3CN0,0,0,0,0,0,0,0,0,0,0,0,0,0,0*4C
---00000019--- Acq_st=3 0  2000-1-1 0:1:56 
[00]  02(G03)  f 41  8  0    552.1  2045999.2 -0.1  2 0 1851 2368  666
[01]  07(G08)  7 33  7  0  -4835.2  2046006.2  0.0  5 0  529 1243  866
[02]  13(G14)  f 41 12  0   1647.5  2045997.8  0.0  2 0 1508 2030  869
[03]  15(G16)  f 44  7  0  -1427.5  2046001.8  0.0  2 0 2421 3291 1402
[04]  21(G22)  f 43  7  0   1035.7  2045998.6 -0.0  2 0 1663 2874  718
[05]  22(G23)  f 43  7  0  -4023.8  2046005.2  0.0  2 0 1697 2289  649
[06]  25(G26)  f 45  7  0    462.6  2045999.3  0.1  2 0 2304 4174 2103
[08]  26(G27)  f 43  7  0  -4519.0  2046005.8  0.0  2 0 1424 3015 1683
[09]  30(G31)  f 44  7  0    484.9  2045999.3 -0.0  2 0 2045 2771 1150
[10]  31(G32)  f 40  7  0   2329.0  2045997.0 -0.0  2 0 1033 1367  562
[16]  37(B01) 1f 40 18  0  -1147.5  4092002.8 -0.1  2 0 1331 1530  544
[18]  39(B03) 1f 42 28  0  -1143.0  4092002.8  0.1  2 0 2048 2255 1118
[19]  40(B04) 1f 40 10  0  -1132.9  4092002.8  0.2  2 0 1264 1436  771
[20]  41(B05)  7 19 31  1  -2002.9  4092005.2  0.1  2 0  498  384  176
[21]  42(B06)  7 42  7  0   -355.0  4092000.8 -0.0  2 0 1365 1579  626
[22]  43(B07) 1f 44  7  0   -822.4  4092002.0 -0.0  2 0 1975 2704 1378
[24]  45(B09) 1f 42  7  0   -936.5  4092002.3  0.0  2 0 1433 1957  741
[25]  46(B10)  7 42 10  0  -1028.7  4092002.6  0.0  2 0 1821 2689 1554
[26]  52(B16) 1f 44  7  0   -380.2  4092000.9  0.0  2 0 2038 2091  510
[27]  54(B18) 1f 44  7  0   -964.9  4092002.4  0.0  2 0 1731 2438  922
[28]  55(B19) 1f 42  7  0   1986.3  4091994.6 -0.0  2 0 1048 1372  369
[29]  65(B29)  1  7  7  0  -3061.9  4092008.9 -0.1  1 0  185  224  254
[30]  58(B22) 1f 44  7  0    124.6  4091999.6 -0.0  2 0 2352 3389 1270
[32]  75(N-6)  f 42  7  0  -3913.1  1022002.5 -0.0  2 0   967 1871  837
[33]  76(N-5)  f 47  7  0   -227.6  1022000.1 -0.0  2 0  2356 4077 2232
[34]  78(N-3)  f 37  7  0  -3335.9  1022002.1 -0.1  2 0   402 1086  333
[35]  79(N-2)  f 35 10  0  -4892.8  1022003.1  0.1  2 0   354  651  252
[36]  82(N01)  f 36  7  0   1316.6  1021999.2  0.1  2 0   722  900  442
[37]  83(N02)  f 46  9  0   -387.8  1022000.2  0.0  2 0  2035 3651 1846
[38]  84(N03)  f 37 11  0   -351.0  1022000.3 -0.2  2 0   353  643  222
[40]  85(N04)  f 42  7  0   2919.2  1021998.1 -0.1  2 0  1140 1924 1003
[41]  86(N05)  f 44 10  0  -4843.4  1022003.0 -0.0  2 0  1184 2414 1295
[48]  37(B01)  7 10 10  1  -1441.1 20460023.3 -0.1  2 0  358  128  448
[50]  39(B03)  1 17 16  1    349.6 20460022.6 -0.1  1 0  372  323  444
[51]  40(B04)  1 23 18  1   -327.6 20460023.1  0.1  1 0  471  550  319
[54]  43(B07)  1 21  7  0   -444.2 20460012.1 -0.0  1 0  506  326  266
[56]  45(B09)  1  7  7  0   -830.9 20460013.4 -0.1  1 0   44  325  124
[58]  52(B16)  1  7  7  0   -233.7 20460005.5 -0.1  1 0  741  333  385
$GNGGA,022821.133,,,,,0,00,,,M,,,,0000*21
$GNRMC,022821.133,A,,,,,,,220419,,*20
$GPGSA,A,1,,,,,,,,,,,,,,,*1E
$BDGSA,A,1,,,,,,,,,,,,,,,*0F
$GLGSA,A,1,,,,,,,,,,,,,,,*02
$GPGSV,3,1,10,03,00,000,41,08,00,000,33,14,00,000,41,16,00,000,44*73
$GPGSV,3,2,10,22,00,000,43,23,00,000,43,26,00,000,45,27,00,000,43*7F
$GPGSV,3,3,10,31,00,000,44,32,00,000,40*7F
$BDGSV,3,1,12,01,00,000,40,03,00,000,42,04,00,000,40,05,00,000,20*6E
$BDGSV,3,2,12,06,00,000,42,07,00,000,44,09,00,000,42,10,00,000,42*65
$BDGSV,3,3,12,16,00,000,44,18,00,000,44,19,00,000,42,22,00,000,44*6B
$B3CN0,0,0,0,0,0,0,0,0,0,0,0,0,0,0*4C
---00000020--- Acq_st=3 0  2000-1-1 0:1:57 
[00]  02(G03)  f 41  7  0    556.7  2045999.2  0.1  2 0 1551 1774  509
[01]  07(G08)  7 37  7  0  -4831.8  2046006.1 -0.1  2 0 1051 1373  707
[02]  13(G14)  f 41 12  0   1645.4  2045997.8  0.0  2 0  878 1565  886
[03]  15(G16)  f 44  7  0  -1423.7  2046001.8 -0.0  2 0 1885 3238 1559
[04]  21(G22)  f 43  7  0   1034.0  2045998.6  0.0  2 0 1585 2842 1543
[05]  22(G23)  f 43  9  0  -4025.0  2046005.2  0.0  2 0 1391 2629 1833
[06]  25(G26)  f 45  7  0    460.6  2045999.3 -0.1  2 0 2709 4478 2569
[08]  26(G27)  f 42  7  0  -4517.4  2046005.8 -0.0  2 0 1563 2494 1295
[09]  30(G31)  f 44 11  0    487.9  2045999.3  0.0  2 0 1750 2206  629
[10]  31(G32)  f 40  7  0   2331.6  2045996.9 -0.0  2 0  738 1370  711
[16]  37(B01) 1f 41 10  0  -1144.5  4092002.9  0.6  2 0  852 1453  685
[18]  39(B03) 1f 42 30  0  -1142.3  4092002.9 -0.2  2 0 1939 2021  706
[19]  40(B04) 1f 41 23  0  -1127.3  4092002.9  0.3  2 0  857 1293  746
[20]  41(B05)  7 10 30  1  -2008.1  4092005.3 -0.2  2 0  229  646  480
[21]  42(B06) 1f 42  7  0   -354.5  4092000.8 -0.0  2 0 1410 1901  552
[22]  43(B07) 1f 43  7  0   -821.2  4092002.0 -0.0  2 0 2308 3174 1406
[24]  45(B09) 1f 42  7  0   -934.0  4092002.3 -0.0  2 0 1991 2688  884
[25]  46(B10) 1f 43 11  0  -1029.2  4092002.6  0.0  2 0 1207 1744  527
[26]  52(B16) 1f 44  7  0   -384.0  4092000.9 -0.1  2 0 2600 2751  930
[27]  54(B18) 1f 44  7  0   -965.9  4092002.4  0.0  2 0 2453 2750  823
[28]  55(B19) 1f 42  7  0   1986.8  4091994.7  0.0  2 0 1191 1642  948
[30]  58(B22) 1f 44  7  0    123.4  4091999.6 -0.0  2 0 2989 3594 1454
[32]  75(N-6)  f 42 11  0  -3913.8  1022002.4 -0.1  2 0   880 1384  650
[33]  76(N-5)  f 47  7  0   -225.8  1022000.1 -0.0  2 0  2172 4040 1985
[34]  78(N-3)  f 37  7  0  -3335.2  1022002.1  0.0  2 0   323  444   74
[35]  79(N-2)  f 35  7  0  -4892.3  1022003.1 -0.0  2 0   320  792  484
[36]  82(N01)  f 36  7  0   1316.5  1021999.1  0.1  2 0   541  815  603
[37]  83(N02)  f 47  7  0   -387.0  1022000.2 -0.0  2 0  2098 3383 1266
[38]  84(N03)  f 37  7  0   -347.1  1022000.2  0.2  2 0   536  818  263
[40]  85(N04)  f 42  7  0   2920.1  1021998.1  0.1  2 0  1230 1820  741
[41]  86(N05)  f 44  7  0  -4843.2  1022003.1 -0.1  2 0  1397 2861 1390
[48]  37(B01)  7 10 10  1  -1716.9 20460029.4 -0.0  2 0  257  605  423
[50]  39(B03)  1 21 10  1    645.0 20460024.2  0.0  1 0  254  345  374
[51]  40(B04)  1 24 24  0    -14.4 20460019.2 -0.0  1 0  299  322  384
[54]  43(B07)  1  7  7  0   -278.6 20460009.2  0.1  1 0  844  801  665
[56]  45(B09)  1  7  7  0  -1125.3 20460014.9 -0.1  1 0  307  292  568
[58]  52(B16)  1  7  7  0     60.1 20460005.9 -0.0  1 0  227  209  791
[59]  54(B18)  1  7  7  0  -1009.6 20460015.1 -0.1  1 0  457  645  493
[60]  55(B19)  1  7  7  0   1692.5 20459969.4  0.0  1 0  255  221  550
[62]  58(B22)  1  8  7  0     98.0 20459999.1 -0.1  1 0  161  183  252
$GNGGA,022822.133,,,,,0,00,,,M,,,,0000*22
$GNRMC,022822.133,A,,,,,,,220419,,*23
$GPGSA,A,1,,,,,,,,,,,,,,,*1E
$BDGSA,A,1,,,,,,,,,,,,,,,*0F
$GLGSA,A,1,,,,,,,,,,,,,,,*02
$GPGSV,3,1,10,03,00,000,41,08,00,000,37,14,00,000,41,16,00,000,44*77
$GPGSV,3,2,10,22,00,000,43,23,00,000,43,26,00,000,45,27,00,000,42*7E
$GPGSV,3,3,10,31,00,000,44,32,00,000,40*7F
$BDGSV,3,1,11,01,00,000,41,03,00,000,42,04,00,000,41,06,00,000,42*6A
$BDGSV,3,2,11,07,00,000,43,09,00,000,42,10,00,000,43,16,00,000,44*67
$BDGSV,3,3,11,18,00,000,44,19,00,000,42,22,00,000,44*5F
$B3CN0,0,0,0,0,0,0,0,0,0,0,0,0,0,0*4C
---00000021--- Acq_st=3 0  2000-1-1 0:1:58 
[00]  02(G03)  f 41  7  0    556.8  2045999.2  0.0  2 0  952 1326  237
[01]  07(G08)  7 37  7  0  -4831.9  2046006.2  0.2  2 0  804  589  293
[02]  13(G14)  f 41  7  0   1647.6  2045997.8  0.0  2 0 1079 1438  908
[03]  15(G16)  f 44  7  0  -1421.7  2046001.8 -0.0  2 0 1864 2981 1374
[04]  21(G22)  f 43  7  0   1033.0  2045998.6 -0.0  2 0 1700 2925 1493
[05]  22(G23)  f 43  9  0  -4022.8  2046005.2 -0.0  2 0 2021 2837 1402
[06]  25(G26)  f 45  7  0    462.7  2045999.3  0.0  2 0 3006 4532 1934
[08]  26(G27)  f 43  7  0  -4517.5  2046005.8  0.0  2 0  862 2216 1124
[09]  30(G31)  f 44 11  0    488.4  2045999.3 -0.0  2 0 2026 2897 1278
[10]  31(G32)  f 40  7  0   2330.1  2045996.9 -0.1  2 0  660 1617  746
[16]  37(B01) 1f 41 13  0  -1146.3  4092002.7  0.1  2 0  798  964  526
[17]  63(B27)  1  7  7  0   -223.6  4092001.1  0.2  1 0  278  359  614
[18]  39(B03) 1f 42 27  0  -1137.8  4092002.9  0.2  2 0 1284 2024 1156
[19]  40(B04) 1f 41 23  0  -1129.7  4092002.8  0.0  2 0 1421 1518  462
[20]  41(B05)  7 10 30  1  -1999.2  4092005.1  0.2  2 0  325  439  220
[21]  42(B06) 1f 41  7  0   -354.1  4092000.8 -0.1  2 0 2325 2370  931
[22]  43(B07) 1f 43  7  0   -820.0  4092002.0  0.0  2 0 1981 2470  888
[24]  45(B09) 1f 43  7  0   -932.7  4092002.3  0.0  2 0 1909 2257 1148
[25]  46(B10) 1f 42  8  0  -1026.0  4092002.6  0.0  2 0 1830 2331 1048
[26]  52(B16) 1f 44  7  0   -378.4  4092000.9  0.0  2 0 1925 2715  931
[27]  54(B18) 1f 44 11  0   -965.4  4092002.4 -0.0  2 0 2252 2736 1534
[28]  55(B19) 1f 42  7  0   1991.4  4091994.6  0.1  2 0 1434 2099 1100
[29]  66(B30)  1  7  7  0  -2151.7  4092005.0 -0.0  1 0  819  881  356
[30]  58(B22) 1f 44  7  0    125.4  4091999.6  0.0  2 0 2388 2867 1398
[32]  75(N-6)  f 42  7  0  -3911.9  1022002.5 -0.1  2 0  1017 1175  689
[33]  76(N-5)  f 47  7  0   -224.2  1022000.1 -0.0  2 0  2393 4026 1751
[34]  78(N-3)  f 37  7  0  -3331.2  1022002.1 -0.1  2 0   403  513  171
[35]  79(N-2)  f 35  7  0  -4890.8  1022003.1 -0.2  2 0   757  966  225
[36]  82(N01)  f 36  7  0   1320.1  1021999.1  0.2  2 0   539  835  827
[37]  83(N02)  f 47  7  0   -385.6  1022000.2 -0.1  2 0  2030 3435 1936
[38]  84(N03)  f 37  7  0   -347.6  1022000.2 -0.0  2 0   550  709  316
[40]  85(N04)  f 43  7  0   2921.6  1021998.1 -0.1  2 0   834 1586  925
[41]  86(N05)  f 45  7  0  -4841.7  1022003.1  0.0  2 0  1305 2328  954
[48]  37(B01)  7 10 10  0  -2247.8 20460036.4  0.1  2 0  284  507  669
[53]  42(B06)  1  7  7  0   -356.9 20460005.8 -0.1  1 0  453  369  853
[54]  43(B07)  1  7  7  0    238.6 20460008.8  0.0  1 0   70  174  326
[56]  45(B09)  1  9  7  0  -1399.3 20460013.7 -0.0  1 0  379  344  124
[57]  46(B10)  1  7  7  0   -706.0 20460014.8 -0.1  1 0  357   51  205
[58]  52(B16)  1  7  9  0    442.1 20460006.8 -0.1  1 0  588  926  544
[59]  54(B18)  1  7  7  0  -1610.2 20460015.9 -0.1  1 0  339   75  226
[60]  55(B19)  1  7  7  0   1427.4 20459968.1  0.1  1 0  139  143  342
[62]  58(B22)  1  7  7  0   -114.2 20459998.0 -0.2  1 0  419  420  284
$GNGGA,022823.133,,,,,0,00,,,M,,,,0000*23
$GNRMC,022823.133,A,,,,,,,220419,,*22
$GPGSA,A,1,,,,,,,,,,,,,,,*1E
$BDGSA,A,1,,,,,,,,,,,,,,,*0F
$GLGSA,A,1,,,,,,,,,,,,,,,*02
$GPGSV,3,1,10,03,00,000,41,08,00,000,37,14,00,000,41,16,00,000,44*77
$GPGSV,3,2,10,22,00,000,43,23,00,000,43,26,00,000,45,27,00,000,43*7F
$GPGSV,3,3,10,31,00,000,44,32,00,000,40*7F
$BDGSV,3,1,11,01,00,000,41,03,00,000,43,04,00,000,41,06,00,000,41*68
$BDGSV,3,2,11,07,00,000,43,09,00,000,43,10,00,000,42,16,00,000,44*67
$BDGSV,3,3,11,18,00,000,44,19,00,000,42,22,00,000,44*5F
$B3CN0,0,0,0,0,0,0,0,0,0,0,0,0,0,0*4C
---00000022--- Acq_st=7 0  2000-1-1 0:1:59 
[00]  02(G03)  f 41  7  0    559.7  2045999.2  0.1  2 0 1417 1770  621
[01]  07(G08)  7 37  7  0  -4835.7  2046006.2 -0.1  2 0 1427 1215  530
[02]  13(G14)  f 41  9  0   1650.9  2045997.8  0.0  2 0 1387 2495 1071
[03]  15(G16)  f 44  7  0  -1421.7  2046001.8  0.0  2 0 2318 3086 1309
[04]  21(G22)  f 44  7  0   1034.0  2045998.6  0.1  2 0 1822 2555  599
[05]  22(G23)  f 43 13  0  -4021.2  2046005.2  0.0  2 0 1872 2981 1523
[06]  25(G26)  f 45  7  0    461.9  2045999.3 -0.0  2 0 2436 3664 1553
[08]  26(G27)  f 43  7  0  -4518.0  2046005.8  0.0  2 0 1237 2369 1192
[09]  30(G31)  f 44  7  0    487.5  2045999.3  0.0  2 0 1839 2794 1004
[10]  31(G32)  f 40  7  0   2332.9  2045996.9 -0.1  2 0  637 1600  916
[16]  37(B01) 1f 41 10  0  -1145.6  4092002.9  0.2  2 0  909 1289  273
[17]  63(B27)  1  7  7  0   -941.8  4092001.3 -0.0  1 0  485  597  762
[18]  39(B03) 1f 41 29  0  -1143.1  4092002.9  0.2  2 0 2077 2016  782
[19]  40(B04) 1f 40 25  0  -1129.5  4092002.9 -0.2  2 0 1411 1780  957
[20]  41(B05)  7 20 30  1  -1998.5  4092005.3  0.1  2 0  405  472  641
[21]  42(B06) 1f 42  7  0   -352.5  4092000.8 -0.0  2 0 1408 2001  915
[22]  43(B07) 1f 43  7  0   -821.6  4092002.0 -0.0  2 0 1854 2841 1711
[24]  45(B09) 1f 42  7  0   -936.9  4092002.3 -0.0  2 0 2021 2651  895
[25]  46(B10) 1f 43 10  0  -1027.5  4092002.6  0.0  2 0 1739 2616  977
[26]  52(B16) 1f 44  7  0   -382.3  4092000.9 -0.1  2 0 1654 2574  691
[27]  54(B18) 1f 44  7  0   -968.6  4092002.4  0.0  2 0 2772 3363 1352
[28]  55(B19) 1f 42  7  0   1990.3  4091994.7 -0.0  2 0 1067 1389  778
[29]  66(B30)  1  7  7  0  -2600.8  4092005.1  0.0  1 0  292  438  509
[30]  58(B22) 1f 44  7  0    124.7  4091999.6 -0.0  2 0 2366 2763 1470
[32]  75(N-6)  f 42  7  0  -3913.8  1022002.5  0.0  2 0   514 1136  698
[33]  76(N-5)  f 47  7  0   -223.5  1022000.1  0.0  2 0  2286 4166 2018
[34]  78(N-3)  f 37  7  0  -3332.1  1022002.1 -0.1  2 0   586  997  630
[35]  79(N-2)  f 36  7  0  -4890.3  1022003.1  0.1  2 0   543  617  264
[36]  82(N01)  f 36  7  0   1319.7  1021999.1  0.1  2 0   588  638  241
[37]  83(N02)  f 46  7  0   -386.4  1022000.2 -0.0  2 0  1831 3507 1987
[38]  84(N03)  f 37  7  0   -345.1  1022000.2  0.1  2 0   456  824  485
[40]  85(N04)  f 43  7  0   2921.0  1021998.1  0.0  2 0   896 1473  692
[41]  86(N05)  f 45  7  0  -4842.7  1022003.1 -0.1  2 0   980 1904  879
[48]  37(B01)  7 10 22  1  -2381.1 20460039.5 -0.0  2 0  349  694  601
[50]  39(B03)  1 14 18  0  -1185.0 20460024.4  0.1  1 0  573  251   78
[51]  40(B04)  1 23 19  1   -887.1 20460016.4  0.0  1 0  333  119  202
[53]  42(B06)  1 11  9  0   -512.1 20460002.5  0.1  1 0  594  439  451
[54]  43(B07)  1  7  7  0    427.6 20460010.1 -0.0  1 0  246  298  469
[56]  45(B09)  1  7  7  0  -1324.2 20460013.8 -0.0  1 0  195  416  657
[57]  46(B10)  1  7  7  0     92.6 20460015.2 -0.0  1 0  264  731  367
[58]  52(B16)  1  7  7  0    595.4 20460008.2  0.1  1 0  121  353  318
[59]  54(B18)  1 11  7  0   -685.7 20460015.0  0.0  1 0  200  331  445
[60]  55(B19)  1  7  7  0    993.4 20459968.0 -0.1  1 0  533  468  449
