SD initialized success
Create debug.log Failed! 3
bbram_blkflag = 1
rtcflag = 128
BBRAM Block OK: 01 EPHflag: 282715c5 340012df, rtc 80
GPS 0 Init Dop: 10000,80
GPS 1 Init Dop: 10000,80
GPS 2 Init Dop: 10000,80
GPS 3 Init Dop: 10000,80
GPS 4 Init Dop: 10000,80
GPS 5 Init Dop: 10000,80
GPS 6 Init Dop: 10000,80
GPS 7 Init Dop: 10000,80
GPS 8 Init Dop: 10000,80
GPS 9 Init Dop: 10000,80
GPS10 Init Dop: 10000,80
GPS11 Init Dop: 10000,80
GPS12 Init Dop: 10000,80
GPS13 Init Dop: 10000,80
GPS14 Init Dop: 10000,80
GPS15 Init Dop: 10000,80
GPS16 Init Dop: 10000,80
GPS17 Init Dop: 10000,80
GPS18 Init Dop: 10000,80
GPS19 Init Dop: 10000,80
GPS20 Init Dop: 10000,80
GPS21 Init Dop: 10000,80
GPS22 Init Dop: 10000,80
GPS23 Init Dop: 10000,80
GPS24 Init Dop: 10000,80
GPS25 Init Dop: 10000,80
GPS26 Init Dop: 10000,80
GPS27 Init Dop: 10000,80
GPS28 Init Dop: 10000,80
GPS29 Init Dop: 10000,80
GPS30 Init Dop: 10000,80
GPS31 Init Dop: 10000,80
BDS 0 Init Dop: 10000,80
BDS 1 Init Dop: 10000,80
BDS 2 Init Dop: 10000,80
BDS 3 Init Dop: 10000,80
BDS 4 Init Dop: 10000,80
BDS 5 Init Dop: 10000,80
BDS 6 Init Dop: 10000,80
BDS 7 Init Dop: 10000,80
BDS 8 Init Dop: 10000,80
BDS 9 Init Dop: 10000,80
BDS10 Init Dop: 10000,80
BDS11 Init Dop: 10000,80
BDS12 Init Dop: 10000,80
BDS13 Init Dop: 10000,80
BDS14 Init Dop: 10000,80
BDS15 Init Dop: 10000,80
BDS16 Init Dop: 10000,80
BDS17 Init Dop: 10000,80
BDS18 Init Dop: 10000,80
BDS19 Init Dop: 10000,80
BDS20 Init Dop: 10000,80
BDS21 Init Dop: 10000,80
BDS22 Init Dop: 10000,80
BDS23 Init Dop: 10000,80
BDS24 Init Dop: 10000,80
BDS25 Init Dop: 10000,80
BDS26 Init Dop: 10000,80
BDS27 Init Dop: 10000,80
BDS28 Init Dop: 10000,80
BDS29 Init Dop: 10000,80
BDS30 Init Dop: 10000,80
BDS31 Init Dop: 10000,80
Good luck!
ch0 satid=0 freq=-750 acq ok!
ch1 satid=6 freq=1500 acq ok!
ch3 satid=10 freq=500 acq ok!
$GNGGA,000000.000,,,,,0,00,,,M,,,,0000*2B
$GNRMC,000000.000,A,,,,,,,060180,,*29
$GPGSA,A,1,,,,,,,,,,,,,,,*1E
$BDGSA,A,1,,,,,,,,,,,,,,,*0F
$GLGSA,A,1,,,,,,,,,,,,,,,*02
$B3CN0,0,0,0,0,0,0,0,0,0,0,0,0,0,0*4C
---00000001--- Acq_st=3 0  2000-1-1 0:0:48 
[00]  00(G01)  1 30  7  0   -767.0  2046002.3  0.4  1 0 1994 4442 2378
[01]  06(G07)  1  7  7  0   1500.0  2046000.4 -0.0  1 0 1434 3013 2222
[02]  07(G08)  1  7  7  0   1500.0  2046000.8 -0.1  1 0  926  845  772
[03]  10(G11)  1  7  7  0    500.0  2046002.5  0.0  1 0  323 2044 2988
ch4 satid=17 freq=1000 acq ok!
$GNGGA,000000.000,,,,,0,00,,,M,,,,0000*2B
$GNRMC,000000.000,A,,,,,,,060180,,*29
$GPGSA,A,1,,,,,,,,,,,,,,,*1E
$BDGSA,A,1,,,,,,,,,,,,,,,*0F
$GLGSA,A,1,,,,,,,,,,,,,,,*02
$B3CN0,0,0,0,0,0,0,0,0,0,0,0,0,0,0*4C
---00000002--- Acq_st=3 0  2000-1-1 0:0:49 
[00]  00(G01)  7 25  7  0   -765.1  2046000.9  0.6 10 0 3529 4143 1848
[01]  06(G07)  1 32 15  0   1327.4  2045997.9  0.9  1 0 3552 3706 1631
[02]  07(G08)  1 26  7  0   1456.1  2045997.9  0.3  1 0 1247 1059  196
[03]  10(G11)  1 27  7  0    421.3  2045999.4  0.6  1 0 2145 2631 1177
[04]  17(G18)  1 29 18  0    989.3  2045998.5  0.1  1 0 1363 2769 1392
[05]  21(G22)  1  7  7  0  -2750.0  2046003.0  0.0  1 0  613  364  593
ch6 satid=27 freq=-3000 acq ok!
ch8 satid=29 freq=-750 acq ok!
$GNGGA,000000.000,,,,,0,00,,,M,,,,0000*2B
$GNRMC,000000.000,A,,,,,,,060180,,*29
$GPGSA,A,1,,,,,,,,,,,,,,,*1E
$BDGSA,A,1,,,,,,,,,,,,,,,*0F
$GLGSA,A,1,,,,,,,,,,,,,,,*02
$GPGSV,1,1,01,01,00,000,25*4E
$B3CN0,0,0,0,0,0,0,0,0,0,0,0,0,0,0*4C
---00000003--- Acq_st=3 0  2000-1-1 0:0:50 
[00]  00(G01)  7 45  7  0   -766.5  2046000.9  0.0  2 0 3306 4701 2325
[01]  06(G07)  7 37  7  0   1324.8  2045998.1  0.1  2 0 3037 3792 1422
[02]  07(G08)  7 33  7  0   1453.7  2045998.0  0.1  5 0 1373 1711  648
[03]  10(G11)  7 30  7  0    418.4  2045999.3  0.3  5 0 2844 3000 1480
[04]  17(G18)  7  7  7  0    987.0  2045998.7  1.0  5 0 1297 2594 1406
[05]  21(G22)  1 17  7  0  -2950.2  2046003.9  0.0  1 0  327   52  445
[06]  27(G28)  1 26  7  0  -2930.1  2046004.6  0.1  1 0 1621 3190 1756
[08]  29(G30)  1 22  7  0   -809.7  2046002.8  0.2  1 0 2653 5208 3461
[16]  37(B01)  1 18 16  1  -1000.0  4092002.9  0.0  1 0  326  601  639
[17]  38(B02)  1 28 19  0  -1250.0  4092005.7 -0.1  1 0  133  587 1503
[18]  39(B03)  1 10 26  1  -1000.0  4092002.1 -0.1  1 0  310  551 1187
ch21 satid=43 freq=-1250 acq ok!
ch22 satid=44 freq=-1750 acq ok!
ch24 satid=46 freq=-1500 acq ok!
$GNGGA,000000.000,,,,,0,00,,,M,,,,0000*2B
$GNRMC,000000.000,A,,,,,,,060180,,*29
$GPGSA,A,1,,,,,,,,,,,,,,,*1E
$BDGSA,A,1,,,,,,,,,,,,,,,*0F
$GLGSA,A,1,,,,,,,,,,,,,,,*02
$GPGSV,1,1,04,01,00,000,45,07,00,000,36,08,00,000,33,11,00,000,30*74
$B3CN0,0,0,0,0,0,0,0,0,0,0,0,0,0,0*4C
---00000004--- Acq_st=3 0  2000-1-1 0:0:51 
[00]  00(G01)  7 45  7  0   -762.4  2046000.9 -0.0  2 0 2797 3741 1039
[01]  06(G07)  7 45  7  0   1331.3  2045998.2 -0.1  2 0 3005 3716 1718
[02]  07(G08)  7 38  7  0   1455.0  2045998.0  0.2  2 0  797 1528 1132
[03]  10(G11)  7 43 10  0    426.1  2045999.4  0.1  2 0 1290 2132  986
[04]  17(G18)  7 44 21  0    994.0  2045998.7  0.0  2 0 2252 2637 1074
[05]  21(G22)  1 21  7  0  -2739.0  2046005.9  0.1  1 0  213 1169 1033
[06]  27(G28)  7 23  7  0  -2922.2  2046003.7  0.7 10 0 2210 2950  854
[08]  29(G30)  7 19  7  0   -801.3  2046000.9  0.8 10 0 3277 4612 2136
[16]  37(B01)  1 10 20  0  -1093.0  4092005.0  0.4  1 0  775 1446 1369
[17]  38(B02)  1 10 27  1  -1135.3  4092004.7  0.4  1 0 1395 1201  484
[18]  39(B03)  1 10 10  0  -1337.0  4092004.7 -0.1  1 0   84  123  657
[19]  40(B04)  1 19 21  0  -1038.5  4092004.4  0.1  1 0  397  909 1476
[20]  41(B05)  1 16 23  0  -1117.8  4092003.9 -0.1  1 0  218  389  535
[21]  43(B07)  1  7  7  0  -1235.3  4092005.3 -0.0  1 0 1181 2329 1955
[22]  44(B08)  1  7  7  0  -1750.0  4092006.2 -0.0  1 0  734 1820 1676
[24]  46(B10)  1  7  7  0  -1500.0  4092004.6  0.1  1 0  384  244  920
ch25 satid=49 freq=-2000 acq ok!
$GNGGA,000000.000,,,,,0,00,,,M,,,,0000*2B
$GNRMC,000000.000,A,,,,,,,060180,,*29
$GPGSA,A,1,,,,,,,,,,,,,,,*1E
$BDGSA,A,1,,,,,,,,,,,,,,,*0F
$GLGSA,A,1,,,,,,,,,,,,,,,*02
$GPGSV,2,1,07,01,00,000,45,07,00,000,45,08,00,000,38,11,00,000,43*7F
$GPGSV,2,2,07,18,00,000,44,28,00,000,23,30,00,000,18*46
$B3CN0,0,0,0,0,0,0,0,0,0,0,0,0,0,0*4C
---00000005--- Acq_st=3 0  2000-1-1 0:0:52 
[00]  00(G01)  7 45  7  0   -757.0  2046000.9  0.0  2 0 2650 4058 1747
[01]  06(G07)  7 44 11  0   1333.7  2045998.2 -0.0  2 0 2713 3812 1771
[02]  07(G08)  7 39  7  0   1463.3  2045998.0 -0.0  2 0 1174 1381  719
[03]  10(G11)  7 43  7  0    427.7  2045999.4  0.1  2 0 1516 2890 1301
[04]  17(G18)  7 43 22  0    995.4  2045998.7 -0.1  2 0 2279 2945 1563
[05]  21(G22)  7 31  7  0  -2733.3  2046003.4  0.2  5 0  799 1295  850
[06]  27(G28)  7 44 12  0  -2918.4  2046003.7  0.0  2 0 1635 2309 1508
[08]  29(G30)  7 47  7  0   -797.6  2046000.9  0.1  2 0 3585 4830 2077
[16]  37(B01)  7 41 10  0  -1086.2  4092002.8 -0.5  2 0 1418 1856  928
[17]  38(B02)  7 10 10  1  -1649.6  4092004.5  0.1  2 0  665  642  643
[18]  39(B03)  1 10 10  0  -1615.8  4092004.3 -0.1  1 0  406 1011  588
[19]  40(B04)  7 40 13  0  -1096.5  4092003.1  0.4  2 0  285 1283 1096
[20]  41(B05)  1 10 10  0  -1632.6  4092005.3  0.0  1 0  483  601  273
[21]  43(B07)  1  7  7  0  -1206.3  4092002.8  0.4  1 0 2045 2682 1431
[22]  44(B08)  1  7  7  0  -1486.2  4092003.5  0.2  1 0 1444 1665  620
[24]  46(B10)  1  7  7  0  -1526.2  4092006.4  0.2  1 0  821 2445 2151
[25]  49(B13)  1  7  7  0  -1974.3  4092006.4  0.0  1 0 1448 2278 1228
$GNGGA,075431.972,,,,,0,00,,,M,,,,0000*23
$GNRMC,075431.972,A,,,,,,,090180,,*2E
$GPGSA,A,1,,,,,,,,,,,,,,,*1E
$BDGSA,A,1,,,,,,,,,,,,,,,*0F
$GLGSA,A,1,,,,,,,,,,,,,,,*02
$GPGSV,2,1,08,01,00,000,45,07,00,000,44,08,00,000,39,11,00,000,42*71
$GPGSV,2,2,08,18,00,000,43,22,00,000,31,28,00,000,44,30,00,000,47*77
$BDGSV,1,1,02,01,00,000,41,04,00,000,40*6E
$B3CN0,0,0,0,0,0,0,0,0,0,0,0,0,0,0*4C
---00000006--- Acq_st=3 0  2000-1-1 0:0:53 
[00]  00(G01)  f 45  8  0   -760.6  2046000.9  0.0  2 0 2993 4798 2328
[01]  06(G07)  f 44  7  0   1329.7  2045998.2 -0.0  2 0 2492 2873 1321
[02]  07(G08)  f 39  9  0   1455.6  2045998.0 -0.2  2 0 1255 1331  935
[03]  10(G11)  f 42  7  0    425.7  2045999.4 -0.0  2 0 1687 2630 1212
[04]  17(G18)  f 43 21  0    994.7  2045998.7 -0.0  2 0 1588 2122 1062
[05]  21(G22)  7 37  7  0  -2734.1  2046003.4  0.2  2 0 1190 1504  435
[06]  27(G28)  f 43  7  0  -2923.4  2046003.7 -0.0  2 0 1385 2744 1562
[08]  29(G30)  f 45  7  0   -801.1  2046001.0  0.0  2 0 3470 4724 2506
[16]  37(B01)  f 41 26  0  -1089.8  4092002.9  0.4  2 0  859 1411  788
[17]  38(B02)  7 13 14  1  -1827.0  4092004.5  0.0  2 0  581  564  313
[18]  39(B03)  1 10 10  0  -1614.7  4092002.3 -0.0  1 0 1135 1022  553
[19]  40(B04)  f 40 22  0  -1101.9  4092002.9 -0.8  2 0  704 1557  842
[20]  41(B05)  1 10 10  0  -1660.5  4092003.6  0.0  1 0  796  934  547
[21]  43(B07)  7 37  7  0  -1211.9  4092003.0  0.1  2 0 1923 2763 1453
[22]  44(B08)  7 34  7  0  -1488.1  4092003.8 -0.0  5 0 1892 2179  758
[24]  46(B10)  7 30  7  0  -1528.7  4092003.9  0.1  5 0 2064 2232  505
[25]  49(B13)  7 20  7  0  -1976.1  4092005.1  0.2 10 0 1635 1449  397
ch26 satid=65 freq=-2500 acq ok!
ch27 satid=66 freq=0 acq ok!
$GNGGA,075432.972,,,,,0,00,,,M,,,,0000*20
$GNRMC,075432.972,A,,,,,,,090180,,*2D
$GPGSA,A,1,,,,,,,,,,,,,,,*1E
$BDGSA,A,1,,,,,,,,,,,,,,,*0F
$GLGSA,A,1,,,,,,,,,,,,,,,*02
$GPGSV,2,1,08,01,00,000,45,07,00,000,44,08,00,000,39,11,00,000,42*71
$GPGSV,2,2,08,18,00,000,43,22,00,000,37,28,00,000,43,30,00,000,45*74
$BDGSV,2,1,07,01,00,000,41,02,00,000,20,04,00,000,40,07,00,000,37*6B
$BDGSV,2,2,07,08,00,000,34,10,00,000,30,13,00,000,20*52
$B3CN0,0,0,0,0,0,0,0,0,0,0,0,0,0,0*4C
---00000007--- Acq_st=3 0  2000-1-1 0:0:54 
[00]  00(G01)  f 45  7  0   -757.9  2046000.9  0.0  2 0 2446 4080 1702
[01]  06(G07)  f 44  7  0   1334.8  2045998.2  0.0  2 0 2388 3500 1361
[02]  07(G08)  f 40  7  0   1460.8  2045998.0 -0.1  2 0  672 1308  572
[03]  10(G11)  f 44  7  0    426.7  2045999.4 -0.0  2 0 1366 2387  954
[04]  17(G18)  f 43 22  0    998.8  2045998.6  0.0  2 0 1560 2697 1426
[05]  21(G22)  7 37 10  0  -2742.6  2046003.5  0.1  2 0  936 1603  431
[06]  27(G28)  f 43  7  0  -2918.7  2046003.7  0.0  2 0 2007 3228 1404
[08]  29(G30)  f 45  7  0   -796.3  2046001.0  0.0  2 0 2825 5141 2671
[16]  37(B01) 1f 40 10  0  -1084.4  4092002.7  0.4  2 0 1669 1908  988
[17]  38(B02)  7 10 22  0  -2010.2  4092005.2 -0.1  2 0  372  170  293
[18]  39(B03)  1 10 10  0  -1607.5  4092002.1  0.1  1 0 1089 1100  592
[19]  40(B04) 1f 40 20  0  -1098.7  4092002.9  0.0  2 0 1142 1185  382
[20]  41(B05)  1 10 10  0  -1898.5  4092002.7 -0.1  1 0  422  202  231
[21]  43(B07)  7 43  7  0  -1203.1  4092003.0 -0.0  2 0 1503 2047 1023
[22]  44(B08)  7 42  7  0  -1479.4  4092003.8  0.0  2 0 1382 1817  693
[24]  46(B10)  7 43  7  0  -1523.4  4092003.9  0.1  2 0 1906 2591 1009
[25]  49(B13)  7 42  7  0  -1971.8  4092005.0  0.0  2 0 1417 1946  819
[26]  65(B29)  1  7  7  0  -2500.0  4092007.7  0.0  1 0  455 2313 2237
[27]  66(B30)  1  7  7  0     -0.0  4092000.6 -0.0  1 0 1565 3238 2354
[48]  37(B01)  1 10 36  1  -1031.5 20460021.2 -0.0  1 0  493  293  483
[51]  40(B04)  1 22 21  1   -907.7 20460011.8  0.0  1 0  528  141  232
ch32 satid=77 freq=-3250 acq ok!
ch33 satid=78 freq=2250 acq ok!
ch34 satid=79 freq=0 acq ok!
ch35 satid=81 freq=-5000 acq ok!
$GNGGA,075433.972,,,,,0,00,,,M,,,,0000*21
$GNRMC,075433.972,A,,,,,,,090180,,*2C
$GPGSA,A,1,,,,,,,,,,,,,,,*1E
$BDGSA,A,1,,,,,,,,,,,,,,,*0F
$GLGSA,A,1,,,,,,,,,,,,,,,*02
$GPGSV,2,1,08,01,00,000,45,07,00,000,44,08,00,000,40,11,00,000,44*79
$GPGSV,2,2,08,18,00,000,43,22,00,000,37,28,00,000,43,30,00,000,45*74
$BDGSV,2,1,06,01,00,000,40,04,00,000,40,07,00,000,43,08,00,000,42*66
$BDGSV,2,2,06,10,00,000,43,13,00,000,42*6C
$B3CN0,0,0,0,0,0,0,0,0,0,0,0,0,0,0*4C
---00000008--- Acq_st=3 0  2000-1-1 0:0:55 
[00]  00(G01)  f 45  7  0   -756.0  2046000.9  0.0  2 0 2702 4275 2211
[01]  06(G07)  f 44  7  0   1335.3  2045998.2  0.0  2 0 2560 3345 1145
[02]  07(G08)  f 40  7  0   1458.6  2045998.1 -0.1  2 0 1064  982  434
[03]  10(G11)  f 44  7  0    431.0  2045999.4 -0.0  2 0 2471 3409 1731
[04]  17(G18)  f 43 22  0    996.3  2045998.7  0.1  2 0 1383 2717 1541
[05]  21(G22)  7 37  7  0  -2731.8  2046003.4 -0.0  2 0 1448 1319  462
[06]  27(G28)  f 43  7  0  -2920.8  2046003.7 -0.0  2 0 2063 3157 1755
[08]  29(G30)  f 46 11  0   -798.7  2046001.0 -0.0  2 0 3249 4644 1667
[16]  37(B01) 1f 40 16  0  -1083.9  4092002.8  0.2  2 0 1077 1198  716
[17]  38(B02)  7 10 10  1  -2761.6  4092007.3 -0.0  2 0  404  460  370
[19]  40(B04) 1f 40 22  0  -1102.7  4092002.7  0.5  2 0  828 1117  490
[21]  43(B07) 1f 43  7  0  -1207.7  4092003.0  0.0  2 0 1498 1526  623
[22]  44(B08) 1f 42  9  0  -1482.3  4092003.8  0.1  2 0 2032 2433  642
[24]  46(B10) 1f 43 10  0  -1525.1  4092003.9 -0.1  2 0 1747 2751 1602
[25]  49(B13) 1f 42  7  0  -1975.8  4092005.0  0.0  2 0 1586 2061  744
[26]  65(B29)  1  7  7  0  -2428.9  4092006.1  0.3  1 0 1420 2593 1241
[27]  66(B30)  1  7  7  0    133.4  4091999.4 -0.1  1 0 2585 3721 1569
[32]  77(N-4)  1 27  7  0  -3250.0  1022003.4 -0.0  1 0  1116 2010 1199
[33]  78(N-3)  1  7  7  0   2250.0  1021999.0 -0.0  1 0  1012 1820 1103
[34]  79(N-2)  1 24 22  0      0.0  1022002.7 -0.1  1 0   266  625 1883
[35]  81(N00)  1  7 21  0  -5000.0  1022004.8 -0.0  1 0   242  214  587
[48]  37(B01)  1 13 10  0   -657.1 20460021.9  0.2  1 0  206  273  372
[51]  40(B04)  1 25 13  1  -1058.6 20460019.8  0.0  1 0  651  671  618
ch36 satid=83 freq=1000 acq ok!
$GNGGA,075434.972,,,,,0,00,,,M,,,,0000*26
$GNRMC,075434.972,A,,,,,,,090180,,*2B
$GPGSA,A,1,,,,,,,,,,,,,,,*1E
$BDGSA,A,1,,,,,,,,,,,,,,,*0F
$GLGSA,A,1,,,,,,,,,,,,,,,*02
$GPGSV,2,1,08,01,00,000,45,07,00,000,44,08,00,000,40,11,00,000,44*79
$GPGSV,2,2,08,18,00,000,43,22,00,000,37,28,00,000,43,30,00,000,46*77
$BDGSV,2,1,06,01,00,000,40,04,00,000,40,07,00,000,43,08,00,000,42*66
$BDGSV,2,2,06,10,00,000,43,13,00,000,42*6C
$B3CN0,0,0,0,0,0,0,0,0,0,0,0,0,0,0*4C
---00000009--- Acq_st=7 0  2000-1-1 0:0:56 
[00]  00(G01)  f 45  7  0   -754.0  2046000.9 -0.0  2 0 2811 4258 1633
[01]  06(G07)  f 44  8  0   1337.7  2045998.2 -0.0  2 0 2175 3573 1805
[02]  07(G08)  f 40  7  0   1463.9  2045998.1  0.2  2 0  899 1588  599
[03]  10(G11)  f 43  7  0    431.6  2045999.4 -0.0  2 0 1515 3067 1636
[04]  17(G18)  f 43 22  0   1001.4  2045998.7 -0.0  2 0 1806 2508 1086
[05]  21(G22)  7 37  7  0  -2735.9  2046003.5  0.2  2 0  744 1854  753
[06]  27(G28)  f 43  7  0  -2919.4  2046003.7  0.0  2 0 2031 2627 1018
[08]  29(G30)  f 45  7  0   -795.2  2046001.0 -0.0  2 0 2937 4695 2311
[16]  37(B01) 1f 40 19  0  -1082.7  4092002.7 -0.3  2 0 1097 1260  509
[19]  40(B04) 1f 40 27  0  -1096.0  4092002.8  0.3  2 0  888  949  284
[21]  43(B07) 1f 43  7  0  -1202.4  4092003.0 -0.0  2 0 1787 2226 1320
[22]  44(B08) 1f 43  7  0  -1480.5  4092003.8 -0.0  2 0 1688 2321  676
[24]  46(B10) 1f 42  7  0  -1522.0  4092003.9  0.0  2 0 1583 1947  711
[25]  49(B13) 1f 42  7  0  -1968.1  4092005.0 -0.1  2 0 1138 2082  974
[26]  65(B29)  7 31  7  0  -2426.6  4092006.3  0.2  5 0 1592 2714 1377
[27]  66(B30)  7 30  7  0    139.0  4091999.6 -0.1  5 0 2154 2963 1046
[32]  77(N-4)  1 18  7  0  -3265.3  1022002.0  0.9  1 0  1310 2386 1052
[33]  78(N-3)  1 26  7  0   2387.4  1021998.4  1.0  1 0  1354 1999  806
[34]  79(N-2)  1 25 23  0    -15.3  1022000.1  1.0  1 0  1354 1351  324
[35]  81(N00)  1 26  9  0  -5129.5  1022005.0  0.9  1 0   658  829  429
[36]  83(N02)  1 26 20  0   1004.0  1021999.4  0.8  1 0  1037 1425  432
[48]  37(B01)  1 21 18  1  -1067.1 20460026.6 -0.0  1 0  206  441  559
[51]  40(B04)  1 19 24  0  -1596.2 20460021.1  0.0  1 0  821   82  491
[53]  43(B07)  1  7  7  0  -1121.0 20460015.8 -0.2  1 0  193  382  502
[54]  44(B08)  1  7  7  0  -1543.9 20460022.7 -0.0  1 0  494  194   60
[56]  46(B10)  1  7  7  0   -843.0 20460024.8 -0.0  1 0  624  785  312
[57]  49(B13)  1 16  7  0  -1599.8 20460030.4 -0.1  1 0  187  408  304
$GNGGA,075435.972,,,,,0,00,,,M,,,,0000*27
$GNRMC,075435.972,A,,,,,,,090180,,*2A
$GPGSA,A,1,,,,,,,,,,,,,,,*1E
$BDGSA,A,1,,,,,,,,,,,,,,,*0F
$GLGSA,A,1,,,,,,,,,,,,,,,*02
$GPGSV,2,1,08,01,00,000,45,07,00,000,44,08,00,000,40,11,00,000,43*7E
$GPGSV,2,2,08,18,00,000,42,22,00,000,37,28,00,000,43,30,00,000,46*76
$BDGSV,2,1,08,01,00,000,41,04,00,000,41,07,00,000,42,08,00,000,42*69
$BDGSV,2,2,08,10,00,000,43,13,00,000,42,29,00,000,44,30,00,000,45*6B
$B3CN0,0,0,0,0,0,0,0,0,0,0,0,0,0,0*4C
---00000010--- Acq_st=7 0  2000-1-1 0:0:57 
[00]  00(G01)  f 45  7  0   -752.3  2046000.9 -0.1  2 0 2824 4102 1934
[01]  06(G07)  f 44 12  0   1338.0  2045998.2 -0.0  2 0 2040 3138 1443
[02]  07(G08)  f 40 12  0   1465.1  2045998.1 -0.1  2 0 1240 1687  922
[03]  10(G11)  f 43  7  0    434.0  2045999.4 -0.0  2 0 2081 2773  947
[04]  17(G18)  f 42 22  0   1004.3  2045998.7 -0.0  2 0 1727 2684 1275
[05]  21(G22)  7 37  7  0  -2737.4  2046003.4  0.2  2 0  578  809  296
[06]  27(G28)  f 43 13  0  -2916.9  2046003.7  0.0  2 0 2033 2847 1309
[08]  29(G30)  f 46  7  0   -791.7  2046001.0 -0.0  2 0 3206 4893 2027
[16]  37(B01) 1f 41 25  0  -1080.6  4092002.7 -0.4  2 0  960 1150  769
[19]  40(B04) 1f 40 10  0  -1099.0  4092002.8 -0.7  2 0 1177 1152  596
[21]  43(B07) 1f 42  7  0  -1201.0  4092003.0  0.0  2 0 1990 2499 1250
[22]  44(B08) 1f 42  7  0  -1477.9  4092003.7  0.0  2 0 2070 2900 1226
[24]  46(B10) 1f 43  7  0  -1523.2  4092003.9 -0.1  2 0 2064 2551  794
[25]  49(B13) 1f 42  7  0  -1965.8  4092005.0  0.1  2 0 1179 1220  343
[26]  65(B29)  7 44  7  0  -2421.7  4092006.3 -0.1  2 0 2200 2913 1317
[27]  66(B30)  7 45  7  0    141.9  4091999.5 -0.0  2 0 2057 3284 1128
[32]  77(N-4)  1 29  7  0  -3263.6  1022001.9  1.0  1 0  1329 2061  918
[33]  78(N-3)  1 27  7  0   2388.1  1021998.4  1.0  1 0   996 2181  969
[34]  79(N-2)  1 29 21  0    -13.3  1021999.8  1.0  1 0  1218 1698  800
[35]  81(N00)  7 40 12  0  -5126.5  1022003.3  0.9  2 0   515  686  524
[36]  83(N02)  7 34 21  0   1006.4  1021999.3  0.2  5 0   943 1531  812
[48]  37(B01)  1 19 23  0  -1203.0 20460018.9  0.0  1 0  697  488  100
[51]  40(B04)  1 17 19  1  -1983.0 20460021.6 -0.2  1 0  158  445  462
[53]  43(B07)  1  7  7  0  -1447.0 20460019.1  0.0  1 0  343  472  637
[54]  44(B08)  1  7  7  0  -1393.0 20460021.6 -0.1  1 0  253  204  765
[56]  46(B10)  1  7  7  0   -460.9 20460023.6  0.0  1 0  577  427  649
[57]  49(B13)  1  7  7  0  -2215.4 20460031.2  0.1  1 0  581  490  325
$GNGGA,075436.972,,,,,0,00,,,M,,,,0000*24
$GNRMC,075436.972,A,,,,,,,090180,,*29
$GPGSA,A,1,,,,,,,,,,,,,,,*1E
$BDGSA,A,1,,,,,,,,,,,,,,,*0F
$GLGSA,A,1,,,,,,,,,,,,,,,*02
$GPGSV,2,1,08,01,00,000,46,07,00,000,44,08,00,000,39,11,00,000,43*73
$GPGSV,2,2,08,18,00,000,43,22,00,000,38,28,00,000,42,30,00,000,45*7A
$BDGSV,2,1,08,01,00,000,41,04,00,000,39,07,00,000,43,08,00,000,42*67
$BDGSV,2,2,08,10,00,000,43,13,00,000,42,29,00,000,43,30,00,000,44*6D
$B3CN0,0,0,0,0,0,0,0,0,0,0,0,0,0,0*4C
---00000011--- Acq_st=3 0  2000-1-1 0:0:58 
[00]  00(G01)  f 46  7  0   -754.7  2046000.9  0.0  2 0 2322 4441 2528
[01]  06(G07)  f 44  7  0   1334.6  2045998.2 -0.0  2 0 2192 3599 2220
[02]  07(G08)  f 39  7  0   1461.2  2045998.0  0.1  2 0  966 1125  438
[03]  10(G11)  f 43  7  0    427.1  2045999.4  0.0  2 0 2007 2719 1463
[04]  17(G18)  f 43 21  0   1003.1  2045998.6  0.0  2 0 1420 2244 1378
[05]  21(G22)  7 38 10  0  -2734.7  2046003.5 -0.5  2 0  552 1438  600
[06]  27(G28)  f 42  7  0  -2922.2  2046003.7 -0.1  2 0 2042 2722 1556
[08]  29(G30)  f 45  8  0   -794.2  2046001.0 -0.0  2 0 2599 4442 2188
[09]  12(G13)  1  7  7  0  -1000.0  2046002.3 -0.0  1 0  357  693  718
[16]  37(B01) 1f 41 36  0  -1091.1  4092002.7  0.0  2 0  978 1458  383
[19]  40(B04) 1f 39 23  0  -1099.5  4092002.9 -0.7  2 0  609 1050  449
[21]  43(B07) 1f 43  7  0  -1202.2  4092003.0 -0.0  2 0 1293 1749  964
[22]  44(B08) 1f 42  7  0  -1479.5  4092003.7 -0.1  2 0 1481 2096  796
[24]  46(B10) 1f 43  7  0  -1524.6  4092003.9  0.0  2 0 1562 2041  829
[25]  49(B13) 1f 41  7  0  -1971.2  4092005.0  0.1  2 0 1681 1788  802
[26]  65(B29)  7 43  7  0  -2425.4  4092006.3 -0.0  2 0 1873 2573 1236
[27]  66(B30)  7 44  7  0    137.2  4091999.5  0.0  2 0 2104 3092 1380
[32]  77(N-4)  7 47  7  0  -3264.9  1022002.0 -0.0  2 0  1139 1806 1037
[33]  78(N-3)  7 46  7  0   2386.7  1021998.4 -0.0  2 0  1030 1812  841
[34]  79(N-2)  7 45 19  0    -14.2  1021999.9  0.1  2 0  1074 1729  876
[35]  81(N00)  7 40 14  0  -5130.8  1022003.2  0.9  2 0   352 1007  735
[36]  83(N02)  7 44 21  0   1005.5  1021999.3  0.1  2 0   947 1741  505
[53]  43(B07)  1  7  7  0  -1607.4 20460018.6  0.0  1 0   51  535  727
[54]  44(B08)  1  7  7  0  -1104.8 20460023.4  0.1  1 0  256  534  776
[56]  46(B10)  1  7  7  0   -564.6 20460025.8  0.0  1 0  369 1098  911
[57]  49(B13)  1  7  7  0  -2467.3 20460029.4  0.1  1 0  225  315   88
---00000012--- Acq_st=3 0  2000-1-1 0:0:59 
[00]  00(G01)  f 45  7  0   -753.9  2046000.9 -0.0  2 0 2347 3749 1601
[01]  06(G07)  f 45 12  0   1336.5  2045998.2  0.0  2 0 2795 3521 2089
[02]  07(G08)  f 40  7  0   1460.1  2045998.0 -0.2  2 0 1170 1885 1256
[03]  10(G11)  f 44  7  0    431.2  2045999.4 -0.1  2 0 1798 3582 1993
[04]  17(G18)  f 44 21  0    999.3  2045998.6 -0.0  2 0 1862 3426 1874
[05]  21(G22)  f 37  8  0  -2734.4  2046003.5  0.2  2 0 1346 1732  664
[06]  27(G28)  f 42  7  0  -2918.7  2046003.7  0.1  2 0 2387 2963 1477
[08]  29(G30)  f 46  7  0   -795.3  2046001.0 -0.0  2 0 2940 4746 2318
[09]  12(G13)  1 27 17  0   -847.7  2046001.7  0.6  1 0 1147 1235  451
[10]  16(G17)  1  7  7  0  -2318.1  2046003.6  0.1  1 0  281  688  507
[16]  37(B01) 1f 40 18  0  -1085.2  4092002.7  0.1  2 0 1610 2111  984
[19]  40(B04) 1f 39 22  0  -1101.8  4092002.7  0.1  2 0 1560 1756  641
[21]  43(B07) 1f 43  7  0  -1204.2  4092003.0  0.0  2 0 1622 2247 1070
[22]  44(B08) 1f 42  7  0  -1480.0  4092003.7  0.0  2 0 1589 2219 1083
[24]  46(B10) 1f 42  7  0  -1523.5  4092003.8 -0.1  2 0 1405 2113  790
[25]  49(B13) 1f 42  7  0  -1970.3  4092005.0  0.0  2 0 1133 1809  649
[26]  65(B29)  7 43  7  0  -2425.2  4092006.3  0.0  2 0 1407 2419 1523
[27]  66(B30)  7 45  7  0    139.8  4091999.5  0.0  2 0 2357 3423 1408
[32]  77(N-4)  7 46  7  0  -3263.8  1022002.0  0.0  2 0  1089 2069 1019
[33]  78(N-3)  7 45  7  0   2387.4  1021998.5  0.1  2 0  1175 1922  935
[34]  79(N-2)  7 46 27  0    -14.0  1022000.0 -0.1  2 0   883 1774 1380
[35]  81(N00)  7 39  7  0  -5131.2  1022003.2 -0.3  2 0   533  829  477
[36]  83(N02)  7 44 18  0   1004.2  1021999.3 -0.0  2 0  1098 1809  660
[48]  37(B01)  1 21 10  0   -679.7 20460018.1 -0.2  1 0  433  179  121
[51]  40(B04)  1 26 10  0  -1159.1 20460018.4 -0.1  1 0  362  784  839
[53]  43(B07)  1  7  7  0  -1627.1 20460017.7  0.0  1 0  361  289  622
[54]  44(B08)  1  7  7  0   -269.2 20460020.3 -0.1  1 0  313  137  590
[56]  46(B10)  1  7  7  0  -1274.4 20460025.8 -0.0  1 0  563  715  226
[57]  49(B13)  1  7  7  0  -2381.7 20460032.0  0.1  1 0  448  233  353
$GNGGA,075437.972,,,,,0,00,,,M,,,,0000*25
$GNRMC,075437.972,A,,,,,,,090180,,*28
$GPGSA,A,1,,,,,,,,,,,,,,,*1E
$BDGSA,A,1,,,,,,,,,,,,,,,*0F
$GLGSA,A,1,,,,,,,,,,,,,,,*02
$GPGSV,2,1,08,01,00,000,45,07,00,000,45,08,00,000,40,11,00,000,44*78
$GPGSV,2,2,08,18,00,000,44,22,00,000,37,28,00,000,42,30,00,000,46*71
$BDGSV,2,1,08,01,00,000,40,04,00,000,39,07,00,000,43,08,00,000,42*66
$BDGSV,2,2,08,10,00,000,42,13,00,000,42,29,00,000,43,30,00,000,45*6D
$B3CN0,0,0,0,0,0,0,0,0,0,0,0,0,0,0*4C
ch18 satid=39 freq=-1250 acq ok!
---00000013--- Acq_st=3 0  2000-1-1 0:1:0 
[00]  00(G01)  f 45  7  0   -754.2  2046000.9  0.0  2 0 2014 3967 2559
[01]  06(G07)  f 45  7  0   1336.1  2045998.2  0.0  2 0 2104 3233 1619
[02]  07(G08)  f 39  7  0   1460.8  2045998.0 -0.0  2 0  857 1387  775
[03]  10(G11)  f 43  7  0    434.4  2045999.4  0.0  2 0 1950 3711 1849
[04]  17(G18)  f 43 21  0   1002.6  2045998.7  0.0  2 0 2099 3050 1165
[05]  21(G22)  f 38  7  0  -2730.9  2046003.5 -0.3  2 0  983 1315  328
[06]  27(G28)  f 43  7  0  -2920.9  2046003.7 -0.0  2 0 1598 2519 1090
[08]  29(G30)  f 46  7  0   -792.7  2046001.0 -0.0  2 0 3051 5269 2617
[09]  12(G13)  7 29  7  0   -845.6  2046001.0  0.2 10 0 1400 1165  487
[10]  16(G17)  1  7  7  0  -2249.7  2046004.9 -0.0  1 0  509  374 1160
[16]  37(B01) 1f 40 10  0  -1083.0  4092002.7  0.2  2 0 2018 2413 1184
[17]  38(B02)  1 19 10  0   -794.3  4092001.1 -0.1  1 0  307  296  202
[18]  39(B03)  1 22 32  1  -1107.6  4092004.0  0.5  1 0  112  914 2027
[19]  40(B04) 1f 40 24  0  -1095.5  4092002.7  0.2  2 0 1116 1546  537
[20]  41(B05)  1 17 36  1  -1271.8  4092002.4  0.2  1 0  184  144  944
[21]  43(B07) 1f 43  7  0  -1201.0  4092003.0  0.0  2 0 1602 2168  833
[22]  44(B08) 1f 42  7  0  -1482.5  4092003.8 -0.0  2 0 1948 1822  561
[24]  46(B10) 1f 43 13  0  -1524.9  4092003.9  0.0  2 0 1544 2093 1151
[25]  49(B13) 1f 42  7  0  -1971.0  4092005.0  0.0  2 0 2013 2334  835
[26]  65(B29)  7 43  7  0  -2422.8  4092006.3 -0.0  2 0 2038 2789 1051
[27]  66(B30)  7 44  7  0    141.0  4091999.5 -0.0  2 0 2174 3417 1893
[32]  77(N-4)  7 46  7  0  -3261.8  1022002.1 -0.1  2 0  1091 2080  938
[33]  78(N-3)  7 46 12  0   2388.5  1021998.4  0.1  2 0  1164 1966 1068
[34]  79(N-2)  7 46 29  0    -10.8  1022000.0 -0.0  2 0  1116 1761  906
[35]  81(N00)  f 35  7  0  -5129.1  1022003.3  0.2  2 0   382  589  248
[36]  83(N02)  f 37  7  0   1007.8  1021999.3 -0.1  2 0   953 1409  728
[48]  37(B01)  7 10 10  0   -717.9 20460010.6  0.0  2 0  274  628  389
[51]  40(B04)  1 14 21  0  -1287.8 20460021.2  0.0  1 0  336   46  575
$GNGGA,075438.972,,,,,0,00,,,M,,,,0000*2A
$GNRMC,075438.972,A,,,,,,,090180,,*27
$GPGSA,A,1,,,,,,,,,,,,,,,*1E
$BDGSA,A,1,,,,,,,,,,,,,,,*0F
$GLGSA,A,1,,,,,,,,,,,,,,,*02
$GPGSV,3,1,09,01,00,000,45,07,00,000,45,08,00,000,39,11,00,000,43*71
$GPGSV,3,2,09,18,00,000,43,22,00,000,38,28,00,000,43,30,00,000,46*78
$GPGSV,3,3,09,13,00,000,29*49
$BDGSV,2,1,08,01,00,000,40,04,00,000,40,07,00,000,43,08,00,000,42*68
$BDGSV,2,2,08,10,00,000,43,13,00,000,42,29,00,000,43,30,00,000,44*6D
$B3CN0,0,0,0,0,0,0,0,0,0,0,0,0,0,0*4C
---00000014--- Acq_st=3 0  2000-1-1 0:1:1 
[00]  00(G01)  f 45  7  0   -750.5  2046000.9  0.0  2 0 3058 4381 2300
[01]  06(G07)  f 44  7  0   1336.0  2045998.2 -0.0  2 0 2089 3491 1771
[02]  07(G08)  f 39  7  0   1458.5  2045998.1  0.1  2 0  968 1787  876
[03]  10(G11)  f 43  7  0    435.2  2045999.4 -0.0  2 0 1652 3331 2143
[04]  17(G18)  f 43 20  0   1002.6  2045998.6 -0.0  2 0 1450 2633 1516
[05]  21(G22)  f 38  7  0  -2735.1  2046003.5  0.2  2 0 1076 1182  700
[06]  27(G28)  f 44  7  0  -2920.0  2046003.7 -0.0  2 0 1716 3087 1473
[08]  29(G30)  f 46  7  0   -791.9  2046001.0  0.0  2 0 3188 4847 1817
[09]  12(G13)  7 36  7  0   -846.1  2046001.0  0.2  2 0  667 1402  996
[10]  16(G17)  1  7  8  0  -2060.8  2046004.6  0.1  1 0  636  362  244
[16]  37(B01) 1f 40 24  0  -1082.2  4092002.7  0.6  2 0 1143 1215  647
[17]  38(B02)  1 20 25  0   -993.7  4092001.7 -0.1  1 0  451  482  498
[18]  39(B03)  7 39 32  0  -1098.5  4092002.5 -0.0  2 0 1747 1743  817
[19]  40(B04) 1f 40 18  0  -1096.1  4092002.8 -0.8  2 0 1010 1034  404
[20]  41(B05)  1 37 25  0  -1134.6  4092004.5  0.9  1 0 1014 1189  532
[21]  43(B07) 1f 43  7  0  -1196.2  4092003.0 -0.1  2 0 1748 2447 1184
[22]  44(B08) 1f 43  7  0  -1481.2  4092003.8  0.1  2 0 1514 2451 1155
[24]  46(B10) 1f 43  8  0  -1520.5  4092003.9  0.0  2 0  949 2234 1221
[25]  49(B13) 1f 42 11  0  -1971.3  4092005.0  0.0  2 0 1476 1912  980
[26]  65(B29) 1f 43  7  0  -2422.9  4092006.2  0.0  2 0 2402 3134 1126
[27]  66(B30) 1f 45  7  0    142.3  4091999.5  0.0  2 0 2255 3256 1629
[32]  77(N-4)  7 47  7  0  -3260.8  1022002.1 -0.0  2 0  1616 2300 1212
[33]  78(N-3)  7 46  7  0   2389.7  1021998.5 -0.1  2 0  1017 1689  723
[34]  79(N-2)  7 45 25  0    -10.8  1021999.9 -0.0  2 0   735 2080  957
[35]  81(N00)  f 39  7  0  -5131.0  1022003.3  0.5  2 0   239  631  390
[36]  83(N02)  f 43  7  0   1010.2  1021999.3  0.0  2 0  1012 1498  514
[48]  37(B01)  7 10 20  0  -1081.1 20460017.7 -0.1  2 0  357  112  453
[51]  40(B04)  1 21 24  0  -1474.8 20460013.5 -0.0  1 0  804  676   54
[53]  43(B07)  1  7  7  0   -886.8 20460016.7  0.0  1 0  114  310  211
[54]  44(B08)  1  7  7  0  -1534.2 20460021.8 -0.1  1 0  337  232  144
[56]  46(B10)  1  7  7  0   -797.2 20460024.5 -0.0  1 0  121  330  188
[57]  49(B13)  1 14  7  0  -1544.1 20460029.2 -0.0  1 0  500  546  515
$GNGGA,075439.972,,,,,0,00,,,M,,,,0000*2B
$GNRMC,075439.972,A,,,,,,,090180,,*26
$GPGSA,A,1,,,,,,,,,,,,,,,*1E
$BDGSA,A,1,,,,,,,,,,,,,,,*0F
$GLGSA,A,1,,,,,,,,,,,,,,,*02
$GPGSV,3,1,09,01,00,000,45,07,00,000,44,08,00,000,39,11,00,000,43*70
$GPGSV,3,2,09,18,00,000,43,22,00,000,38,28,00,000,44,30,00,000,46*7F
$GPGSV,3,3,09,13,00,000,36*47
$BDGSV,3,1,09,01,00,000,40,03,00,000,39,04,00,000,40,07,00,000,43*6F
$BDGSV,3,2,09,08,00,000,43,10,00,000,43,13,00,000,42,29,00,000,43*61
$BDGSV,3,3,09,30,00,000,45*53
$B3CN0,0,0,0,0,0,0,0,0,0,0,0,0,0,0*4C
---00000015--- Acq_st=3 0  2000-1-1 0:1:2 
[00]  00(G01)  f 45  8  0   -755.1  2046000.9 -0.1  2 0 2339 3885 1675
[01]  06(G07)  f 44  8  0   1337.8  2045998.2 -0.0  2 0 2373 3633 1875
[02]  07(G08)  f 39  7  0   1459.2  2045998.0  0.0  2 0  819 1500  878
[03]  10(G11)  f 43  7  0    432.0  2045999.4  0.1  2 0 1892 2873 1409
[04]  17(G18)  f 43 22  0   1000.6  2045998.6 -0.0  2 0 2128 3325 1326
[05]  21(G22)  f 38  7  0  -2736.8  2046003.5  0.3  2 0 1087 1396  535
[06]  27(G28)  f 43  7  0  -2921.1  2046003.7 -0.1  2 0 1916 3123 1249
[08]  29(G30)  f 46  7  0   -791.5  2046001.0 -0.0  2 0 2983 4591 2252
[09]  12(G13)  7 36  7  0   -847.5  2046001.0 -0.4  2 0  531  837  389
[10]  16(G17)  1  7 11  0  -2115.5  2046003.0  0.1  1 0  964 1072  360
[16]  37(B01) 1f 41 10  0  -1081.8  4092002.8  0.2  2 0  988 1172  678
[17]  38(B02)  1 10 21  1   -803.1  4092002.3 -0.0  1 0  433   84  176
[18]  39(B03)  f 41 31  0  -1104.1  4092002.7 -0.7  2 0 1978 1783  697
[19]  40(B04) 1f 40 21  0  -1103.7  4092002.8  0.1  2 0 1071 1583  719
[20]  41(B05)  f 36 20  0  -1141.3  4092002.8 -0.8  2 0  898 1046  643
[21]  43(B07) 1f 43  7  0  -1205.1  4092003.1  0.0  2 0 1982 2397 1241
[22]  44(B08) 1f 43  7  0  -1483.8  4092003.8 -0.0  2 0 1506 2029  423
[24]  46(B10) 1f 43 11  0  -1525.8  4092003.9  0.0  2 0 1930 2448  871
[25]  49(B13) 1f 42  7  0  -1973.6  4092005.0  0.0  2 0 1836 2296 1267
[26]  65(B29) 1f 43  7  0  -2423.4  4092006.2  0.0  2 0 1826 2567 1296
[27]  66(B30) 1f 44  7  0    139.8  4091999.5 -0.0  2 0 3110 3512 1327
[32]  77(N-4)  f 37  7  0  -3261.9  1022002.0 -0.0  2 0  1193 2166  885
[33]  78(N-3)  f 37  7  0   2387.0  1021998.5  0.0  2 0  1027 1674  765
[34]  79(N-2)  f 37  7  0    -12.0  1022000.0  0.1  2 0   846 1622  955
[35]  81(N00)  f 38  7  0  -5131.9  1022003.3  0.4  2 0   460  778  373
[36]  83(N02)  f 43  7  0   1008.3  1021999.3 -0.0  2 0   735 1229  601
[48]  37(B01)  7 10 10  1  -1465.4 20460024.7  0.0  2 0  254  460  168
[51]  40(B04)  1 10 25  0  -1504.6 20460021.2 -0.0  1 0   76  454  251
[53]  43(B07)  1  7  7  0   -697.8 20460018.3  0.0  1 0  521  564  269
[54]  44(B08)  1  8  7  0  -1792.5 20460023.5 -0.1  1 0  298  556  265
[56]  46(B10)  1  7  7  0   -861.6 20460023.7  0.3  1 0  178  627  496
[57]  49(B13)  1  7  7  0  -1812.7 20460029.7  0.0  1 0  341  569  360
[58]  65(B29)  1  7  7  0  -2218.6 20460037.4  0.0  1 0  502  187  256
[59]  66(B30)  1  7  7  0     11.1 20459997.0  0.0  1 0  242  344  473
$GNGGA,075440.972,,,,,0,00,,,M,,,,0000*25
$GNRMC,075440.972,A,,,,,,,090180,,*28
$GPGSA,A,1,,,,,,,,,,,,,,,*1E
$BDGSA,A,1,,,,,,,,,,,,,,,*0F
$GLGSA,A,1,,,,,,,,,,,,,,,*02
$GPGSV,3,1,09,01,00,000,45,07,00,000,44,08,00,000,39,11,00,000,43*70
$GPGSV,3,2,09,18,00,000,43,22,00,000,38,28,00,000,43,30,00,000,46*78
$GPGSV,3,3,09,13,00,000,36*47
$BDGSV,3,1,10,01,00,000,41,03,00,000,41,04,00,000,40,05,00,000,36*69
$BDGSV,3,2,10,07,00,000,43,08,00,000,43,10,00,000,43,13,00,000,42*65
$BDGSV,3,3,10,29,00,000,43,30,00,000,44*66
$B3CN0,0,0,0,0,0,0,0,0,0,0,0,0,0,0*4C
---00000016--- Acq_st=3 0  2000-1-1 0:1:3 
[00]  00(G01)  f 45  7  0   -754.7  2046000.9  0.0  2 0 2174 4048 2292
[01]  06(G07)  f 44  7  0   1338.4  2045998.2  0.0  2 0 2024 2968 1321
[02]  07(G08)  f 40  7  0   1455.2  2045998.1  0.1  2 0  539 1418 1035
[03]  10(G11)  f 44  7  0    430.8  2045999.4 -0.0  2 0 1506 3437 1640
[04]  17(G18)  f 42 23  0    999.8  2045998.6  0.0  2 0 1225 2039 1002
[05]  21(G22)  f 37  7  0  -2740.1  2046003.5 -0.2  2 0  724 1051  675
[06]  27(G28)  f 43  7  0  -2921.1  2046003.7  0.1  2 0 1657 2628 1129
[08]  29(G30)  f 46  7  0   -792.4  2046001.0  0.1  2 0 3144 4798 2035
[09]  12(G13)  7 36  9  0   -851.2  2046001.1  0.3  2 0  387 1330  972
[16]  37(B01) 1f 40 36  0  -1087.1  4092002.7 -0.5  2 0 1187 1378  747
[17]  38(B02)  1 17 36  1    144.6  4092003.4 -0.0  1 0  288   15  639
[18]  39(B03) 1f 41 31  0  -1105.5  4092002.7 -0.1  2 0 1650 1780  711
[19]  40(B04) 1f 38 24  0  -1101.4  4092002.7 -0.6  2 0  660 1012  343
[20]  41(B05) 1f 37 24  0  -1147.4  4092002.8  0.6  2 0  968  769  467
[21]  43(B07) 1f 43  7  0  -1203.1  4092003.0  0.0  2 0 1942 2124  629
[22]  44(B08) 1f 43  7  0  -1484.3  4092003.8  0.0  2 0 1793 2250  999
[24]  46(B10) 1f 43  9  0  -1526.6  4092003.9 -0.0  2 0 2253 2535 1282
[25]  49(B13) 1f 42  7  0  -1971.0  4092005.0 -0.0  2 0 1363 2030 1088
[26]  65(B29) 1f 43  7  0  -2425.4  4092006.2  0.0  2 0 2075 2796 1163
[27]  66(B30) 1f 44  7  0    138.2  4091999.5  0.0  2 0 2704 3190 1269
[32]  77(N-4)  f 45  7  0  -3262.9  1022002.1 -0.1  2 0  1332 2150  900
[33]  78(N-3)  f 45  7  0   2385.9  1021998.4 -0.1  2 0  1110 2092 1121
[34]  79(N-2)  f 45  7  0    -12.2  1022000.0 -0.0  2 0  1205 2120 1141
[35]  81(N00)  f 39  7  0  -5132.6  1022003.2  0.2  2 0   374  916  346
[36]  83(N02)  f 43  7  0   1006.5  1021999.3  0.0  2 0  1183 1787  913
[48]  37(B01)  7 10 10  1  -1728.4 20460029.3  0.1  2 0  385  307  182
[50]  39(B03)  1 23 17  1   -936.0 20460023.8  0.0  1 0  717  528  395
[52]  41(B05)  1 13 23  1  -1070.1 20460015.3  0.0  1 0  246  484  757
[53]  43(B07)  1  7  8  0   -500.0 20460017.8 -0.0  1 0  348  445  761
[54]  44(B08)  1  7  8  0  -1270.8 20460021.9 -0.0  1 0  304  379  352
[56]  46(B10)  1  7  7  0   -591.9 20460022.8  0.2  1 0  599  551  419
[57]  49(B13)  1  7  7  0  -2178.4 20460031.5 -0.1  1 0  166  304  371
[58]  65(B29)  1  7  7  0  -1985.2 20460039.6  0.1  1 0  441  119  375
[59]  66(B30)  1  7  7  0   -566.3 20459999.7  0.2  1 0  110  533  307
$GNGGA,075441.972,,,,,0,00,,,M,,,,0000*24
$GNRMC,075441.972,A,,,,,,,090180,,*29
$GPGSA,A,1,,,,,,,,,,,,,,,*1E
$BDGSA,A,1,,,,,,,,,,,,,,,*0F
$GLGSA,A,1,,,,,,,,,,,,,,,*02
$GPGSV,3,1,09,01,00,000,45,07,00,000,44,08,00,000,40,11,00,000,44*79
$GPGSV,3,2,09,18,00,000,42,22,00,000,37,28,00,000,43,30,00,000,46*76
$GPGSV,3,3,09,13,00,000,36*47
$BDGSV,3,1,10,01,00,000,40,03,00,000,41,04,00,000,38,05,00,000,37*66
$BDGSV,3,2,10,07,00,000,43,08,00,000,43,10,00,000,43,13,00,000,42*65
$BDGSV,3,3,10,29,00,000,43,30,00,000,44*66
$B3CN0,0,0,0,0,0,0,0,0,0,0,0,0,0,0*4C
---00000017--- Acq_st=7 0  2000-1-1 0:1:4 
[00]  00(G01)  f 45  7  0   -753.4  2046000.9  0.0  2 0 2289 3830 1499
[01]  06(G07)  f 44  7  0   1339.1  2045998.2  0.0  2 0 2811 3475 1139
[02]  07(G08)  f 39  7  0   1459.5  2045998.1  0.0  2 0  909 1611  732
[03]  10(G11)  f 44  7  0    433.9  2045999.4  0.0  2 0 1812 2598 1099
[04]  17(G18)  f 43 22  0   1003.3  2045998.6  0.1  2 0 2012 2755 1614
[05]  21(G22)  f 37  7  0  -2735.5  2046003.5 -0.3  2 0  867 1288   73
[06]  27(G28)  f 43 10  0  -2923.5  2046003.7  0.0  2 0 1316 2017 1263
[08]  29(G30)  f 45  7  0   -792.1  2046001.0 -0.0  2 0 3565 4814 1960
[09]  12(G13)  7 36  7  0   -845.6  2046001.1  0.3  2 0  224 1007 1095
[16]  37(B01) 1f 41 21  0  -1086.2  4092002.7  0.4  2 0  498 1252  614
[18]  39(B03) 1f 42 31  0  -1101.1  4092002.6  0.1  2 0 1329 1836 1107
[19]  40(B04) 1f 40 19  0  -1099.2  4092002.7 -0.4  2 0 1004 1444  776
[20]  41(B05) 1f 36 22  0  -1142.7  4092002.8  0.7  2 0  989 1472  617
[21]  43(B07) 1f 43  7  0  -1207.0  4092003.0 -0.0  2 0 2120 2460  945
[22]  44(B08) 1f 43  7  0  -1482.3  4092003.8  0.0  2 0 1791 2659 1241
[24]  46(B10) 1f 43  7  0  -1527.9  4092003.9  0.0  2 0 1382 2210 1370
[25]  49(B13) 1f 42  7  0  -1973.5  4092005.1 -0.0  2 0 1257 1628  786
[26]  65(B29) 1f 44  7  0  -2425.0  4092006.2  0.0  2 0 2098 2732 1113
[27]  66(B30) 1f 45  7  0    136.0  4091999.5 -0.0  2 0 2261 3313 1741
[32]  77(N-4)  f 46  7  0  -3262.7  1022002.1 -0.0  2 0  1398 2264  979
[33]  78(N-3)  f 44  7  0   2386.7  1021998.5  0.0  2 0  1045 1598  759
[34]  79(N-2)  f 45 12  0    -12.5  1022000.0 -0.0  2 0  1104 1893  926
[35]  81(N00)  f 39  7  0  -5132.8  1022003.3  0.5  2 0   564  869  494
[36]  83(N02)  f 43  7  0   1007.3  1021999.3 -0.1  2 0   951 1560  527
[50]  39(B03)  1 23 10  1   -355.5 20460021.7 -0.0  1 0  453  680  239
[51]  40(B04)  1 20 18  1   -764.8 20460012.4 -0.1  1 0  698  386  385
[52]  41(B05)  1 22 22  0   -802.7 20460026.5 -0.1  1 0  352  391  861
[53]  43(B07)  1  7  9  0   -559.7 20460018.9 -0.0  1 0  782  143  181
[54]  44(B08)  1  7  7  0  -1713.8 20460021.3  0.0  1 0  568  370   25
[56]  46(B10)  1  7  7  0  -1035.0 20460023.2  0.1  1 0  285  733 1136
[57]  49(B13)  1  7  7  0  -2211.6 20460031.7  0.0  1 0  353  225  685
[58]  65(B29)  1  7  7  0  -2274.3 20460037.7  0.2  1 0  617  749  385
[59]  66(B30)  1  7  7  0   -950.2 20459997.7 -0.0  1 0  144  457  162
$GNGGA,075442.972,,,,,0,00,,,M,,,,0000*27
$GNRMC,075442.972,A,,,,,,,090180,,*2A
$GPGSA,A,1,,,,,,,,,,,,,,,*1E
$BDGSA,A,1,,,,,,,,,,,,,,,*0F
$GLGSA,A,1,,,,,,,,,,,,,,,*02
$GPGSV,3,1,09,01,00,000,45,07,00,000,44,08,00,000,39,11,00,000,44*77
$GPGSV,3,2,09,18,00,000,43,22,00,000,37,28,00,000,43,30,00,000,45*74
$GPGSV,3,3,09,13,00,000,36*47
$BDGSV,3,1,10,01,00,000,41,03,00,000,42,04,00,000,40,05,00,000,36*6A
$BDGSV,3,2,10,07,00,000,43,08,00,000,43,10,00,000,43,13,00,000,42*65
$BDGSV,3,3,10,29,00,000,44,30,00,000,45*60
$B3CN0,0,0,0,0,0,0,0,0,0,0,0,0,0,0*4C
---00000018--- Acq_st=7 0  2000-1-1 0:1:5 
[00]  00(G01)  f 45 12  0   -750.9  2046000.9 -0.0  2 0 3009 4332 1856
[01]  06(G07)  f 44  7  0   1339.6  2045998.2 -0.1  2 0 2215 3733 2201
[02]  07(G08)  f 39  7  0   1463.1  2045998.0 -0.1  2 0  706 1447  779
[03]  10(G11)  f 44  9  0    434.0  2045999.4  0.0  2 0 2136 3184 1076
[04]  17(G18)  f 43 23  0   1004.4  2045998.7 -0.0  2 0 1594 2340 1092
[05]  21(G22)  f 37  7  0  -2733.0  2046003.5  0.1  2 0  999 1634  855
[06]  27(G28)  f 44 11  0  -2919.5  2046003.7 -0.1  2 0 1403 2759 1363
[08]  29(G30)  f 45  7  0   -790.7  2046001.0  0.0  2 0 2795 4751 2098
[09]  12(G13)  f 36  7  0   -845.5  2046001.0 -0.5  2 0   94  583  891
[16]  37(B01) 1f 40 20  0  -1089.3  4092002.7  0.3  2 0 1255 1523  627
[18]  39(B03) 1f 43 31  0  -1100.9  4092002.6 -0.1  2 0 1740 2106  947
[19]  40(B04) 1f 40 25  0  -1101.7  4092002.8 -0.4  2 0 1272 1389  515
[20]  41(B05) 1f 37 27  0  -1136.3  4092002.9 -0.3  2 0  738  833  248
[21]  43(B07) 1f 43  7  0  -1202.3  4092003.0  0.0  2 0 1696 1970  950
[22]  44(B08) 1f 43 10  0  -1481.0  4092003.8 -0.0  2 0 1626 1991  867
[24]  46(B10) 1f 43  8  0  -1526.4  4092003.9  0.0  2 0 1318 1958  722
[25]  49(B13) 1f 42  7  0  -1969.2  4092005.0  0.0  2 0 1525 1847 1093
[26]  65(B29) 1f 43  7  0  -2423.3  4092006.2  0.1  2 0 2011 2730 1224
[27]  66(B30) 1f 45  7  0    141.0  4091999.5 -0.0  2 0 2532 3089  990
[32]  77(N-4)  f 46  7  0  -3261.2  1022002.0 -0.0  2 0  1147 2183 1107
[33]  78(N-3)  f 44  7  0   2387.5  1021998.5  0.1  2 0  1031 1772  857
[34]  79(N-2)  f 45  7  0     -9.6  1022000.0 -0.0  2 0   942 1838  967
[35]  81(N00)  f 39  7  0  -5131.3  1022003.2  0.4  2 0   690  961  219
[36]  83(N02)  f 43  7  0   1009.3  1021999.3  0.1  2 0   996 1537  852
[48]  37(B01)  1 10 10  0   -860.1 20460021.5  0.1  1 0  460  419  810
[50]  39(B03)  1 17 22  1   -213.2 20460021.5  0.1  1 0  225  479  624
[51]  40(B04)  1 13 20  0   -689.8 20460020.2 -0.1  1 0  639  271  612
[52]  41(B05)  1 25 25  0  -1158.6 20460018.1 -0.0  1 0  313  287  134
[58]  65(B29)  1  7  7  0  -2673.2 20460040.4 -0.1  1 0  465  154  221
[59]  66(B30)  1  7  7  0  -1734.3 20459998.9  0.0  1 0  341  230  177
$GNGGA,075443.972,,,,,0,00,,,M,,,,0000*26
$GNRMC,075443.972,A,,,,,,,090180,,*2B
$GPGSA,A,1,,,,,,,,,,,,,,,*1E
$BDGSA,A,1,,,,,,,,,,,,,,,*0F
$GLGSA,A,1,,,,,,,,,,,,,,,*02
$GPGSV,3,1,09,01,00,000,45,07,00,000,44,08,00,000,39,11,00,000,44*77
$GPGSV,3,2,09,18,00,000,43,22,00,000,37,28,00,000,44,30,00,000,45*73
$GPGSV,3,3,09,13,00,000,36*47
$BDGSV,3,1,10,01,00,000,40,03,00,000,43,04,00,000,40,05,00,000,37*6B
$BDGSV,3,2,10,07,00,000,43,08,00,000,43,10,00,000,43,13,00,000,42*65
$BDGSV,3,3,10,29,00,000,43,30,00,000,45*67
$B3CN0,0,0,0,0,0,0,0,0,0,0,0,0,0,0*4C
---00000019--- Acq_st=7 0  2000-1-1 0:1:6 
[00]  00(G01)  f 45  7  0   -749.2  2046000.9  0.0  2 0 2486 4292 2335
[01]  06(G07)  f 45  7  0   1343.1  2045998.2  0.0  2 0 2100 3470 2091
[02]  07(G08)  f 39  7  0   1455.1  2045998.0 -0.2  2 0  924 1179  624
[03]  10(G11)  f 43  7  0    437.7  2045999.4  0.0  2 0 1535 2669 1090
[04]  17(G18)  f 43 21  0   1003.9  2045998.6  0.0  2 0 2219 2634 1027
[05]  21(G22)  f 38  7  0  -2737.6  2046003.5 -0.1  2 0 1005 1146  461
[06]  27(G28)  f 43  7  0  -2921.0  2046003.7  0.0  2 0 1702 2478 1138
[08]  29(G30)  f 46  7  0   -788.5  2046001.0 -0.0  2 0 3363 5362 2523
[09]  12(G13)  f 37  7  0   -841.4  2046001.0 -0.1  2 0  500 1164  494
[16]  37(B01) 1f 41 18  0  -1086.8  4092002.7  0.4  2 0  889 1087   82
[18]  39(B03) 1f 42 31  0  -1102.7  4092002.7 -0.2  2 0 1710 1723  326
[19]  40(B04) 1f 39 20  0  -1100.8  4092002.7  0.6  2 0 1136 1394  698
[20]  41(B05) 1f 38 22  0  -1137.7  4092002.8  0.9  2 0  950  871  397
[21]  43(B07) 1f 43  7  0  -1199.7  4092003.0  0.0  2 0 1714 2539  858
[22]  44(B08) 1f 43  7  0  -1480.8  4092003.7  0.1  2 0 1881 2496  869
[24]  46(B10) 1f 43  8  0  -1525.0  4092003.9 -0.0  2 0 1941 2298  956
[25]  49(B13) 1f 42  7  0  -1969.5  4092005.0  0.0  2 0 1441 1839  902
[26]  65(B29) 1f 43  7  0  -2419.0  4092006.2 -0.0  2 0 2166 3014 1275
[27]  66(B30) 1f 45  7  0    143.8  4091999.5  0.0  2 0 2161 3414 1715
[32]  77(N-4)  f 46  7  0  -3259.5  1022002.0 -0.0  2 0   970 1739 1009
[33]  78(N-3)  f 44  7  0   2389.6  1021998.4 -0.1  2 0  1466 1755  645
[34]  79(N-2)  f 45  7  0     -8.5  1022000.0 -0.1  2 0   976 1591  733
[35]  81(N00)  f 39  7  0  -5129.7  1022003.2 -0.4  2 0   147  546  411
[36]  83(N02)  f 44  7  0   1012.3  1021999.3 -0.0  2 0  1045 1782  949
[48]  37(B01)  7 10 10  0  -1419.7 20460020.5  0.0  2 0  561  489   96
[50]  39(B03)  1 10 10  1    -27.8 20460017.5  0.0  1 0  670  502  100
[51]  40(B04)  1 22 20  0      2.1 20460016.9 -0.1  1 0  238  347  351
[52]  41(B05)  1 22 24  0  -1131.1 20460022.7  0.1  1 0  585  613  768
[53]  43(B07)  1  7  7  0  -1266.5 20460017.2 -0.2  1 0  355  586  226
[54]  44(B08)  1  7  8  0  -1037.8 20460023.1 -0.0  1 0  549  814  806
[56]  46(B10)  1  7  7  0   -907.8 20460024.7  0.1  1 0   76  365  428
[57]  49(B13)  1  7  7  0  -1644.7 20460031.9  0.1  1 0  518  409  483
$GNGGA,075444.972,,,,,0,00,,,M,,,,0000*21
$GNRMC,075444.972,A,,,,,,,090180,,*2C
$GPGSA,A,1,,,,,,,,,,,,,,,*1E
$BDGSA,A,1,,,,,,,,,,,,,,,*0F
$GLGSA,A,1,,,,,,,,,,,,,,,*02
$GPGSV,3,1,09,01,00,000,45,07,00,000,45,08,00,000,39,11,00,000,43*71
$GPGSV,3,2,09,18,00,000,43,22,00,000,38,28,00,000,43,30,00,000,46*78
$GPGSV,3,3,09,13,00,000,37*46
$BDGSV,3,1,10,01,00,000,41,03,00,000,42,04,00,000,39,05,00,000,38*6A
$BDGSV,3,2,10,07,00,000,43,08,00,000,43,10,00,000,43,13,00,000,42*65
$BDGSV,3,3,10,29,00,000,43,30,00,000,45*67
$B3CN0,36,0,0,0,0,0,0,0,0,0,0,0,0,0*79
---00000020--- Acq_st=3 0  2000-1-1 0:1:7 
[00]  00(G01)  f 44  7  0   -750.6  2046000.9  0.0  2 0 2705 4152 1767
[01]  06(G07)  f 44  7  0   1339.1  2045998.2  0.0  2 0 2833 3965 1819
[02]  07(G08)  f 39  7  0   1450.9  2045998.1  0.1  2 0  724 1391  606
[03]  10(G11)  f 42  7  0    430.2  2045999.4  0.0  2 0 2162 3016 1682
[04]  17(G18)  f 42 21  0    999.6  2045998.6 -0.0  2 0 1566 2649  550
[05]  21(G22)  f 38  7  0  -2732.2  2046003.5  0.1  2 0 1076 1895 1356
[06]  27(G28)  f 43 11  0  -2926.1  2046003.7 -0.0  2 0 1580 2456  862
[08]  29(G30)  f 45  7  0   -794.3  2046001.0  0.0  2 0 3175 5170 2817
[09]  12(G13)  f 37  7  0   -846.8  2046001.0  0.2  2 0 1011 1478  220
[10]  02(G03)  1  7  7  0  -3952.0  2046004.8  0.1  1 0  299  199  295
[16]  37(B01) 1f 40 18  0  -1089.7  4092002.8  0.6  2 0 1166 1786  766
[18]  39(B03) 1f 43 32  0  -1108.4  4092002.8  0.1  2 0 2011 2267 1116
[19]  40(B04) 1f 40 19  0  -1106.1  4092002.7 -0.0  2 0 1408 1260  742
[20]  41(B05) 1f 37 24  0  -1139.5  4092002.9 -0.6  2 0  765 1147  402
[21]  43(B07) 1f 42  7  0  -1200.8  4092003.1 -0.0  2 0 2094 2432 1229
[22]  44(B08) 1f 43  8  0  -1484.8  4092003.8  0.0  2 0 1224 2150 1018
[24]  46(B10) 1f 43  7  0  -1528.6  4092003.9 -0.1  2 0 1813 2508 1153
[25]  49(B13) 1f 42  7  0  -1977.5  4092005.1  0.0  2 0 1609 1787  333
[26]  65(B29) 1f 43  7  0  -2426.4  4092006.2 -0.0  2 0 2016 2389 1039
[27]  66(B30) 1f 45  7  0    137.4  4091999.5 -0.0  2 0 2996 3504 1584
[32]  77(N-4)  f 46  7  0  -3262.9  1022002.1 -0.0  2 0   854 1971  969
[33]  78(N-3)  f 45  7  0   2385.4  1021998.5  0.1  2 0   820 1628  666
[34]  79(N-2)  f 45  7  0    -11.6  1022000.0 -0.1  2 0   966 1985  881
[35]  81(N00)  f 38  7  0  -5133.4  1022003.2  0.1  2 0   461  770  207
[36]  83(N02)  f 43  7  0   1008.3  1021999.3 -0.0  2 0   984 1918 1113
[48]  37(B01)  7 10 18  0  -1295.7 20460022.1 -0.1  2 0  370  385  463
[51]  40(B04)  1 25 23  0    470.2 20460022.1  0.0  1 0  374  447  345
[53]  43(B07)  1 11  7  0  -1095.7 20460018.2 -0.1  1 0  730 1100  740
[54]  44(B08)  1  7  8  0   -694.1 20460023.7 -0.1  1 0  758  737  332
[56]  46(B10)  1  7  7  0   -704.9 20460024.4 -0.0  1 0  459  594  523
[57]  49(B13)  1  8  7  0  -1751.7 20460031.5 -0.0  1 0  259   68  269
[58]  65(B29)  1  7 11  0  -1603.6 20460039.0  0.2  1 0  352  344  379
[59]  66(B30)  1  7  7  0      4.3 20459999.9 -0.2  1 0  257  610  499
$GNGGA,075445.972,,,,,0,00,,,M,,,,0000*20
$GNRMC,075445.972,A,,,,,,,090180,,*2D
$GPGSA,A,1,,,,,,,,,,,,,,,*1E
$BDGSA,A,1,,,,,,,,,,,,,,,*0F
$GLGSA,A,1,,,,,,,,,,,,,,,*02
$GPGSV,3,1,09,01,00,000,44,07,00,000,44,08,00,000,39,11,00,000,42*70
$GPGSV,3,2,09,18,00,000,42,22,00,000,38,28,00,000,43,30,00,000,45*7A
$GPGSV,3,3,09,13,00,000,37*46
$BDGSV,3,1,10,01,00,000,40,03,00,000,42,04,00,000,40,05,00,000,37*6A
$BDGSV,3,2,10,07,00,000,42,08,00,000,43,10,00,000,43,13,00,000,42*64
$BDGSV,3,3,10,29,00,000,43,30,00,000,45*67
$B3CN0,0,0,0,0,0,0,0,0,0,0,0,0,0,0*4C
---00000021--- Acq_st=3 0  2000-1-1 0:1:8 
[00]  00(G01)  f 45  7  0   -747.2  2046000.9  0.0  2 0 2107 3867 1735
[01]  06(G07)  f 43  7  0   1344.6  2045998.2 -0.0  2 0 2406 3648 1918
[02]  07(G08)  f 39 12  0   1464.8  2045998.0 -0.1  2 0 1178 1439  383
[03]  10(G11)  f 43  7  0    432.8  2045999.4  0.1  2 0 1171 2511 1605
[04]  17(G18)  f 43 20  0   1005.5  2045998.6 -0.0  2 0 1867 2534 1432
[05]  21(G22)  f 38  7  0  -2731.8  2046003.5  0.3  2 0  735 1286  206
[06]  27(G28)  f 43  7  0  -2917.8  2046003.7  0.0  2 0 1890 3177 1447
[08]  29(G30)  f 45  7  0   -788.1  2046001.0  0.0  2 0 3109 4931 2787
[09]  12(G13)  f 37  7  0   -839.9  2046001.0 -0.2  2 0 1059 1352  692
[10]  02(G03)  1  7  7  0  -4471.8  2046004.4  0.1  1 0  378  526  889
[16]  37(B01) 1f 40 18  0  -1081.8  4092002.7 -0.7  2 0 1242 1411  835
[18]  39(B03) 1f 43 32  0  -1100.8  4092002.6 -0.1  2 0 1547 1977  812
[19]  40(B04) 1f 39 20  0  -1101.0  4092002.7 -0.3  2 0 1309 1262  735
[20]  41(B05) 1f 38 24  0  -1139.1  4092003.0 -0.4  2 0  519 1195  875
[21]  43(B07) 1f 43  7  0  -1203.7  4092003.0 -0.0  2 0 1476 2109  826
[22]  44(B08) 1f 43  7  0  -1481.9  4092003.7  0.0  2 0 1719 2039  304
[24]  46(B10) 1f 43  7  0  -1519.4  4092003.9  0.0  2 0 1870 2455 1169
[25]  49(B13) 1f 42  7  0  -1968.5  4092005.0  0.0  2 0 1802 1887  633
[26]  65(B29) 1f 44  7  0  -2417.6  4092006.2 -0.0  2 0 2334 2749  985
[27]  66(B30) 1f 44  7  0    141.3  4091999.5  0.0  2 0 2524 3351 1331
[32]  77(N-4)  f 46  7  0  -3257.3  1022002.0  0.0  2 0  1177 2198  987
[33]  78(N-3)  f 45  7  0   2389.9  1021998.4 -0.0  2 0   954 1800 1006
[34]  79(N-2)  f 45 15  0     -6.0  1022000.0 -0.0  2 0  1140 1697  529
[35]  81(N00)  f 38  7  0  -5126.6  1022003.2  0.2  2 0   524  800  676
[36]  83(N02)  f 44  7  0   1013.2  1021999.3  0.1  2 0  1134 1953  832
[48]  37(B01)  7 10 10  0  -1616.3 20460028.3 -0.1  2 0  231  418  316
[50]  39(B03)  1 21 21  1   -927.7 20460015.7  0.0  1 0  136  616  920
[52]  41(B05)  1 23 24  0   -837.3 20460018.8  0.0  1 0  649  167  191
[53]  43(B07)  1  7  7  0   -778.4 20460017.6 -0.1  1 0  500  266  367
[54]  44(B08)  1  7  7  0  -1017.5 20460022.3  0.0  1 0  219  119  264
[56]  46(B10)  1  7  7  0  -1004.4 20460023.8  0.0  1 0  322  390   89
[57]  49(B13)  1  7  7  0  -1645.7 20460031.0  0.0  1 0  256  171  432
[58]  65(B29)  1  7  7  0  -2121.7 20460039.1  0.0  1 0  551  605  449
[59]  66(B30)  1 12 10  0    179.3 20459998.0  0.0  1 0  296  320  306
$GNGGA,075446.972,,,,,0,00,,,M,,,,0000*23
$GNRMC,075446.972,A,,,,,,,090180,,*2E
$GPGSA,A,1,,,,,,,,,,,,,,,*1E
$BDGSA,A,1,,,,,,,,,,,,,,,*0F
$GLGSA,A,1,,,,,,,,,,,,,,,*02
$GPGSV,3,1,09,01,00,000,45,07,00,000,43,08,00,000,39,11,00,000,43*77
$GPGSV,3,2,09,18,00,000,43,22,00,000,38,28,00,000,43,30,00,000,45*7B
$GPGSV,3,3,09,13,00,000,37*46
$BDGSV,3,1,10,01,00,000,40,03,00,000,43,04,00,000,39,05,00,000,38*6A
$BDGSV,3,2,10,07,00,000,43,08,00,000,43,10,00,000,43,13,00,000,42*65
$BDGSV,3,3,10,29,00,000,44,30,00,000,44*61
$B3CN0,36,0,0,0,0,0,0,0,0,0,0,0,0,0*79
---00000022--- Acq_st=3 0  2000-1-1 0:1:9 
[00]  00(G01)  f 45  7  0   -749.3  2046000.9  0.0  2 0 2567 4145 1663
[01]  06(G07)  f 44  8  0   1343.1  2045998.2  0.0  2 0 2944 3937 1556
[02]  07(G08)  f 39  7  0   1455.6  2045998.0  0.3  2 0 1117 1836  873
[03]  10(G11)  f 43  7  0    435.0  2045999.4  0.0  2 0 1774 3056 1620
[04]  17(G18)  f 43 21  0   1002.1  2045998.6 -0.0  2 0 1975 2650 1135
[05]  21(G22)  f 38  7  0  -2724.1  2046003.5 -0.2  2 0  652 1187  306
[06]  27(G28)  f 43  7  0  -2922.1  2046003.7 -0.1  2 0 1430 2713 1186
[08]  29(G30)  f 45  7  0   -790.0  2046001.0 -0.1  2 0 3230 5460 2724
[09]  12(G13)  f 37  7  0   -842.4  2046001.0 -0.5  2 0  195 1050  683
[10]  02(G03)  1  7  8  0  -4263.8  2046005.2 -0.2  1 0  271  619  649
[16]  37(B01) 1f 39 19  0  -1089.4  4092002.7  0.7  2 0 1287 1627  795
[17]  38(B02)  1 21 19  1  -1135.6  4092004.7  0.6  1 0  984 1707  942
[18]  39(B03) 1f 43 31  0  -1102.5  4092002.7  0.1  2 0 1534 2086  948
[19]  40(B04) 1f 39 18  0  -1104.7  4092002.7  0.7  2 0 1090 1364  629
[20]  41(B05) 1f 37 21  0  -1142.6  4092002.9  0.4  2 0  964  886  554
[21]  43(B07) 1f 43  7  0  -1205.9  4092003.0  0.0  2 0 1403 2364  997
[22]  44(B08) 1f 42  7  0  -1482.9  4092003.8 -0.1  2 0 2184 2355  996
[24]  46(B10) 1f 42  7  0  -1525.6  4092003.9  0.0  2 0 1686 1959  571
[25]  49(B13) 1f 42  7  0  -1970.9  4092005.1 -0.1  2 0 1724 2086  757
[26]  65(B29) 1f 43  7  0  -2421.6  4092006.2  0.1  2 0 1643 2467 1302
[27]  66(B30) 1f 44  7  0    139.5  4091999.5  0.0  2 0 2418 3465 1539
[32]  77(N-4)  f 45  7  0  -3260.5  1022002.1  0.1  2 0  1128 2131 1259
[33]  78(N-3)  f 45  7  0   2386.2  1021998.4 -0.1  2 0   964 1736  931
[34]  79(N-2)  f 45  7  0    -10.6  1022000.0 -0.0  2 0   827 1627  681
[35]  81(N00)  f 39  7  0  -5130.5  1022003.2 -0.4  2 0   498  733  479
[36]  83(N02)  f 43  8  0   1011.1  1021999.3 -0.0  2 0  1041 1651  549
[48]  37(B01)  7 10 10  1  -2166.0 20460033.9 -0.2  2 0  124  224  462
[50]  39(B03)  f 13 23  0   -771.9 20460012.5 -0.0  2 0  342   85  321
[51]  40(B04)  1 19 22  1   -679.7 20460020.0 -0.1  1 0  777  811  293
[52]  41(B05)  1 23 23  0   -965.5 20460020.4 -0.0  1 0  974  548  603
[53]  43(B07)  1  7  7  0    429.3 20460017.8 -0.2  1 0  566  747  302
[54]  44(B08)  1  9  7  0  -1350.8 20460024.3 -0.1  1 0  662  944  615
[56]  46(B10)  1  7  7  0  -1515.7 20460025.1  0.2  1 0  356  605  629
[57]  49(B13)  1  7  7  0  -1880.1 20460030.0 -0.1  1 0  252  307  202
[58]  65(B29)  1  7  7  0  -1837.6 20460040.2  0.0  1 0  414  166  166
[59]  66(B30)  1  7  7  0    243.2 20459998.2 -0.2  1 0  853  830  822
$GNGGA,075447.972,,,,,0,00,,,M,,,,0000*22
$GNRMC,075447.972,A,,,,,,,090180,,*2F
$GPGSA,A,1,,,,,,,,,,,,,,,*1E
$BDGSA,A,1,,,,,,,,,,,,,,,*0F
$GLGSA,A,1,,,,,,,,,,,,,,,*02
$GPGSV,3,1,09,01,00,000,45,07,00,000,44,08,00,000,39,11,00,000,43*70
$GPGSV,3,2,09,18,00,000,43,22,00,000,38,28,00,000,43,30,00,000,45*7B
$GPGSV,3,3,09,13,00,000,37*46
$BDGSV,3,1,10,01,00,000,39,03,00,000,43,04,00,000,39,05,00,000,37*6B
$BDGSV,3,2,10,07,00,000,43,08,00,000,42,10,00,000,42,13,00,000,42*65
$BDGSV,3,3,10,29,00,000,43,30,00,000,44*66
$B3CN0,0,0,0,0,0,0,0,0,0,0,0,0,0,0*4C
---00000023--- Acq_st=3 0  2000-1-1 0:1:10 
[00]  00(G01)  f 45  7  0   -749.0  2046000.9  0.0  2 0 2356 4330 2257
[01]  06(G07)  f 44 11  0   1341.1  2045998.2  0.0  2 0 2647 3573 1512
[02]  07(G08)  f 40  7  0   1457.6  2045998.0 -0.2  2 0  676 1439  836
[03]  10(G11)  f 43  8  0    439.0  2045999.4  0.0  2 0 1397 2948 1271
[04]  17(G18)  f 43 21  0   1007.4  2045998.6  0.0  2 0 1707 2834 1114
[05]  21(G22)  f 38  7  0  -2734.2  2046003.4 -0.3  2 0  699  644  294
[06]  27(G28)  f 43  7  0  -2917.6  2046003.7 -0.1  2 0 1758 2712 1233
[08]  29(G30)  f 45  7  0   -787.3  2046001.0 -0.0  2 0 3055 5382 2548
[09]  12(G13)  f 37  7  0   -843.2  2046001.0  0.2  2 0  655 1158  941
[10]  02(G03)  1  7  7  0  -4152.9  2046005.5  0.1  1 0  979  922  671
[16]  37(B01) 1f 40 17  0  -1081.6  4092002.6  0.5  2 0 1081 1085  555
[17]  38(B02)  7 33 24  0  -1139.8  4092002.7 -0.3  2 0 1321  719  446
[18]  39(B03) 1f 43 32  0  -1101.1  4092002.8  0.1  2 0 1754 1962  930
[19]  40(B04) 1f 40 23  0  -1100.5  4092002.8  0.0  2 0  938 1297  669
[20]  41(B05) 1f 36 20  0  -1139.4  4092002.9  0.8  2 0 1340 1541  786
[21]  43(B07) 1f 42  7  0  -1203.6  4092003.0  0.0  2 0 1934 2254  988
[22]  44(B08) 1f 43  7  0  -1478.6  4092003.7 -0.0  2 0 1601 2346 1123
[24]  46(B10) 1f 43  8  0  -1525.4  4092003.9 -0.0  2 0 1378 2030  626
[25]  49(B13) 1f 42  7  0  -1972.9  4092005.1  0.0  2 0 1230 1598  598
[26]  65(B29) 1f 43  7  0  -2419.4  4092006.2  0.0  2 0 1924 2521 1174
[27]  66(B30) 1f 45  7  0    142.3  4091999.5 -0.0  2 0 2949 3620 1454
[32]  77(N-4)  f 46  7  0  -3256.3  1022002.0 -0.0  2 0  1363 2372 1243
[33]  78(N-3)  f 45  7  0   2389.3  1021998.4 -0.0  2 0   952 1710  928
[34]  79(N-2)  f 44 10  0     -7.1  1022000.0 -0.1  2 0   974 1658  853
[35]  81(N00)  f 38  7  0  -5128.8  1022003.3  0.1  2 0   677 1379  652
[36]  83(N02)  f 44  7  0   1014.4  1021999.3 -0.1  2 0   438 1569  729
[50]  39(B03)  f 17 22  0   -739.9 20460013.6  0.2  2 0  482  339  255
[51]  40(B04)  1 14 21  0   -925.8 20460019.6  0.0  1 0  351  380  431
[52]  41(B05)  1 23 23  0  -1121.3 20460021.8 -0.0  1 0  594  823  518
[58]  65(B29)  1  7  7  0  -2002.2 20460038.5 -0.1  1 0  464  750  392
[59]  66(B30)  1  7  7  0    571.2 20460000.3  0.0  1 0   94   73  567
$GNGGA,075448.972,,,,,0,00,,,M,,,,0000*2D
$GNRMC,075448.972,A,,,,,,,240419,,*2A
$GPGSA,A,1,,,,,,,,,,,,,,,*1E
$BDGSA,A,1,,,,,,,,,,,,,,,*0F
$GLGSA,A,1,,,,,,,,,,,,,,,*02
$GPGSV,3,1,09,01,00,000,45,07,00,000,44,08,00,000,40,11,00,000,43*7E
$GPGSV,3,2,09,18,00,000,43,22,00,000,38,28,00,000,43,30,00,000,45*7B
$GPGSV,3,3,09,13,00,000,37*46
$BDGSV,3,1,11,01,00,000,40,02,00,000,33,03,00,000,43,04,00,000,40*69
$BDGSV,3,2,11,05,00,000,36,07,00,000,42,08,00,000,43,10,00,000,43*61
$BDGSV,3,3,11,13,00,000,42,29,00,000,43,30,00,000,45*52
$B3CN0,0,0,17,0,0,0,0,0,0,0,0,0,0,0*7A
---00000024--- Acq_st=3 0  2000-1-1 0:1:11 
[00]  00(G01)  f 45  7  0   -745.2  2046000.9 -0.0  2 0 3018 4270 1971
[01]  06(G07)  f 45  7  0   1344.9  2045998.2 -0.0  2 0 2820 4131 1892
[02]  07(G08)  f 40  7  0   1462.0  2045998.0  0.1  2 0  531  846  587
[03]  10(G11)  f 42  7  0    438.2  2045999.4 -0.1  2 0 2059 3037 1666
[04]  17(G18)  f 43 21  0   1008.3  2045998.6 -0.0  2 0 2001 2782 1227
[05]  21(G22)  f 38  7  0  -2730.7  2046003.5  0.1  2 0  409  994  209
[06]  27(G28)  f 43  7  0  -2917.8  2046003.7  0.0  2 0 1919 2342  559
[08]  29(G30)  f 45 11  0   -781.7  2046001.0 -0.0  2 0 2648 4343 1694
[09]  12(G13)  f 37  7  0   -839.8  2046001.0  0.4  2 0  792 1003  523
[16]  37(B01) 1f 41 10  0  -1085.7  4092002.8  0.7  2 0 1224 1217  364
[17]  38(B02)  f 36 24  0  -1129.1  4092002.7 -0.2  2 0 1629 1318  783
[18]  39(B03) 1f 43 32  0  -1099.5  4092002.8  0.1  2 0 1283 1984  916
[19]  40(B04) 1f 41 16  0  -1100.9  4092002.9  0.1  2 0  691 1250  559
[20]  41(B05) 1f 37 23  0  -1131.6  4092002.9 -0.3  2 0  712 1088  649
[21]  43(B07) 1f 42  7  0  -1202.5  4092003.0  0.0  2 0 1926 2172  831
[22]  44(B08) 1f 42  7  0  -1475.7  4092003.8 -0.0  2 0 1692 2119  613
[24]  46(B10) 1f 42  7  0  -1522.1  4092003.9  0.0  2 0 1681 2495 1502
[25]  49(B13) 1f 42  7  0  -1966.9  4092005.0 -0.0  2 0 1171 1503  734
[26]  65(B29) 1f 44 12  0  -2420.8  4092006.2 -0.0  2 0 1709 2066  685
[27]  66(B30) 1f 45  7  0    145.1  4091999.5 -0.0  2 0 2412 3352 1394
[32]  77(N-4)  f 46  7  0  -3254.3  1022002.0 -0.0  2 0  1309 2377 1342
[33]  78(N-3)  f 45  7  0   2392.0  1021998.5 -0.0  2 0   977 1619  567
[34]  79(N-2)  f 45 15  0     -4.8  1022000.0  0.2  2 0  1027 1901  970
[35]  81(N00)  f 38  7  0  -5128.1  1022003.2  0.3  2 0   303  762  510
[36]  83(N02)  f 44  7  0   1015.9  1021999.3 -0.1  2 0   800 1394  594
[48]  37(B01)  1 10 18  1   -660.3 20460018.5  0.2  1 0  244  202  343
[50]  39(B03)  f 18 18  0  -1273.9 20460019.9  0.0  2 0  365  567   53
[51]  40(B04)  1 14 10  1   -696.7 20460019.9 -0.0  1 0 1106  960  320
[52]  41(B05)  1 25 24  1   -855.9 20460020.3 -0.0  1 0  597  780  713
[53]  43(B07)  1  7  7  0  -1025.3 20460017.3  0.1  1 0  980  457  208
[54]  44(B08)  1  7  7  0  -1162.6 20460021.8  0.0  1 0  110   33  235
[56]  46(B10)  1  7  7  0  -1181.6 20460023.4  0.0  1 0  446  425  310
[57]  49(B13)  1  7  7  0  -1724.2 20460031.4  0.2  1 0  161  207   96
$GNGGA,075449.972,,,,,0,00,,,M,,,,0000*2C
$GNRMC,075449.972,A,,,,,,,240419,,*2B
$GPGSA,A,1,,,,,,,,,,,,,,,*1E
$BDGSA,A,1,,,,,,,,,,,,,,,*0F
$GLGSA,A,1,,,,,,,,,,,,,,,*02
$GPGSV,3,1,09,01,00,000,45,07,00,000,45,08,00,000,40,11,00,000,42*7E
$GPGSV,3,2,09,18,00,000,43,22,00,000,38,28,00,000,43,30,00,000,45*7B
$GPGSV,3,3,09,13,00,000,37*46
$BDGSV,3,1,11,01,00,000,41,02,00,000,35,03,00,000,43,04,00,000,41*6F
$BDGSV,3,2,11,05,00,000,37,07,00,000,42,08,00,000,42,10,00,000,42*60
$BDGSV,3,3,11,13,00,000,42,29,00,000,44,30,00,000,45*55
$B3CN0,0,0,18,0,0,0,0,0,0,0,0,0,0,0*75
---00000025--- Acq_st=3 0  2000-1-1 0:1:12 
[00]  00(G01)  f 45 11  0   -747.6  2046000.9 -0.0  2 0 2763 4133 1357
[01]  06(G07)  f 44  7  0   1344.8  2045998.2  0.0  2 0 2769 3929 1889
[02]  07(G08)  f 39  7  0   1459.1  2045998.1 -0.1  2 0 1122 1629  808
[03]  10(G11)  f 42  7  0    439.5  2045999.4  0.0  2 0  763 2127 1041
[04]  17(G18)  f 43 22  0   1007.7  2045998.6 -0.0  2 0 1391 2634 1090
[05]  21(G22)  f 38  7  0  -2730.7  2046003.5 -0.3  2 0  632 1113  575
[06]  27(G28)  f 43  7  0  -2919.3  2046003.7 -0.1  2 0 2140 2988 1171
[08]  29(G30)  f 45  7  0   -785.7  2046001.0 -0.0  2 0 2806 5162 2363
[09]  12(G13)  f 36  7  0   -836.9  2046001.0 -0.1  2 0   86 1049  557
[16]  37(B01) 1f 41 36  0  -1083.5  4092002.7  0.1  2 0 1023 1344  766
[17]  38(B02) 1f 35 26  0  -1134.5  4092002.7 -0.0  2 0 1726  875  287
[18]  39(B03) 1f 43 31  0  -1100.5  4092002.7 -0.2  2 0 1158 1848  971
[19]  40(B04) 1f 40 23  0  -1100.9  4092002.8  0.8  2 0 1406 1357  780
[20]  41(B05) 1f 38 25  0  -1134.0  4092002.8  0.1  2 0 1228 1345  423
[21]  43(B07) 1f 42  7  0  -1202.7  4092003.0  0.0  2 0 1759 2397  890
[22]  44(B08) 1f 42  7  0  -1476.5  4092003.7 -0.0  2 0 1387 1885  864
[24]  46(B10) 1f 43  7  0  -1523.2  4092003.9 -0.0  2 0 1784 2384 1312
[25]  49(B13) 1f 42  9  0  -1972.6  4092005.0 -0.0  2 0 1654 1886  609
[26]  65(B29) 1f 44  7  0  -2420.2  4092006.2 -0.1  2 0 2265 2970 1331
[27]  66(B30) 1f 45  7  0    143.3  4091999.5  0.0  2 0 2994 3765 1784
[32]  77(N-4)  f 46  7  0  -3255.9  1022002.0 -0.1  2 0  1122 2222 1164
[33]  78(N-3)  f 45  7  0   2388.4  1021998.4 -0.0  2 0   690 1764  876
[34]  79(N-2)  f 45 12  0     -6.6  1022000.0 -0.1  2 0  1261 1938 1219
[35]  81(N00)  f 38  7  0  -5129.6  1022003.2 -0.4  2 0   460  883  183
[36]  83(N02)  f 44  7  0   1015.4  1021999.3  0.0  2 0  1016 1815  844
