SD initialized success
Create debug.log Failed! 3
bbram_blkflag = 1
rtcflag = 0
BBRAM Block OK: 01 EPHflag: 00000000 09c236df, rtc 00
Hot-start nowtime:day = 20,minute = 17,seconds = 20.000000
Start Channel by LuYu
$GNGGA,000000.000,,,,,0,00,,,M,,,,0000*2B
$GNRMC,000000.000,A,,,,,,,060180,,*29
$GPGSA,A,1,,,,,,,,,,,,,,,*1E
$BDGSA,A,1,,,,,,,,,,,,,,,*0F
$GLGSA,A,1,,,,,,,,,,,,,,,*02
$B3CN0,0,0,0,0,0,0,0,0,0,0,0,0,0,0*4C
---00000001--- Acq_st=3 0  2019-4-20 8:17:21 
[00]  00(G01)  1 27  7  0   -464.7  2046001.1  0.4  1 0 3438 4679 1972
[01]  06(G07)  1 14  7  0   1500.0  2046000.3  0.0  1 0 1876 3979 2107
[02]  10(G11)  1  7  7  0    500.0  2046000.4  0.0  1 0 1699 3652 1821
$GNGGA,000000.000,,,,,0,00,,,M,,,,0000*2B
$GNRMC,000000.000,A,,,,,,,060180,,*29
$GPGSA,A,1,,,,,,,,,,,,,,,*1E
$BDGSA,A,1,,,,,,,,,,,,,,,*0F
$GLGSA,A,1,,,,,,,,,,,,,,,*02
$B3CN0,0,0,0,0,0,0,0,0,0,0,0,0,0,0*4C
---00000002--- Acq_st=3 0  2019-4-20 8:17:22 
[00]  00(G01)  7 25  7  0   -459.7  2046000.5  0.6 10 0 2637 3979 1739
[01]  06(G07)  1 32  7  0   1543.7  2045997.6  0.9  1 0 3435 3041  982
[02]  10(G11)  1 28  9  0    636.5  2045999.0  0.5  1 0 2696 3725 1765
[03]  16(G17)  1 26  7  0  -2498.0  2046004.4  0.1  1 0 1235 2336 1835
[04]  17(G18)  1 29  7  0   1241.9  2045999.3  0.2  1 0 2128 3084 1214
[05]  21(G22)  1  7  7  0  -2750.0  2046004.6  0.0  1 0  393  800 1641
$GNGGA,000000.000,,,,,0,00,,,M,,,,0000*2B
$GNRMC,000000.000,A,,,,,,,060180,,*29
$GPGSA,A,1,,,,,,,,,,,,,,,*1E
$BDGSA,A,1,,,,,,,,,,,,,,,*0F
$GLGSA,A,1,,,,,,,,,,,,,,,*02
$GPGSV,1,1,01,01,00,000,25*4E
$B3CN0,0,0,0,0,0,0,0,0,0,0,0,0,0,0*4C
---00000003--- Acq_st=3 0  2019-4-20 8:17:23 
[00]  00(G01)  7 46  7  0   -461.5  2046000.5  0.0  2 0 3250 4684 2250
[01]  06(G07)  7 37  7  0   1542.9  2045997.8  0.1  2 0 3834 3992 1566
[02]  10(G11)  7 30  7  0    637.7  2045999.1  0.4  5 0 1812 3111 1546
[03]  16(G17)  7 18  7  0  -2498.9  2046003.1  0.9 10 0 1244 1717  915
[04]  17(G18)  7 14  7  0   1240.9  2045998.3  0.9 10 0 1539 2309  967
[05]  21(G22)  1  7  7  0  -3096.7  2046004.5  0.2  1 0  411  737  890
[06]  27(G28)  1 25  8  0  -2882.3  2046004.1  0.4  1 0 1259 3198 1850
[08]  29(G30)  1 24  7  0   -527.6  2046002.1  0.1  1 0 2321 4520 2626
[16]  37(B01)  1 10 18  0  -1250.0  4092004.8  0.1  1 0  501  495  950
[17]  38(B02)  1 10 19  1   -750.0  4092001.1 -0.0  1 0  502  420  698
[18]  39(B03)  1 10 18  0  -1250.0  4092005.4 -0.1  1 0  409   68 1309
[19]  40(B04)  1 10 10  0  -1250.0  4092004.4 -0.1  1 0  217  291  769
$GNGGA,000000.000,,,,,0,00,,,M,,,,0000*2B
$GNRMC,000000.000,A,,,,,,,060180,,*29
$GPGSA,A,1,,,,,,,,,,,,,,,*1E
$BDGSA,A,1,,,,,,,,,,,,,,,*0F
$GLGSA,A,1,,,,,,,,,,,,,,,*02
$GPGSV,1,1,04,01,00,000,46,07,00,000,37,11,00,000,30,17,00,000,18*71
$B3CN0,0,0,0,0,0,0,0,0,0,0,0,0,0,0*4C
---00000004--- Acq_st=3 0  2019-4-20 8:17:24 
[00]  00(G01)  7 46  7  0   -442.2  2046000.5  0.0  2 0 3005 4858 2115
[01]  06(G07)  7 44  7  0   1559.9  2045997.9  0.0  2 0 2589 3331 2048
[02]  10(G11)  7 44  7  0    654.9  2045999.1  0.0  2 0 1737 2820  924
[03]  16(G17)  7 41  7  0  -2480.3  2046003.2  0.1  2 0 1860 2888 1729
[04]  17(G18)  7 43  7  0   1259.2  2045998.3  0.0  2 0 2009 2949 1592
[05]  21(G22)  1  7  7  0  -3064.8  2046003.1  0.2  1 0  835  934  361
[06]  27(G28)  7 24  7  0  -2864.2  2046003.7  0.7 10 0 1896 3001 1313
[08]  29(G30)  7 22  7  0   -509.1  2046000.5  0.6 10 0 2634 3957 1938
[16]  37(B01)  1 39 20  0  -1042.6  4092003.6  1.0  1 0 2045 1728  425
[17]  38(B02)  1 10 10  0   -727.0  4092001.8 -0.1  1 0  550  561  346
[18]  39(B03)  1 43 34  0  -1061.2  4092003.8  1.0  1 0 1619 1909  882
[19]  40(B04)  1 40 10  0  -1058.1  4092005.0  0.9  1 0  594 1076  551
[20]  41(B05)  1 18 24  1   -836.4  4092001.0 -0.1  1 0  304  591  613
[21]  43(B07)  1  7  7  0  -1133.5  4092004.2  0.0  1 0 1783 2817 1711
[22]  44(B08)  1  7  7  0  -1368.1  4092006.3 -0.1  1 0  646 1316 2408
[24]  45(B09)  1  7  7  0     -0.0  4092001.0  0.0  1 0   26  549  491
[25]  46(B10)  1  7  7  0  -1500.0  4092006.0  0.1  1 0  107 1710 2969
[26]  47(B11)  1  7  7  0    500.0  4092000.1 -0.0  1 0 1559 3105 2214
$GNGGA,081725.832,,,,,0,00,,,M,,,,0000*2B
$GNRMC,081725.832,A,,,,,,,120180,,*2C
$GPGSA,A,1,,,,,,,,,,,,,,,*1E
$BDGSA,A,1,,,,,,,,,,,,,,,*0F
$GLGSA,A,1,,,,,,,,,,,,,,,*02
$GPGSV,2,1,07,01,00,000,46,07,00,000,44,11,00,000,44,17,00,000,41*7A
$GPGSV,2,2,07,18,00,000,43,28,00,000,24,30,00,000,21*4C
$B3CN0,0,0,0,0,0,0,0,0,0,0,0,0,0,0*4C
---00000005--- Acq_st=3 0  2019-4-20 8:17:25 
[00]  00(G01)  f 45  7  0   -447.7  2046000.5  0.0  2 0 2617 4720 2199
[01]  06(G07)  f 44 12  0   1556.1  2045997.9 -0.1  2 0 2556 3836 1866
[02]  10(G11)  f 43  7  0    648.2  2045999.1  0.0  2 0 1422 2735  690
[03]  16(G17)  f 41  7  0  -2490.3  2046003.1 -0.0  2 0 1288 2258 1052
[04]  17(G18)  f 43  7  0   1252.5  2045998.3 -0.1  2 0 2075 3178 1656
[05]  21(G22)  1  7  7  0  -3095.4  2046003.0  0.1  1 0  363 1102  523
[06]  27(G28)  7 44 10  0  -2868.8  2046003.7 -0.0  2 0 1589 2899 1704
[08]  29(G30)  7 46  7  0   -510.8  2046000.6 -0.0  2 0 2942 4508 1732
[16]  37(B01)  f 39 10  0  -1046.7  4092002.6 -0.4  2 0 1456 1715  641
[17]  38(B02)  7 19 29  1  -1026.3  4092002.7  0.0  2 0  562  344  602
[18]  39(B03)  f 42 31  0  -1062.8  4092002.6 -0.3  2 0 1691 1801  629
[19]  40(B04)  f 38 20  0  -1067.6  4092002.4 -0.1  2 0 1399 1252  639
[20]  41(B05)  1 10 10  0   -570.0  4092002.4  0.0  1 0  572   72  469
[21]  43(B07)  1  7  7  0  -1141.4  4092002.6 -0.3  1 0 1444 2532 1341
[22]  44(B08)  1  7  7  0  -1377.5  4092003.6  0.0  1 0 2014 2127  783
[24]  45(B09)  1  7  7  0   -279.5  4092000.0  0.1  1 0  445 1204 1002
[25]  46(B10)  1  7  7  0  -1468.5  4092004.0  0.7  1 0 1837 2724 1153
[26]  47(B11)  1  7  7  0    463.6  4091998.4  0.1  1 0 1835 2763 1234
[27]  49(B13)  1  7  7  0  -1870.2  4092004.7 -0.0  1 0 2291 2710 1092
[28]  54(B18)  1  7  7  0  -1250.0  4092005.7  0.1  1 0  509 1606 3452
$GNGGA,081726.832,,,,,0,00,,,M,,,,0000*28
$GNRMC,081726.832,A,,,,,,,120180,,*2F
$GPGSA,A,1,,,,,,,,,,,,,,,*1E
$BDGSA,A,1,,,,,,,,,,,,,,,*0F
$GLGSA,A,1,,,,,,,,,,,,,,,*02
$GPGSV,2,1,07,01,00,000,45,07,00,000,44,11,00,000,43,17,00,000,41*7E
$GPGSV,2,2,07,18,00,000,43,28,00,000,44,30,00,000,46*4B
$BDGSV,1,1,04,01,00,000,39,02,00,000,22,03,00,000,43,04,00,000,38*6E
$B3CN0,0,0,0,0,0,0,0,0,0,0,0,0,0,0*4C
---00000006--- Acq_st=3 0  2019-4-20 8:17:26 
[00]  00(G01)  f 45  7  0   -458.6  2046000.5 -0.0  2 0 3325 4391 1905
[01]  06(G07)  f 44  7  0   1545.0  2045997.9  0.0  2 0 2598 3802 1972
[02]  10(G11)  f 43  7  0    639.5  2045999.1 -0.0  2 0 2180 3348 1617
[03]  16(G17)  f 41  7  0  -2494.2  2046003.2 -0.1  2 0 1775 1920 1183
[04]  17(G18)  f 43  7  0   1241.8  2045998.3  0.0  2 0 1532 2795 1663
[05]  21(G22)  1  7  7  0  -3095.4  2046003.5  0.1  1 0  706 1114  750
[06]  27(G28)  7 43 10  0  -2881.6  2046003.7  0.0  2 0 1725 3235 1806
[08]  29(G30)  7 44  7  0   -523.5  2046000.6  0.0  2 0 3399 4963 2568
[16]  37(B01)  f 40 10  0  -1060.5  4092002.7 -0.5  2 0 1564 1743  343
[17]  38(B02)  7 16 13  0  -1381.3  4092003.5 -0.1  2 0  494  763  785
[18]  39(B03)  f 43 32  0  -1078.7  4092002.7 -0.1  2 0 1912 1919  776
[19]  40(B04)  f 38 17  0  -1075.9  4092002.7 -0.2  2 0 2150 2109  636
[20]  41(B05)  1 10 10  0   -282.4  4092003.5  0.0  1 0  549  225  310
[21]  43(B07)  1  7  7  0  -1150.9  4092002.9  0.3  1 0 1499 2527 1073
[22]  44(B08)  1  7  7  0  -1384.5  4092003.2  0.3  1 0 1627 2892 1268
[24]  45(B09)  1  7  7  0   -347.4  4091998.9 -0.0  1 0  870 1008  659
[25]  46(B10)  1  7  7  0  -1481.7  4092003.6  0.8  1 0 1876 3233 1492
[26]  47(B11)  1  7 10  0    453.4  4091998.6  0.2  1 0 2217 2980 1304
[27]  49(B13)  1  7  7  0  -1882.7  4092004.4  0.3  1 0 1401 2433 1297
[28]  54(B18)  1  7  7  0  -1200.1  4092003.0  0.5  1 0 2731 3068 1268
[29]  59(B23)  1  7  7  0  -2419.4  4092007.2 -0.0  1 0 2336 4424 2598
[30]  61(B25)  1  7  7  0    750.0  4092000.9  0.0  1 0 1058 3213 3177
[48]  37(B01)  1 10 33  1   -260.7 20460016.9  0.0  1 0  290  430  318
[50]  39(B03)  1 21 10  0   -905.9 20460020.0  0.0  1 0  420  439  814
[51]  40(B04)  1 24 10  0   -502.0 20460020.1 -0.0  1 0   98  192  412
$GNGGA,081727.832,,,,,0,00,,,M,,,,0000*29
$GNRMC,081727.832,A,,,,,,,200419,,*2A
$GPGSA,A,1,,,,,,,,,,,,,,,*1E
$BDGSA,A,1,,,,,,,,,,,,,,,*0F
$GLGSA,A,1,,,,,,,,,,,,,,,*02
$GPGSV,2,1,07,01,00,000,45,07,00,000,44,11,00,000,43,17,00,000,41*7E
$GPGSV,2,2,07,18,00,000,43,28,00,000,43,30,00,000,45*4F
$BDGSV,1,1,04,01,00,000,40,02,00,000,36,03,00,000,43,04,00,000,37*6A
$B3CN0,0,0,0,0,0,0,0,0,0,0,0,0,0,0*4C
---00000007--- Acq_st=4 0  2019-4-20 8:17:27 
[00]  00(G01)  f 45  7  0   -446.6  2046000.5  0.0  2 0 3558 5170 2105
[01]  06(G07)  f 44  7  0   1556.3  2045997.9 -0.0  2 0 2686 3528 1981
[02]  10(G11)  f 44  7  0    651.2  2045999.1 -0.1  2 0 1816 3017 1788
[03]  16(G17)  f 42  7  0  -2483.0  2046003.2  0.1  2 0 1569 2083  857
[04]  17(G18)  f 43  7  0   1258.1  2045998.3 -0.0  2 0 1977 2939 1503
[06]  27(G28)  7 44  7  0  -2864.5  2046003.7 -0.0  2 0 1791 3253 1436
[08]  29(G30)  7 45  7  0   -509.8  2046000.6 -0.0  2 0 2829 4255 2094
[16]  37(B01) 1f 40 10  0  -1044.8  4092002.7 -0.7  2 0 1730 1730 1115
[17]  38(B02)  7 17 14  0  -1401.7  4092003.7 -0.1  2 0  349  454  831
[18]  39(B03) 1f 42 32  0  -1064.4  4092002.6 -0.2  2 0 1994 2032  969
[19]  40(B04) 1f 39 25  0  -1060.9  4092002.7  0.7  2 0 1227 1435 1160
[20]  41(B05)  1 16 10  0   -763.5  4092004.2  0.1  1 0  594  459  241
[21]  43(B07)  7  7  7  0  -1137.9  4092003.0  0.5  5 0 1425 2577 1280
[22]  44(B08)  7 39  7  0  -1369.6  4092003.5  0.1  2 0 1671 2414 1276
[24]  45(B09)  1  7  7  0   -309.4  4091998.7 -0.0  1 0  465  620  579
[25]  46(B10)  7 32  7  0  -1469.4  4092003.8  0.2  5 0 1879 2817 1125
[26]  47(B11)  7 31  7  0    467.5  4091998.8  0.2  5 0 1758 2732 1088
[27]  49(B13)  7 26  7  0  -1868.8  4092004.9  0.4 10 0 1305 2412 1417
[28]  54(B18)  7 31  7  0  -1187.3  4092003.0  0.4  5 0 2700 3099 1110
[29]  59(B23)  1  7  7  0  -2373.9  4092005.9  0.5  1 0 2738 4086 1950
[30]  61(B25)  1  7  7  0    696.7  4091997.8 -0.2  1 0 3489 3886 1907
[48]  37(B01)  1 10 31  1   -200.8 20460017.7 -0.1  1 0   95  196  114
[50]  39(B03)  1 19 29  1  -1143.4 20460021.0 -0.2  1 0  153  706  918
[51]  40(B04)  1 23 10  1  -1029.2 20460020.4  0.0  1 0  354  199  280
$GNGGA,081728.832,,,,,0,00,,,M,,,,0000*26
$GNRMC,081728.832,A,,,,,,,200419,,*25
$GPGSA,A,1,,,,,,,,,,,,,,,*1E
$BDGSA,A,1,,,,,,,,,,,,,,,*0F
$GLGSA,A,1,,,,,,,,,,,,,,,*02
$GPGSV,2,1,07,01,00,000,45,07,00,000,44,11,00,000,43,17,00,000,42*7D
$GPGSV,2,2,07,18,00,000,43,28,00,000,44,30,00,000,45*48
$BDGSV,3,1,09,01,00,000,40,02,00,000,18,03,00,000,42,04,00,000,39*66
$BDGSV,3,2,09,08,00,000,39,10,00,000,32,11,00,000,31,13,00,000,26*66
$BDGSV,3,3,09,18,00,000,31*5A
$B3CN0,0,0,0,0,0,0,0,0,0,0,0,0,0,0*4C
---00000008--- Acq_st=3 0  2019-4-20 8:17:28 
[00]  00(G01)  f 45 10  0   -449.5  2046000.5 -0.0  2 0 2787 4551 1610
[01]  06(G07)  f 44  7  0   1554.0  2045997.9  0.1  2 0 2772 3779 2022
[02]  10(G11)  f 44  7  0    646.8  2045999.1  0.1  2 0 1834 2620 1492
[03]  16(G17)  f 40  7  0  -2488.2  2046003.2  0.1  2 0 1298 1780 1019
[04]  17(G18)  f 43  7  0   1252.1  2045998.3  0.0  2 0 1505 2535 1524
[06]  27(G28)  7 43  8  0  -2872.7  2046003.7 -0.1  2 0 2455 3280 1489
[08]  29(G30)  7 45  7  0   -515.2  2046000.6 -0.0  2 0 3044 4752 2447
[16]  37(B01) 1f 41 10  0  -1044.2  4092002.5  0.3  2 0 1771 2019  791
[17]  38(B02)  7 10 10  0  -1744.7  4092004.8 -0.2  2 0   81  578  955
[18]  39(B03) 1f 43 32  0  -1067.1  4092002.6 -0.0  2 0 1374 2264  896
[19]  40(B04) 1f 40 20  0  -1068.1  4092002.7  0.9  2 0 1228 1046  442
[21]  43(B07)  7 44  7  0  -1144.4  4092002.9  0.0  2 0 1730 2737 1259
[22]  44(B08)  7 43  7  0  -1376.1  4092003.5 -0.0  2 0 1775 2348  862
[24]  45(B09)  1  7  7  0   -312.9  4091999.1 -0.2  1 0  383  429  320
[25]  46(B10)  7 44  9  0  -1473.0  4092003.8 -0.0  2 0 1583 2088  837
[26]  47(B11)  7 44  8  0    466.3  4091998.7 -0.1  2 0 1607 2772 1405
[27]  49(B13)  7 43  8  0  -1872.3  4092004.9  0.0  2 0 1762 2705 1374
[28]  54(B18)  7 44  7  0  -1187.7  4092003.0 -0.1  2 0 2656 3224 1302
[29]  59(B23)  7 38  7  0  -2374.9  4092006.1  0.0  2 0 2773 3936 1779
[30]  61(B25)  7 32  7  0    694.5  4091998.1 -0.0  5 0 2991 3706 1064
[32]  77(N-4)  1 25 25  1  -3105.4  1022001.6  0.5  1 0   197  861 1940
[33]  79(N-2)  1 20  7  0    663.5  1022000.5 -0.1  1 0  1135 1711  886
[34]  81(N00)  1 17  7  0  -5250.0  1022005.4 -0.1  1 0   272  391  885
[35]  83(N02)  1 20  7  0   1000.0  1022001.9 -0.0  1 0   589 2294 2456
[48]  37(B01)  f 19 10  0   -705.7 20460012.6  0.1  2 0  363  466  572
[50]  39(B03)  1 13 33  1  -1407.6 20460022.8 -0.1  1 0  861  468  239
[51]  40(B04)  1 23 23  1   -107.3 20460022.8 -0.1  1 0  254  630  783
$GNGGA,081729.832,,,,,0,00,,,M,,,,0000*27
$GNRMC,081729.832,A,,,,,,,200419,,*24
$GPGSA,A,1,,,,,,,,,,,,,,,*1E
$BDGSA,A,1,,,,,,,,,,,,,,,*0F
$GLGSA,A,1,,,,,,,,,,,,,,,*02
$GPGSV,2,1,07,01,00,000,45,07,00,000,44,11,00,000,44,17,00,000,40*78
$GPGSV,2,2,07,18,00,000,43,28,00,000,43,30,00,000,45*4F
$BDGSV,3,1,11,01,00,000,41,03,00,000,43,04,00,000,39,07,00,000,44*63
$BDGSV,3,2,11,08,00,000,43,10,00,000,44,11,00,000,44,13,00,000,43*62
$BDGSV,3,3,11,18,00,000,44,23,00,000,37,25,00,000,31*51
$B3CN0,19,0,0,0,0,0,0,0,0,0,0,0,0,0*74
---00000009--- Acq_st=7 0  2019-4-20 8:17:29 
[00]  00(G01)  f 45  9  0   -451.0  2046000.5  0.0  2 0 2350 4618 1867
[01]  06(G07)  f 44  7  0   1550.4  2045997.9  0.0  2 0 2206 3219 1484
[02]  10(G11)  f 43  7  0    646.4  2045999.1 -0.0  2 0 1754 3163 1596
[03]  16(G17)  f 42  7  0  -2490.6  2046003.2 -0.0  2 0 1973 2198  810
[04]  17(G18)  f 43  7  0   1250.1  2045998.3  0.0  2 0 2024 3045 1273
[06]  27(G28)  7 43  7  0  -2876.1  2046003.7  0.0  2 0 1634 2864 1632
[08]  29(G30)  7 44  8  0   -515.3  2046000.6  0.0  2 0 1886 3830 1912
[16]  37(B01) 1f 41 10  0  -1056.3  4092002.6 -0.3  2 0 1643 1737  656
[17]  38(B02)  7 14 22  0  -2052.0  4092005.2 -0.1  2 0  641  334  492
[18]  39(B03) 1f 43 33  0  -1068.2  4092002.6 -0.0  2 0 1966 2081  746
[19]  40(B04) 1f 40 19  0  -1070.9  4092002.6  0.2  2 0 1268 1263  585
[21]  43(B07)  7 43  7  0  -1141.5  4092002.9 -0.1  2 0 1802 2839 1255
[22]  44(B08)  7 43  7  0  -1373.2  4092003.5 -0.0  2 0 1575 2458 1507
[25]  46(B10)  7 43 11  0  -1472.8  4092003.8  0.0  2 0 1592 2450 1028
[26]  47(B11)  7 43 12  0    465.3  4091998.7  0.0  2 0 2307 3061 1773
[27]  49(B13)  7 43  7  0  -1874.9  4092004.8 -0.0  2 0 1332 2138  695
[28]  54(B18)  7 44  7  0  -1190.7  4092003.0  0.0  2 0 2016 2743 1034
[29]  59(B23)  7 45  9  0  -2376.3  4092006.1 -0.0  2 0 2673 4075 1712
[30]  61(B25)  7 44  7  0    694.3  4091998.1 -0.0  2 0 2406 3192 1494
[32]  77(N-4)  1 31  7  0  -3106.9  1022002.6  1.0  1 0  1403 1885  754
[33]  79(N-2)  1 32 23  0    658.7  1021999.3  1.0  1 0  1208 1668  783
[34]  81(N00)  1 22  7  0  -5122.8  1022003.8  0.3  1 0   490  799  435
[35]  83(N02)  1 31 19  0    952.5  1021999.1  1.0  1 0  2153 2592 1209
[36]  86(N05)  1 31  7  0   1021.5  1021999.7  0.7  1 0  2690 3066 1457
[48]  37(B01)  f 10 18  0  -1052.6 20460015.4  0.1  2 0  440  468  192
[50]  39(B03)  1 20 22  1  -1692.4 20460020.5 -0.0  1 0  515  515  273
[51]  40(B04)  1 13 28  1   -162.3 20460022.3  0.1  1 0  410  295  444
$GNGGA,081730.832,,,,,0,00,,,M,,,,0000*2F
$GNRMC,081730.832,A,,,,,,,200419,,*2C
$GPGSA,A,1,,,,,,,,,,,,,,,*1E
$BDGSA,A,1,,,,,,,,,,,,,,,*0F
$GLGSA,A,1,,,,,,,,,,,,,,,*02
$GPGSV,2,1,07,01,00,000,45,07,00,000,44,11,00,000,44,17,00,000,42*7A
$GPGSV,2,2,07,18,00,000,43,28,00,000,43,30,00,000,44*4E
$BDGSV,3,1,12,01,00,000,41,02,00,000,18,03,00,000,43,04,00,000,41*63
$BDGSV,3,2,12,07,00,000,43,08,00,000,43,10,00,000,43,11,00,000,43*64
$BDGSV,3,3,12,13,00,000,43,18,00,000,44,23,00,000,45,25,00,000,44*60
$B3CN0,36,0,0,0,0,0,0,0,0,0,0,0,0,0*79
---00000010--- Acq_st=7 0  2019-4-20 8:17:30 
[00]  00(G01)  f 46  8  0   -447.0  2046000.5  0.0  2 0 3262 5448 2904
[01]  06(G07)  f 43 12  0   1555.9  2045997.9  0.0  2 0 2442 3658 2341
[02]  10(G11)  f 43 10  0    650.5  2045999.1 -0.0  2 0 2009 3458 1636
[03]  16(G17)  f 42  7  0  -2484.3  2046003.2  0.1  2 0 1834 2112 1178
[04]  17(G18)  f 43  7  0   1252.4  2045998.3 -0.0  2 0 1895 3621 2280
[06]  27(G28)  7 43  7  0  -2871.1  2046003.7  0.0  2 0 1559 3085 1534
[08]  29(G30)  7 44  7  0   -510.9  2046000.6 -0.0  2 0 2992 4972 2072
[16]  37(B01) 1f 41 10  0  -1049.4  4092002.6 -0.5  2 0 1533 1746  652
[17]  38(B02)  7 10 10  0  -2321.0  4092005.8 -0.2  2 0  325  564  517
[18]  39(B03) 1f 43 32  0  -1065.1  4092002.7  0.0  2 0 1928 2413  993
[19]  40(B04) 1f 40 24  0  -1066.5  4092002.7  0.1  2 0 1026 1302  797
[21]  43(B07)  7 43  7  0  -1137.3  4092002.9  0.0  2 0 1738 2246  674
[22]  44(B08)  7 43  7  0  -1372.1  4092003.5  0.0  2 0 1945 2406  845
[25]  46(B10)  7 43  7  0  -1467.9  4092003.7 -0.0  2 0 1605 2252  844
[26]  47(B11)  7 44  7  0    466.5  4091998.7 -0.0  2 0 2642 3821 1902
[27]  49(B13)  7 42  7  0  -1872.6  4092004.8  0.1  2 0 1401 1840  727
[28]  54(B18)  7 44  7  0  -1186.0  4092003.0  0.0  2 0 2407 3277 1747
[29]  59(B23)  7 45  7  0  -2369.3  4092006.1  0.0  2 0 3178 3717 1573
[30]  61(B25)  7 44  7  0    700.9  4091998.1  0.0  2 0 2134 3104 1501
[32]  77(N-4)  1 32  7  0  -3102.4  1022001.6  1.0  1 0  1456 2197  855
[33]  79(N-2)  1 33 25  0    663.7  1021999.3  1.0  1 0   805 1602  685
[34]  81(N00)  7 36  7  0  -5120.7  1022003.2  0.1  2 0   596  605  526
[35]  83(N02)  1 32 18  0    957.5  1021999.2  1.0  1 0  1724 3026 1272
[36]  86(N05)  1 33 11  0   1026.5  1021999.1  1.0  1 0  2097 2968 1466
[48]  37(B01)  f 13 22  0  -1033.2 20460018.3  0.0  2 0  640  186  671
---00000011--- Acq_st=3 0  2019-4-20 8:17:31 
[00]  00(G01)  f 45  7  0   -445.7  2046000.5  0.0  2 0 3343 5297 2476
[01]  06(G07)  f 45  7  0   1556.4  2045997.9 -0.1  2 0 2960 3696 1492
[02]  10(G11)  f 44  7  0    651.7  2045999.1  0.0  2 0 2314 3019 1254
[03]  16(G17)  f 42  7  0  -2488.6  2046003.1  0.0  2 0 1400 1884 1036
[04]  17(G18)  f 43  7  0   1252.6  2045998.3  0.0  2 0 1923 2733 1189
[05]  02(G03)  1  7  7  0  -3685.7  2046004.7 -0.1  1 0  903  389  277
[06]  27(G28)  f 43  7  0  -2867.7  2046003.7  0.0  2 0 2352 3333 1374
[08]  29(G30)  f 45  7  0   -510.8  2046000.6  0.0  2 0 3250 4911 2260
[09]  12(G13)  1  7  7  0   -750.0  2045999.9  0.0  1 0  615  556  389
[16]  37(B01) 1f 41 22  0  -1050.3  4092002.6 -0.2  2 0 1493 2013  715
[18]  39(B03) 1f 43 32  0  -1062.0  4092002.5 -0.1  2 0 1248 1633  521
[19]  40(B04) 1f 39 23  0  -1070.3  4092002.5 -0.2  2 0 1125 1127  279
[21]  43(B07)  7 43  7  0  -1137.8  4092002.9 -0.0  2 0 1937 2524 1243
[22]  44(B08)  7 42  7  0  -1374.3  4092003.5 -0.0  2 0 1437 1655 1036
[25]  46(B10)  7 43 13  0  -1469.7  4092003.7  0.0  2 0 2072 2911 1237
[26]  47(B11)  7 44  7  0    467.7  4091998.7  0.0  2 0 2362 3038 1569
[27]  49(B13)  7 42  7  0  -1871.7  4092004.8  0.0  2 0 1518 2334 1033
[28]  54(B18)  7 44  7  0  -1189.0  4092003.0 -0.0  2 0 2924 3152 1109
[29]  59(B23)  7 44  7  0  -2372.7  4092006.1 -0.0  2 0 2810 4121 2164
[30]  61(B25)  7 44  7  0    699.3  4091998.0  0.0  2 0 3042 3719 1708
[32]  77(N-4)  1 33  7  0  -3101.0  1022001.8  1.0  1 0  1168 2205  830
[33]  79(N-2)  7 45 24  0    665.6  1021999.6 -0.1  2 0  1310 1972  853
[34]  81(N00)  7 36  7  0  -5120.9  1022003.3 -0.1  2 0   668  664   92
[35]  83(N02)  1 32 22  0    958.6  1021999.3  1.0  1 0  1776 3216 1835
[36]  86(N05)  7 30  7  0   1029.4  1021999.3  0.5  5 0  1741 3309 1208
[48]  37(B01)  f 10 22  0  -1116.8 20460016.8 -0.2  2 0  280  370  315
[50]  39(B03)  1 10 10  0   -558.3 20460014.9  0.0  1 0  336  354  237
[51]  40(B04)  1 20 10  0  -1064.4 20460017.6 -0.1  1 0  455  618  172
$GNGGA,081731.832,,,,,0,00,,,M,,,,0000*2E
$GNRMC,081731.832,A,,,,,,,200419,,*2D
$GPGSA,A,1,,,,,,,,,,,,,,,*1E
$BDGSA,A,1,,,,,,,,,,,,,,,*0F
$GLGSA,A,1,,,,,,,,,,,,,,,*02
$GPGSV,2,1,07,01,00,000,45,07,00,000,45,11,00,000,44,17,00,000,42*7B
$GPGSV,2,2,07,18,00,000,43,28,00,000,43,30,00,000,45*4F
$BDGSV,3,1,11,01,00,000,41,03,00,000,43,04,00,000,39,07,00,000,43*64
$BDGSV,3,2,11,08,00,000,42,10,00,000,43,11,00,000,44,13,00,000,42*65
$BDGSV,3,3,11,18,00,000,44,23,00,000,44,25,00,000,44*57
$B3CN0,0,0,0,0,0,0,0,0,0,0,0,0,0,0*4C
---00000012--- Acq_st=3 0  2019-4-20 8:17:32 
[00]  00(G01)  f 45  7  0   -448.5  2046000.5  0.0  2 0 2654 4659 2043
[01]  06(G07)  f 45  7  0   1558.0  2045997.9 -0.0  2 0 2739 3804 1867
[02]  10(G11)  f 44  7  0    650.2  2045999.1 -0.0  2 0 1802 3079 1874
[03]  16(G17)  f 41  7  0  -2487.3  2046003.2  0.1  2 0 1368 2419 1206
[04]  17(G18)  f 43  7  0   1253.1  2045998.3  0.0  2 0 1058 3181 1894
[05]  02(G03)  1  7  7  0  -3543.9  2046004.9  0.1  1 0  511  514   19
[06]  27(G28)  f 43  7  0  -2872.7  2046003.7  0.0  2 0 1623 3607 1655
[08]  29(G30)  f 45  7  0   -511.1  2046000.6  0.0  2 0 2729 4032 1713
[09]  12(G13)  1  7  7  0   -610.5  2045999.7 -0.1  1 0  204  112  375
[10]  21(G22)  1 12  7  0  -2582.3  2046005.5  0.0  1 0  511  955 1308
[16]  37(B01) 1f 42 13  0  -1050.2  4092002.7  0.8  2 0 1192 1607  587
[18]  39(B03) 1f 45 33  0  -1063.9  4092002.6  0.1  2 0 1858 2111  562
[19]  40(B04) 1f 39 10  0  -1066.7  4092002.6 -0.6  2 0  839 1428 1056
[21]  43(B07)  7 42  7  0  -1143.7  4092002.9  0.0  2 0 1423 2288 1068
[22]  44(B08)  7 42  7  0  -1372.3  4092003.5  0.0  2 0 1754 1905  386
[25]  46(B10)  7 43  7  0  -1470.2  4092003.7 -0.0  2 0 2177 2964 1307
[26]  47(B11)  7 43  7  0    465.5  4091998.7  0.0  2 0 2301 2638 1076
[27]  49(B13)  7 42  7  0  -1872.4  4092004.8 -0.0  2 0 1979 2581 1243
[28]  54(B18)  7 43  7  0  -1189.6  4092003.0  0.0  2 0 2724 3392 1591
[29]  59(B23)  7 44  7  0  -2371.0  4092006.1  0.1  2 0 2802 3866 2009
[30]  61(B25)  7 44  7  0    697.4  4091998.1 -0.0  2 0 2363 3242 1253
[32]  77(N-4)  f 14  7  0  -3101.9  1022002.0  1.0 10 0  1114 1924  866
[33]  79(N-2)  7 45 23  0    663.1  1021999.5 -0.2  2 0  1118 2176 1015
[34]  81(N00)  7 36  7  0  -5121.0  1022003.2  0.1  2 0   404  470  189
[35]  83(N02)  1 32 16  0    957.3  1021999.4  1.0  1 0  1627 3178 1691
[36]  86(N05)  7 48 13  0   1028.0  1021999.3  0.1  2 0  2025 3424 1827
[48]  37(B01)  f 10 30  1  -1344.7 20460021.0 -0.0  2 0  535  131  303
[50]  39(B03)  1 10 26  1    -83.6 20460018.5  0.2  1 0  470  357  339
[51]  40(B04)  1 22 28  1   -555.5 20460024.2 -0.1  1 0  219  540  501
$GNGGA,081732.832,,,,,0,00,,,M,,,,0000*2D
$GNRMC,081732.832,A,,,,,,,200419,,*2E
$GPGSA,A,1,,,,,,,,,,,,,,,*1E
$BDGSA,A,1,,,,,,,,,,,,,,,*0F
$GLGSA,A,1,,,,,,,,,,,,,,,*02
$GPGSV,2,1,07,01,00,000,45,07,00,000,45,11,00,000,44,17,00,000,41*78
$GPGSV,2,2,07,18,00,000,43,28,00,000,43,30,00,000,45*4F
$BDGSV,3,1,11,01,00,000,42,03,00,000,45,04,00,000,39,07,00,000,42*60
$BDGSV,3,2,11,08,00,000,42,10,00,000,43,11,00,000,43,13,00,000,42*62
$BDGSV,3,3,11,18,00,000,43,23,00,000,44,25,00,000,44*50
$B3CN0,0,0,0,0,0,0,0,0,0,0,0,0,0,0*4C
---00000013--- Acq_st=3 0  2019-4-20 8:17:33 
[00]  00(G01)  f 45  7  0   -445.1  2046000.5 -0.1  2 0 2826 4619 1817
[01]  06(G07)  f 45  7  0   1557.4  2045997.9 -0.0  2 0 2749 3899 1518
[02]  10(G11)  f 44  7  0    651.5  2045999.1  0.0  2 0 2254 3014 1022
[03]  16(G17)  f 41  7  0  -2488.7  2046003.2 -0.1  2 0 1986 2641 1148
[04]  17(G18)  f 44  7  0   1253.7  2045998.3 -0.1  2 0 1309 2851 1237
[05]  02(G03)  1  7  7  0  -3412.9  2046005.1 -0.1  1 0  460  542  354
[06]  27(G28)  f 44  7  0  -2870.3  2046003.7  0.0  2 0 1812 2773  793
[08]  29(G30)  f 45  7  0   -511.1  2046000.6 -0.0  2 0 3059 4647 2374
[09]  12(G13)  1  7  9  0     26.0  2046000.2 -0.0  1 0  605  412  215
[10]  21(G22)  1 28  7  0  -2585.2  2046003.5  0.4  1 0 1384 1773  646
[16]  37(B01) 1f 40 10  0  -1048.7  4092002.6 -0.2  2 0 1669 2237 1417
[17]  41(B05)  1 14 23  1  -1200.7  4092002.2 -0.3  1 0  593  351 1427
[18]  39(B03) 1f 45 33  0  -1063.8  4092002.6 -0.0  2 0 1763 2466 1111
[19]  40(B04) 1f 40 21  0  -1065.5  4092002.6  0.3  2 0 1201 1208  742
[21]  43(B07) 1f 42  7  0  -1137.5  4092002.9 -0.0  2 0 1359 2077 1219
[22]  44(B08) 1f 42  7  0  -1374.9  4092003.5 -0.0  2 0 1904 2325  850
[25]  46(B10) 1f 43  7  0  -1474.0  4092003.7 -0.0  2 0 1727 2695 1111
[26]  47(B11) 1f 43  7  0    468.6  4091998.7  0.0  2 0 2233 3176 1549
[27]  49(B13) 1f 42  7  0  -1869.8  4092004.8  0.1  2 0  777 1899  858
[28]  54(B18) 1f 44  7  0  -1186.7  4092003.0 -0.1  2 0 1920 3050 1868
[29]  59(B23) 1f 44  7  0  -2369.1  4092006.1 -0.0  2 0 2970 3625 1303
[30]  61(B25) 1f 44  7  0    699.9  4091998.0  0.0  2 0 2402 3211 1108
[32]  77(N-4)  f 29  7  0  -3100.4  1022002.0 -0.1  5 0  1006 1883  816
[33]  79(N-2)  7 45 25  0    664.4  1021999.5 -0.1  2 0   799 2020 1325
[34]  81(N00)  7 36  7  0  -5121.3  1022003.2  0.2  2 0   845 1013  294
[36]  86(N05)  7 48  9  0   1029.8  1021999.3 -0.0  2 0  1887 3320 1358
[48]  37(B01)  f 10 34  1  -1340.0 20460021.5 -0.1  2 0  428  175  248
[50]  39(B03)  1 10 10  0     28.7 20460021.6 -0.1  1 0  122  321  225
[51]  40(B04)  1 24 28  1   -483.5 20460021.1  0.1  1 0  273  301  406
$GNGGA,081733.701,2944.9062,N,10633.0902,E,1,10,1.5,319.7,M,,,,0000*1A
$GNRMC,081733.701,A,2944.9062,N,10633.0902,E,0.51,0.00,200419,,*15
$GPGSA,A,3,,,,,,,,,,,,,3.2,1.5,2.8*3D
$BDGSA,A,3,01,03,04,07,08,10,11,13,23,25,,,3.2,1.5,2.8*20
$GLGSA,A,3,,,,,,,,,,,,,3.2,1.5,2.8*21
$GPGSV,2,1,07,01,00,000,45,07,00,000,45,11,00,000,44,17,00,000,41*78
$GPGSV,2,2,07,18,00,000,44,28,00,000,44,30,00,000,45*4F
$BDGSV,3,1,11,01,00,000,40,03,00,000,45,04,00,000,40,07,00,000,42*6C
$BDGSV,3,2,11,08,00,000,42,10,00,000,43,11,00,000,43,13,00,000,42*62
$BDGSV,3,3,11,18,00,000,44,23,00,000,44,25,00,000,44*57
$B3CN0,0,0,0,0,0,0,0,0,0,0,0,0,0,0*4C
---00000014--- Acq_st=3 0  2019-4-20 8:17:34 
[00]  00(G01)  f 45  7  0   -448.1  2046000.5  0.0  2 0 2904 4608 2037
[01]  06(G07)  f 45  7  0   1553.4  2045997.9  0.0  2 0 2226 3810 1959
[02]  10(G11)  f 44  8  0    646.7  2045999.1  0.0  2 0 2298 3313 2256
[03]  16(G17)  f 42  7  0  -2491.3  2046003.2 -0.0  2 0 1676 2249 1624
[04]  17(G18)  f 44  7  0   1249.8  2045998.3  0.0  2 0 2271 3020 1505
[05]  02(G03)  1  7  7  0  -3013.4  2046005.9  0.1  1 0  405  674  839
[06]  27(G28)  f 43  7  0  -2876.9  2046003.7  0.0  2 0 2082 3419 2054
[08]  29(G30)  f 45  7  0   -516.2  2046000.6 -0.0  2 0 3323 4918 2583
[09]  12(G13)  1  7 12  0     85.8  2046000.0  0.1  1 0  657  622  387
[10]  21(G22)  7 38  7  0  -2582.1  2046003.2  0.0  2 0  883 1427  532
[16]  37(B01) 1f 41 22  0  -1056.4  4092002.6 -0.1  2 0 1110 1359  677
[17]  41(B05)  7 37 28  0  -1109.1  4092003.0  0.3  2 0  814 1540  818
[18]  39(B03) 1f 43 31  0  -1070.6  4092002.7  0.1  2 0 1728 2144  909
[19]  40(B04) 1f 39 10  0  -1073.4  4092002.8 -0.0  2 0  661 1013  608
[21]  43(B07) 1f 43  7  0  -1145.6  4092002.9  0.1  2 0 1730 2379  912
[22]  44(B08) 1f 42  7  0  -1375.5  4092003.5  0.0  2 0 1590 2047  715
[25]  46(B10) 1f 43 11  0  -1474.9  4092003.7 -0.0  2 0 1834 2752 1282
[26]  47(B11) 1f 43  8  0    464.7  4091998.7  0.0  2 0 2294 2989 1165
[27]  49(B13) 1f 42  7  0  -1875.5  4092004.8  0.0  2 0 1491 2327 1150
[28]  54(B18) 1f 44  7  0  -1194.5  4092003.0  0.1  2 0 2819 3218 1041
[29]  59(B23) 1f 44  7  0  -2373.7  4092006.1  0.0  2 0 2868 3312 1036
[30]  61(B25) 1f 44  7  0    694.5  4091998.1 -0.0  2 0 1918 2844 1268
[32]  77(N-4)  f 27  7  0  -3103.9  1022001.9 -0.1  5 0  1316 2563 1159
[33]  79(N-2)  f 35 19  0    661.0  1021999.6  0.2  2 0  1078 1874 1067
[34]  81(N00)  f 32  7  0  -5124.8  1022003.2 -0.0  5 0   302  562  266
[36]  86(N05)  f 35  7  0   1025.2  1021999.3 -0.0  2 0  1618 3255 1554
[48]  37(B01)  f 36 29  0  -1359.7 20460021.5 -0.1  2 0  367  510  516
[50]  39(B03)  1 21 30  1   -130.3 20460020.5 -0.0  1 0  492  848  641
[51]  40(B04)  1 25 14  0   -637.4 20460023.1  0.0  1 0  368  991 1097
[53]  43(B07)  1  7  7  0   -639.5 20460017.3  0.1  1 0  328  173  281
[54]  44(B08)  1  7 11  0  -1232.4 20460020.8  0.1  1 0  535  175  381
[57]  46(B10)  1  7  7  0   -888.0 20460022.2 -0.0  1 0  385  668  868
[58]  47(B11)  1  7  7  0    380.3 20459993.1 -0.1  1 0  331  616  351
[59]  49(B13)  1  7  7  0  -1275.2 20460029.8 -0.1  1 0  462  404  455
[60]  54(B18)  1  7  7  0   -785.1 20460018.4  0.2  1 0  235  461 1030
[61]  59(B23)  1  7  7  0  -1794.8 20460037.3  0.1  1 0  580  612  341
[62]  61(B25)  1  7  7  0    585.5 20459989.7  0.0  1 0  217  252  485
$GNGGA,081735.000,2944.9061,N,10633.0901,E,1,10,1.5,319.4,M,,,,0000*19
$GNRMC,081735.000,A,2944.9061,N,10633.0901,E,0.20,0.00,200419,,*13
$GPGSA,A,3,,,,,,,,,,,,,3.2,1.5,2.8*3D
$BDGSA,A,3,01,03,04,07,08,10,11,13,23,25,,,3.2,1.5,2.8*20
$GLGSA,A,3,,,,,,,,,,,,,3.2,1.5,2.8*21
$GPGSV,2,1,08,01,00,000,45,07,00,000,45,11,00,000,44,17,00,000,42*74
$GPGSV,2,2,08,18,00,000,44,28,00,000,43,30,00,000,45,22,00,000,38*7C
$BDGSV,3,1,12,01,00,000,41,05,00,000,37,03,00,000,43,04,00,000,39*66
$BDGSV,3,2,12,07,00,000,43,08,00,000,42,10,00,000,43,11,00,000,43*65
$BDGSV,3,3,12,13,00,000,42,18,00,000,44,23,00,000,44,25,00,000,44*60
$B3CN0,36,0,0,0,0,0,0,0,0,0,0,0,0,0*79
---00000015--- Acq_st=3 0  2019-4-20 8:17:35 
[00]  00(G01)  f 45  7  0   -450.6  2046000.5  0.0  2 0 2413 4097 1509
[01]  06(G07)  f 45  7  0   1555.1  2045997.9  0.0  2 0 2234 3713 1936
[02]  10(G11)  f 44  8  0    648.4  2045999.1 -0.1  2 0 2580 3811 1791
[03]  16(G17)  f 42  7  0  -2488.0  2046003.2  0.1  2 0 1866 2260 1144
[04]  17(G18)  f 44  7  0   1255.0  2045998.3 -0.0  2 0 1794 2622  970
[06]  27(G28)  f 44  7  0  -2875.4  2046003.7 -0.0  2 0 2240 3165 1664
[08]  29(G30)  f 45 11  0   -513.1  2046000.6 -0.0  2 0 2614 4758 2435
[09]  12(G13)  1  7  7  0     37.1  2046000.4 -0.1  1 0  165  299  487
[10]  21(G22)  7 39  7  0  -2585.1  2046003.3  0.3  2 0  454 1133  561
[16]  37(B01) 1f 41 10  0  -1055.7  4092002.6 -0.7  2 0 1800 1880  768
[17]  41(B05)  f 40 10  0  -1107.5  4092002.9 -0.3  2 0  629 1133  421
[18]  39(B03) 1f 45 34  0  -1070.7  4092002.7  0.4  2 0 1796 2342 1134
[19]  40(B04) 1f 41 22  0  -1072.2  4092002.6  0.1  2 0 1323 1105  167
[20]  64(B28)  1  7  7  0  -3250.0  4092008.8  0.0  1 0 1194 2228 1414
[21]  43(B07) 1f 42  7  0  -1141.8  4092002.9 -0.0  2 0 1828 2561 1344
[22]  44(B08) 1f 43  8  0  -1376.3  4092003.5 -0.1  2 0 1337 1845  772
[25]  46(B10) 1f 43 10  0  -1477.0  4092003.7 -0.0  2 0 1722 2579 1259
[26]  47(B11) 1f 44  7  0    461.1  4091998.7 -0.0  2 0 2480 2988 1634
[27]  49(B13) 1f 42  7  0  -1875.3  4092004.8  0.1  2 0 1659 2462 1411
[28]  54(B18) 1f 45  7  0  -1190.8  4092003.0 -0.0  2 0 2525 3230 1361
[29]  59(B23) 1f 44  7  0  -2375.0  4092006.1 -0.0  2 0 3321 4063 1894
[30]  61(B25) 1f 44  7  0    696.5  4091998.1 -0.0  2 0 2092 2798 1139
[32]  77(N-4)  f 30  7  0  -3104.9  1022001.9 -0.1  5 0  1308 2065 1254
[33]  79(N-2)  f 44  7  0    661.4  1021999.6 -0.1  2 0  1021 1562  616
[34]  81(N00)  f 36  7  0  -5123.4  1022003.3  0.1  2 0   225  564  414
[36]  86(N05)  f 46  7  0   1025.3  1021999.3  0.0  2 0  1781 3200 1214
[48]  37(B01)  f 18 34  1  -1345.1 20460021.0  0.2  2 0   60  328  300
[53]  43(B07)  1  7  7  0   -752.8 20460017.9 -0.1  1 0  523  769  621
[54]  44(B08)  1  7  7  0  -1198.4 20460020.6  0.2  1 0  506  491   59
[57]  46(B10)  1  7  7  0   -855.4 20460023.5  0.0  1 0  511  645  475
[58]  47(B11)  7 23  7  0    366.6 20459992.8  0.1 10 0  748  667  185
[59]  49(B13)  1  7  7  0  -1298.4 20460029.1 -0.1  1 0  107  558  487
[60]  54(B18)  1  7  7  0  -1346.3 20460019.1  0.0  1 0  634  629  532
[61]  59(B23)  1  7  7  0  -1500.4 20460037.0  0.1  1 0  444  314  250
[62]  61(B25)  1  7  8  0   1025.1 20459990.2  0.1  1 0  783  454  565
$GNGGA,081736.000,2944.9067,N,10633.0916,E,1,11,1.2,323.1,M,,,,0000*10
$GNRMC,081736.000,A,2944.9067,N,10633.0916,E,0.28,0.00,200419,,*18
$GPGSA,A,3,,,,,,,,,,,,,2.1,1.2,1.7*34
$BDGSA,A,3,01,03,04,05,07,08,10,11,13,23,25,,2.1,1.2,1.7*2C
$GLGSA,A,3,,,,,,,,,,,,,2.1,1.2,1.7*28
$GPGSV,2,1,08,01,00,000,45,07,00,000,45,11,00,000,44,17,00,000,42*74
$GPGSV,2,2,08,18,00,000,44,28,00,000,44,30,00,000,45,22,00,000,39*7A
$BDGSV,3,1,12,01,40,125,41,05,27,244,40,03,55,171,45,04,23,109,40*65
$BDGSV,3,2,12,07,65,097,42,08,81,169,43,10,77,008,43,11,57,019,44*6A
$BDGSV,3,3,12,13,55,205,42,18,00,000,45,23,59,306,44,25,60,165,44*6B
$B3CN0,17,0,0,0,0,0,0,0,0,0,23,0,0,0*4B
---00000016--- Acq_st=3 0  2019-4-20 8:17:36 
[00]  00(G01)  f 45  7  0   -448.1  2046000.5 -0.0  2 0 3045 4656 1962
[01]  06(G07)  f 45  7  0   1553.0  2045997.9  0.0  2 0 2836 4189 2167
[02]  10(G11)  f 44  7  0    650.4  2045999.1  0.0  2 0 2022 2751  880
[03]  16(G17)  f 42  7  0  -2494.4  2046003.2  0.0  2 0  823 2319 1412
[04]  17(G18)  f 43  7  0   1250.2  2045998.3  0.0  2 0 1936 2727 1387
[06]  27(G28)  f 43  7  0  -2880.5  2046003.7  0.0  2 0 2063 2637 1355
[08]  29(G30)  f 45  7  0   -513.7  2046000.6 -0.0  2 0 2988 4739 1916
[10]  21(G22)  7 39  7  0  -2586.0  2046003.3  0.0  2 0  686 1185  230
[16]  37(B01) 1f 41 18  0  -1053.4  4092002.7 -0.1  2 0 1375 1557  511
[17]  41(B05) 1f 39 29  0  -1110.9  4092002.8  0.6  2 0  509 1098  324
[18]  39(B03) 1f 45 31  0  -1072.6  4092002.7 -0.3  2 0 1694 2075  756
[19]  40(B04) 1f 40 25  0  -1070.6  4092002.6 -0.6  2 0  634 1328 1132
[20]  64(B28)  1  7 11  0  -3042.5  4092007.8  0.3  1 0 1712 2670 1025
[21]  43(B07) 1f 43  7  0  -1146.3  4092002.9 -0.0  2 0 1988 2409 1018
[22]  44(B08) 1f 43  7  0  -1377.8  4092003.5 -0.0  2 0 1212 2005  980
[25]  46(B10) 1f 44 11  0  -1472.6  4092003.7 -0.0  2 0 2201 2864  838
[26]  47(B11) 1f 44 11  0    463.5  4091998.7  0.0  2 0 3295 3147 1112
[27]  49(B13) 1f 43  7  0  -1873.6  4092004.8 -0.1  2 0 2207 2331 1010
[28]  54(B18) 1f 44  7  0  -1195.8  4092003.0 -0.0  2 0 2856 3278 1562
[29]  59(B23) 1f 45  7  0  -2374.4  4092006.1 -0.0  2 0 2882 3720 1523
[30]  61(B25) 1f 45  7  0    695.1  4091998.1  0.0  2 0 2704 3915 1738
[32]  77(N-4)  f 31  7  0  -3104.4  1022001.9 -0.1  5 0  1250 1882  812
[33]  79(N-2)  f 44  9  0    663.0  1021999.5  0.1  2 0  1104 1750  922
[34]  81(N00)  f 37  7  0  -5127.0  1022003.2 -0.1  2 0   601  783  651
[36]  86(N05)  f 46  7  0   1025.1  1021999.3 -0.1  2 0  1776 3372 1443
[48]  37(B01)  f 16 32  1  -1348.4 20460021.2  0.1  2 0  243  161   88
[49]  41(B05)  1 26 26  1   -886.5 20460018.4 -0.0  1 0  523  240  572
[50]  39(B03)  1 10 10  0   -974.2 20460019.0  0.1  1 0  172  695 1027
[51]  40(B04)  1 26 10  0   -786.2 20460013.8  0.0  1 0  399  366  543
[53]  43(B07)  1  7  7  0   -175.2 20460017.9  0.2  1 0  194  379  261
[54]  44(B08)  1  7  7  0  -1545.8 20460022.5 -0.1  1 0  518  597   92
[57]  46(B10)  1  7  7  0  -1126.4 20460024.1 -0.0  1 0  667  447  137
[58]  47(B11)  7 31  7  0    372.8 20459993.3  0.1  5 0  967  968  388
[59]  49(B13)  1  7  7  0  -2161.1 20460028.6  0.1  1 0  267  348  818
[60]  54(B18)  1  7  7  0   -809.1 20460017.9 -0.0  1 0  403  435  683
[61]  59(B23)  1  7  7  0  -1513.0 20460038.2 -0.0  1 0  348  436  348
[62]  61(B25)  1  7  7  0   1107.4 20459988.8  0.1  1 0  283  125  175
$GNGGA,081737.000,2944.9065,N,10633.0914,E,1,11,1.2,323.7,M,,,,0000*17
$GNRMC,081737.000,A,2944.9065,N,10633.0914,E,0.34,0.00,200419,,*14
$GPGSA,A,3,,,,,,,,,,,,,2.1,1.2,1.7*34
$BDGSA,A,3,01,03,04,05,07,08,10,11,13,23,25,,2.1,1.2,1.7*2C
$GLGSA,A,3,,,,,,,,,,,,,2.1,1.2,1.7*28
$GPGSV,2,1,08,01,00,000,45,07,00,000,45,11,00,000,44,17,00,000,42*74
$GPGSV,2,2,08,18,00,000,43,28,00,000,43,30,00,000,45,22,00,000,39*7A
$BDGSV,3,1,12,01,40,125,41,05,27,244,39,03,55,171,45,04,23,109,40*6B
$BDGSV,3,2,12,07,65,097,43,08,81,169,43,10,77,008,44,11,57,019,44*6C
$BDGSV,3,3,12,13,55,205,43,18,00,000,44,23,59,306,45,25,60,165,45*6B
$B3CN0,0,0,0,0,0,0,0,0,0,0,31,0,0,0*7E
---00000017--- Acq_st=7 0  2019-4-20 8:17:37 
[00]  00(G01)  f 45  7  0   -447.9  2046000.5  0.1  2 0 2514 4552 2148
[01]  06(G07)  f 45  7  0   1552.4  2045997.9  0.0  2 0 2934 4027 1879
[02]  10(G11)  f 44  7  0    646.5  2045999.1 -0.0  2 0 2200 3560 1682
[03]  16(G17)  f 42  7  0  -2490.9  2046003.2 -0.1  2 0 1658 2363 1288
[04]  17(G18)  f 44  7  0   1249.2  2045998.3 -0.1  2 0 1423 2976 1454
[06]  27(G28)  f 44  7  0  -2879.3  2046003.7  0.0  2 0 1750 2589 1224
[08]  29(G30)  f 45  8  0   -516.0  2046000.6  0.0  2 0 2290 4352 2508
[10]  21(G22)  f 39  7  0  -2591.7  2046003.3  0.0  2 0  738 1677  713
[16]  37(B01) 1f 40 10  0  -1058.1  4092002.7 -0.2  2 0 1472 1535  779
[17]  41(B05) 1f 38 14  0  -1110.0  4092002.8  0.7  2 0 1002 1337  633
[18]  39(B03) 1f 43 32  0  -1072.0  4092002.7  0.3  2 0 1200 2031 1048
[19]  40(B04) 1f 40 20  0  -1071.8  4092002.7  0.5  2 0 1531 1563  423
[20]  64(B28)  7 34  7  0  -3041.9  4092007.9  0.1  5 0  680 2049 1070
[21]  43(B07) 1f 43  7  0  -1145.1  4092002.9  0.0  2 0 1654 2209 1138
[22]  44(B08) 1f 43  7  0  -1376.3  4092003.5  0.0  2 0 1566 1988  809
[25]  46(B10) 1f 44 10  0  -1477.0  4092003.8  0.0  2 0 2369 2880 1067
[26]  47(B11) 1f 44  9  0    459.1  4091998.7 -0.0  2 0 2287 3306 1877
[27]  49(B13) 1f 43  7  0  -1874.8  4092004.8  0.0  2 0 2031 2291  905
[28]  54(B18) 1f 44  7  0  -1192.8  4092003.0  0.0  2 0 2704 3394 1483
[29]  59(B23) 1f 45  7  0  -2376.3  4092006.1  0.0  2 0 3433 4472 1911
[30]  61(B25) 1f 45  7  0    693.9  4091998.1 -0.1  2 0 2535 3499 1556
[32]  77(N-4)  f 33  7  0  -3104.3  1022002.0  0.1  2 0  1435 2199  912
[33]  79(N-2)  f 44 16  0    660.9  1021999.5 -0.1  2 0   588 1249  927
[34]  81(N00)  f 37  7  0  -5127.7  1022003.3 -0.2  2 0   708  830  638
[36]  86(N05)  f 46  7  0   1023.8  1021999.3  0.0  2 0  1939 3323 1841
[48]  37(B01)  f 20 36  1  -1343.5 20460022.3  0.0  2 0  607  760  705
[49]  41(B05)  1 23 26  1  -1557.3 20460017.3 -0.0  1 0  573  795  504
[50]  39(B03)  1 18 10  0   -935.5 20460020.2  0.1  1 0  266  383  569
[51]  40(B04)  1 20 10  0   -892.6 20460023.0 -0.1  1 0  156  387  627
[53]  43(B07)  1  7  7  0    -66.9 20460017.9  0.1  1 0  455  130  318
[54]  44(B08)  1  7  7  0  -1525.7 20460023.7 -0.0  1 0  218  129  269
[57]  46(B10)  1  7  7  0   -246.1 20460023.5 -0.2  1 0  434  270   66
[58]  47(B11)  7 31  7  0    366.5 20459993.2 -0.0  5 0 1303  616  496
[59]  49(B13)  1  7  9  0  -2021.0 20460028.5  0.0  1 0  349  128  624
[60]  54(B18)  1  7  7  0   -858.0 20460018.1 -0.0  1 0  562  671  651
[61]  59(B23)  1  7  7  0  -1355.2 20460039.5 -0.0  1 0  686  460  179
[62]  61(B25)  1  7  7  0   1290.6 20459989.9  0.2  1 0  814  600  154
$GNGGA,081738.000,2944.9066,N,10633.0912,E,1,11,1.2,323.0,M,,,,0000*1A
$GNRMC,081738.000,A,2944.9066,N,10633.0912,E,0.22,0.00,200419,,*19
$GPGSA,A,3,,,,,,,,,,,,,2.1,1.2,1.7*34
$BDGSA,A,3,01,03,04,05,07,08,10,11,13,23,25,,2.1,1.2,1.7*2C
$GLGSA,A,3,,,,,,,,,,,,,2.1,1.2,1.7*28
$GPGSV,2,1,08,01,00,000,45,07,00,000,45,11,00,000,44,17,00,000,42*74
$GPGSV,2,2,08,18,00,000,44,28,00,000,44,30,00,000,45,22,00,000,39*7A
$BDGSV,3,1,12,01,40,125,40,05,27,244,38,03,55,171,43,04,23,109,40*6D
$BDGSV,3,2,12,28,31,247,33,07,65,097,43,08,81,169,43,10,77,008,44*6F
$BDGSV,3,3,12,11,57,019,44,13,55,205,43,18,00,000,44,23,59,306,45*63
$B3CN0,20,0,0,0,0,0,0,0,0,0,31,0,0,0*4C
---00000018--- Acq_st=7 0  2019-4-20 8:17:38 
[00]  00(G01)  f 45  7  0   -452.0  2046000.5 -0.0  2 0 2807 4804 2078
[01]  06(G07)  f 45  9  0   1550.5  2045997.9 -0.1  2 0 3421 4382 2189
[02]  10(G11)  f 44  8  0    642.9  2045999.1 -0.0  2 0 1809 2731 1565
[03]  16(G17)  f 42  7  0  -2493.7  2046003.2  0.1  2 0 1584 2851 1802
[04]  17(G18)  f 43  7  0   1247.8  2045998.3 -0.0  2 0 1993 3373 1594
[06]  27(G28)  f 43  7  0  -2883.0  2046003.7 -0.1  2 0 2504 3673 1717
[08]  29(G30)  f 45  7  0   -514.2  2046000.6 -0.0  2 0 2612 4414 2482
[10]  21(G22)  f 39  7  0  -2592.6  2046003.3  0.1  2 0  825 2174 1605
[16]  37(B01) 1f 41 10  0  -1060.6  4092002.6  0.5  2 0 1126 1628  522
[17]  41(B05) 1f 38 27  0  -1116.4  4092002.7 -0.8  2 0 1225 1395  335
[18]  39(B03) 1f 45 32  0  -1074.3  4092002.7  0.3  2 0 1711 2229 1341
[19]  40(B04) 1f 40 23  0  -1077.7  4092002.8 -0.1  2 0  778 1085  544
[20]  64(B28)  7 41  7  0  -3041.3  4092007.9  0.0  2 0  804 1070  264
[21]  43(B07) 1f 42  7  0  -1149.5  4092002.9  0.0  2 0 1960 2160  794
[22]  44(B08) 1f 43  7  0  -1381.0  4092003.5 -0.0  2 0 1741 2156  829
[25]  46(B10) 1f 43  7  0  -1480.2  4092003.8 -0.0  2 0 1847 2384  982
[26]  47(B11) 1f 43  7  0    457.5  4091998.7 -0.0  2 0 2503 3434 1734
[27]  49(B13) 1f 42  7  0  -1881.7  4092004.8 -0.1  2 0 1989 2630 1220
[28]  54(B18) 1f 44  7  0  -1196.1  4092003.0 -0.0  2 0 1829 2697 1155
[29]  59(B23) 1f 45  7  0  -2377.9  4092006.1 -0.0  2 0 3105 4171 1791
[30]  61(B25) 1f 44  7  0    691.1  4091998.1  0.0  2 0 2473 3361 1083
[32]  77(N-4)  f 30  7  0  -3107.9  1022001.9  0.1  5 0  1220 1725  780
[33]  79(N-2)  f 44  7  0    657.3  1021999.6 -0.1  2 0  1362 1764  756
[34]  81(N00)  f 37  7  0  -5129.7  1022003.3 -0.0  2 0   188  529  177
[36]  86(N05)  f 47  7  0   1021.7  1021999.3 -0.0  2 0  1693 3238 1725
[48]  37(B01)  f 20 35  1  -1351.8 20460022.5 -0.0  2 0  119  431  430
[49]  41(B05)  1 25 10  1  -1930.3 20460021.7  0.1  1 0  431  363  427
[50]  39(B03)  1 16 10  0   -999.0 20460020.7 -0.2  1 0  155  246  209
[51]  40(B04)  1 22 34  1  -1482.3 20460024.6 -0.1  1 0  232  453  326
[58]  47(B11)  7 31  7  0    363.5 20459993.9  0.0  5 0  311  447  582
$GNGGA,081739.000,2944.9067,N,10633.0910,E,1,11,1.2,323.1,M,,,,0000*19
$GNRMC,081739.000,A,2944.9067,N,10633.0910,E,0.19,0.00,200419,,*13
$GPGSA,A,3,,,,,,,,,,,,,2.1,1.2,1.7*34
$BDGSA,A,3,01,03,04,05,07,08,10,11,13,23,25,,2.1,1.2,1.7*2C
$GLGSA,A,3,,,,,,,,,,,,,2.1,1.2,1.7*28
$GPGSV,2,1,08,01,00,000,45,07,00,000,45,11,00,000,44,17,00,000,42*74
$GPGSV,2,2,08,18,00,000,43,28,00,000,43,30,00,000,45,22,00,000,39*7A
$BDGSV,3,1,12,01,40,125,41,05,27,244,38,03,55,171,45,04,23,109,40*6A
$BDGSV,3,2,12,28,31,247,41,07,65,097,42,08,81,169,43,10,77,008,43*6C
$BDGSV,3,3,12,11,57,019,43,13,55,205,42,18,00,000,44,23,59,306,45*65
$B3CN0,20,0,0,0,0,0,0,0,0,0,31,0,0,0*4C
---00000019--- Acq_st=7 0  2019-4-20 8:17:39 
[00]  00(G01)  f 44  7  0   -460.4  2046000.5  0.0  2 0 2647 4374 2151
[01]  06(G07)  f 44  9  0   1541.7  2045997.9  0.0  2 0 2644 3977 2291
[02]  10(G11)  f 43  7  0    637.2  2045999.1  0.1  2 0 1970 3578 1919
[03]  16(G17)  f 41  8  0  -2505.8  2046003.2  0.0  2 0 2469 2920  815
[04]  17(G18)  f 43  7  0   1238.6  2045998.3  0.0  2 0 1950 3233 1665
[06]  27(G28)  f 43  7  0  -2892.6  2046003.7  0.0  2 0 1762 3017 1498
[08]  29(G30)  f 44  7  0   -523.7  2046000.6  0.0  2 0 2360 3619 1900
[10]  21(G22)  f 39  8  0  -2597.2  2046003.3 -0.0  2 0  980 1682  681
[16]  37(B01) 1f 41 10  0  -1071.4  4092002.7  0.5  2 0  903 1067  115
[17]  41(B05) 1f 39 23  0  -1119.3  4092003.0 -0.1  2 0  354  989  845
[18]  39(B03) 1f 43 28  0  -1087.0  4092002.7 -0.4  2 0 1730 2296  795
[19]  40(B04) 1f 40 14  0  -1086.8  4092002.7  0.1  2 0 1160 1474  531
[20]  64(B28) 1f 41 11  0  -3052.0  4092007.9 -0.0  2 0 1585 2240  748
[21]  43(B07) 1f 42  7  0  -1157.7  4092002.9 -0.0  2 0 1720 2158  410
[22]  44(B08) 1f 42  7  0  -1392.2  4092003.5 -0.0  2 0 1433 2397 1327
[25]  46(B10) 1f 43  7  0  -1488.1  4092003.8  0.0  2 0 2025 2479  989
[26]  47(B11) 1f 44  7  0    451.3  4091998.7  0.1  2 0 2478 2765 1411
[27]  49(B13) 1f 43  7  0  -1886.6  4092004.8  0.1  2 0 1642 1964  994
[28]  54(B18) 1f 44  7  0  -1206.5  4092003.0 -0.0  2 0 2515 3462 1491
[29]  59(B23) 1f 45  7  0  -2387.6  4092006.1 -0.1  2 0 2237 3416 1880
[30]  61(B25) 1f 44  7  0    682.8  4091998.1  0.0  2 0 2006 3196 1729
[32]  77(N-4)  f 35  7  0  -3115.9  1022002.1 -0.1  2 0  1380 2269 1078
[33]  79(N-2)  f 44  7  0    649.0  1021999.5 -0.1  2 0   860 1482  746
[34]  81(N00)  f 37  7  0  -5140.0  1022003.3 -0.1  2 0   460  583  240
[36]  86(N05)  f 46  7  0   1012.5  1021999.3  0.0  2 0  1933 3419 1857
[48]  37(B01)  f 10 37  1  -1343.8 20460021.5  0.1  2 0  115  358  190
[49]  41(B05)  1 21 10  1  -1957.5 20460021.7  0.2  1 0  536  671  284
[50]  39(B03)  1 14 24  0   -499.3 20460020.3 -0.0  1 0  163  573  437
[51]  40(B04)  1 13 10  0  -1551.4 20460020.5 -0.1  1 0  565  526  524
[53]  43(B07)  1  7  7  0   -884.3 20460014.1  0.1  1 0  312  239  218
[54]  44(B08)  1  7  8  0   -789.8 20460022.4  0.1  1 0  400   77  480
[57]  46(B10)  1  7  7  0   -956.4 20460021.4  0.1  1 0  326  367  462
[58]  47(B11) 1f 31  7  0    358.0 20459992.2 -0.0  5 0  568  696  534
[59]  49(B13)  1  7  7  0  -1734.8 20460029.9 -0.2  1 0  139  318  161
[60]  54(B18)  1  7  7  0  -1085.1 20460021.5 -0.0  1 0  331  225  492
[61]  59(B23)  1  7  7  0  -1911.1 20460037.9  0.0  1 0  223  536  383
[62]  61(B25)  1  7  8  0    361.6 20459990.3  0.1  1 0   88  372  178
$GNGGA,081740.000,2944.9068,N,10633.0910,E,1,12,1.1,323.6,M,,,,0000*1F
$GNRMC,081740.000,A,2944.9068,N,10633.0910,E,0.22,0.00,200419,,*1A
$GPGSA,A,3,,,,,,,,,,,,,2.0,1.1,1.6*37
$BDGSA,A,3,01,03,04,05,07,08,10,11,13,23,25,28,2.0,1.1,1.6*25
$GLGSA,A,3,,,,,,,,,,,,,2.0,1.1,1.6*2B
$GPGSV,2,1,08,01,00,000,44,07,00,000,44,11,00,000,43,17,00,000,41*70
$GPGSV,2,2,08,18,00,000,43,28,00,000,43,30,00,000,44,22,00,000,39*7B
$BDGSV,3,1,12,01,40,125,41,05,27,244,39,03,55,171,43,04,23,109,39*63
$BDGSV,3,2,12,28,31,247,41,07,65,097,42,08,81,169,42,10,77,008,43*6D
$BDGSV,3,3,12,11,57,019,44,13,55,205,43,18,00,000,44,23,59,306,45*63
$B3CN0,0,0,0,0,0,0,0,0,0,0,31,0,0,0*7E
---00000020--- Acq_st=3 0  2019-4-20 8:17:40 
[00]  00(G01)  f 45  7  0   -443.0  2046000.5 -0.0  2 0 3375 5152 2569
[01]  06(G07)  f 45  7  0   1558.5  2045997.9 -0.0  2 0 2526 4070 1723
[02]  10(G11)  f 44  8  0    653.1  2045999.1 -0.0  2 0 2060 3419 1531
[03]  16(G17)  f 41  7  0  -2488.8  2046003.2 -0.1  2 0 1982 2251 1042
[04]  17(G18)  f 44  7  0   1255.4  2045998.3  0.1  2 0 2117 3470 1539
[05]  02(G03)  1  7  7  0  -3467.9  2046005.4  0.0  1 0   97  198  768
[06]  27(G28)  f 44  7  0  -2873.9  2046003.7  0.0  2 0 1818 2613  867
[08]  29(G30)  f 45  7  0   -505.9  2046000.6  0.0  2 0 2311 4542 2608
[09]  11(G12)  1  7  7  0  -2500.0  2046002.4 -0.0  1 0  707 1026  840
[10]  21(G22)  f 39  7  0  -2581.0  2046003.3 -0.0  2 0 1140 1226  594
[11]  12(G13)  1  7  7  0   -500.0  2046000.9 -0.0  1 0  317  575  730
[16]  37(B01) 1f 42 13  0  -1053.8  4092002.7 -0.4  2 0 1352 1812  995
[17]  41(B05) 1f 37 29  0  -1107.3  4092002.8 -0.8  2 0 1073 1147  354
[18]  39(B03) 1f 43 32  0  -1070.7  4092002.8 -0.2  2 0 1964 2637 1337
[19]  40(B04) 1f 40 23  0  -1074.9  4092002.8 -0.5  2 0 1024 1255  366
[20]  64(B28) 1f 42  7  0  -3032.4  4092007.9  0.1  2 0 1243 1562  941
[21]  43(B07) 1f 43  7  0  -1141.5  4092002.9  0.0  2 0 1849 2210  948
[22]  44(B08) 1f 42  7  0  -1375.4  4092003.5  0.1  2 0 1382 1837  732
[25]  46(B10) 1f 44  7  0  -1472.7  4092003.7 -0.0  2 0 1549 2530 1183
[26]  47(B11) 1f 44  7  0    463.3  4091998.7 -0.0  2 0 2141 2692 1273
[27]  49(B13) 1f 43  7  0  -1871.7  4092004.8 -0.0  2 0 1575 1882  488
[28]  54(B18) 1f 44  7  0  -1189.2  4092003.0  0.0  2 0 2997 3741 1533
[29]  59(B23) 1f 45  7  0  -2371.7  4092006.1  0.0  2 0 2469 3405 1430
[30]  61(B25) 1f 45  7  0    702.0  4091998.0  0.0  2 0 2927 3193 1126
[32]  77(N-4)  f 29  7  0  -3099.8  1022002.1  0.1  5 0  1116 2107  986
[33]  79(N-2)  f 44 12  0    666.5  1021999.5  0.2  2 0   809 1731  937
[34]  81(N00)  f 36  7  0  -5120.8  1022003.3  0.1  2 0   528  549  198
[36]  86(N05)  f 46  7  0   1029.9  1021999.3 -0.0  2 0  1790 3415 1703
[48]  37(B01)  f 13 36  1  -1347.1 20460022.2  0.1  2 0  368  323  250
[52]  64(B28)  1  7  7  0  -2247.9 20460048.7 -0.1  1 0  302  826  670
[53]  43(B07)  1  7  7  0   -783.1 20460012.3  0.0  1 0   84  195  262
[54]  44(B08)  1  7  7  0  -1206.6 20460021.0 -0.0  1 0  256  275  330
[57]  46(B10)  1  7  7  0  -1258.7 20460022.9 -0.2  1 0  453  357  378
[58]  47(B11) 1f 31  7  0    377.6 20459993.2  0.1  5 0   67   35   99
[59]  49(B13)  1  7  7  0  -2268.8 20460030.2  0.0  1 0   95  460  457
[60]  54(B18)  1  7  7  0  -1501.4 20460017.9  0.1  1 0 1173  799  305
[61]  59(B23)  1  7  7  0  -2051.7 20460040.0  0.1  1 0  717  376   56
[62]  61(B25)  1  8  7  0    316.7 20459989.4  0.2  1 0  530  384  449
$GNGGA,081741.000,2944.9067,N,10633.0910,E,1,12,1.1,324.3,M,,,,0000*13
$GNRMC,081741.000,A,2944.9067,N,10633.0910,E,0.51,0.00,200419,,*10
$GPGSA,A,3,,,,,,,,,,,,,2.0,1.1,1.6*37
$BDGSA,A,3,01,03,04,05,07,08,10,11,13,23,25,28,2.0,1.1,1.6*25
$GLGSA,A,3,,,,,,,,,,,,,2.0,1.1,1.6*2B
$GPGSV,2,1,08,01,00,000,45,07,00,000,45,11,00,000,44,17,00,000,41*77
$GPGSV,2,2,08,18,00,000,44,28,00,000,44,30,00,000,45,22,00,000,39*7A
$BDGSV,3,1,12,01,40,125,42,05,27,244,37,03,55,171,43,04,23,109,40*60
$BDGSV,3,2,12,28,31,247,42,07,65,097,43,08,81,169,42,10,77,008,44*68
$BDGSV,3,3,12,11,57,019,44,13,55,205,43,18,00,000,44,23,59,306,45*63
$B3CN0,0,0,0,0,0,0,0,0,0,0,31,0,0,0*7E
---00000021--- Acq_st=3 0  2019-4-20 8:17:41 
[00]  00(G01)  f 45  7  0   -445.7  2046000.5 -0.0  2 0 2294 4100 2197
[01]  06(G07)  f 44  7  0   1553.5  2045997.9  0.0  2 0 2513 3632 1853
[02]  10(G11)  f 43  7  0    647.6  2045999.1  0.0  2 0 2473 3758 1561
[03]  16(G17)  f 42 10  0  -2490.7  2046003.2  0.0  2 0 1457 2078 1100
[04]  17(G18)  f 43  7  0   1252.4  2045998.3 -0.0  2 0 2335 3313 1360
[05]  02(G03)  1 20  8  0  -3527.1  2046007.2  0.0  1 0  115  351 1199
[06]  27(G28)  f 43  7  0  -2876.6  2046003.7  0.0  2 0 1942 2972 1459
[08]  29(G30)  f 44  7  0   -509.3  2046000.6 -0.0  2 0 2982 4328 1999
[09]  11(G12)  1  7  7  0  -2284.9  2046002.4 -0.0  1 0  410  531  780
[10]  21(G22)  f 39  7  0  -2584.1  2046003.3 -0.1  2 0 1163 1482  442
[11]  12(G13)  1 21  7  0   -610.2  2046002.7  0.1  1 0  419  625  393
[16]  37(B01) 1f 41 10  0  -1055.8  4092002.6  0.1  2 0 1370 1344  312
[17]  41(B05) 1f 40 19  0  -1111.2  4092002.7  0.5  2 0  700  727  263
[18]  39(B03) 1f 45 33  0  -1071.3  4092002.7  0.0  2 0 1633 2280 1028
[19]  40(B04) 1f 39 25  0  -1072.3  4092002.6 -0.5  2 0 1134 1136  649
[20]  64(B28) 1f 41 11  0  -3033.0  4092007.8 -0.0  2 0 1865 1988  989
[21]  43(B07) 1f 42  7  0  -1146.6  4092002.9 -0.0  2 0 1415 2294 1233
[22]  44(B08) 1f 42  7  0  -1378.3  4092003.5 -0.0  2 0 1552 2038 1084
[25]  46(B10) 1f 44  9  0  -1473.9  4092003.7  0.0  2 0 1998 2407  987
[26]  47(B11) 1f 44  7  0    463.8  4091998.7  0.0  2 0 2341 3119 1532
[27]  49(B13) 1f 42  7  0  -1875.1  4092004.8  0.0  2 0 1653 2091  857
[28]  54(B18) 1f 44  7  0  -1190.6  4092003.0 -0.0  2 0 2547 3127 1159
[29]  59(B23) 1f 45  7  0  -2374.3  4092006.1 -0.0  2 0 3165 3831 1540
[30]  61(B25) 1f 44  7  0    699.4  4091998.0 -0.1  2 0 2657 3384 1606
[32]  77(N-4)  f 29  7  0  -3101.6  1022001.9 -0.1  5 0  1283 1939  692
[33]  79(N-2)  f 44 11  0    664.6  1021999.5 -0.1  2 0  1316 2030 1252
[34]  81(N00)  f 37  7  0  -5125.4  1022003.2  0.0  2 0   487  810  507
[36]  86(N05)  f 47  7  0   1026.8  1021999.3  0.0  2 0  1859 3454 1818
[48]  37(B01)  f 16 35  1  -1345.3 20460021.4  0.1  2 0  529  359  545
[49]  41(B05)  1 26 28  1   -872.7 20460019.4 -0.0  1 0  794  363  285
[50]  39(B03)  1 20 10  0   -528.6 20460020.8  0.2  1 0  275  525  164
[51]  40(B04)  1 22 10  0   -872.3 20460018.4  0.3  1 0  169  263  396
[52]  64(B28)  1  7  7  0  -2152.3 20460049.4  0.0  1 0  344   67  504
[53]  43(B07)  f 21  7  0   -941.9 20460015.5  0.0 10 0  184  548  366
[54]  44(B08)  1  7  7  0   -790.4 20460021.0 -0.0  1 0  489  949  716
[57]  46(B10)  1  7  7  0  -1128.0 20460021.8  0.2  1 0  277  149  593
[58]  47(B11) 1f 31  7  0    368.8 20459993.2 -0.0  5 0  470  610  261
[59]  49(B13)  1 10  7  0  -2282.1 20460031.1  0.0  1 0  460  147  370
[60]  54(B18)  1  7  7  0  -1925.1 20460019.3 -0.0  1 0  464  479  109
[61]  59(B23)  1  7  7  0  -2349.5 20460039.4  0.1  1 0  580  373  659
[62]  61(B25)  1  7  7  0    144.7 20459989.7 -0.1  1 0  652  331  272
$GNGGA,081742.000,2944.9067,N,10633.0908,E,1,12,1.1,324.5,M,,,,0000*1F
$GNRMC,081742.000,A,2944.9067,N,10633.0908,E,0.67,0.00,200419,,*1F
$GPGSA,A,3,,,,,,,,,,,,,2.0,1.1,1.6*37
$BDGSA,A,3,01,03,04,05,07,08,10,11,13,23,25,28,2.0,1.1,1.6*25
$GLGSA,A,3,,,,,,,,,,,,,2.0,1.1,1.6*2B
$GPGSV,2,1,08,01,00,000,45,07,00,000,44,11,00,000,43,17,00,000,42*72
$GPGSV,2,2,08,18,00,000,43,28,00,000,43,30,00,000,44,22,00,000,39*7B
$BDGSV,3,1,12,01,40,125,41,05,27,244,40,03,55,171,45,04,23,109,39*6B
$BDGSV,3,2,12,28,31,247,41,07,65,097,42,08,81,169,42,10,77,008,44*6A
$BDGSV,3,3,12,11,57,019,44,13,55,205,42,18,00,000,43,23,59,306,45*65
$B3CN0,16,0,0,0,0,0,21,0,0,0,31,0,0,0*7A
---00000022--- Acq_st=3 0  2019-4-20 8:17:42 
[00]  00(G01)  f 44  7  0   -446.5  2046000.5  0.0  2 0 2343 4438 1785
[01]  06(G07)  f 44  7  0   1555.9  2045997.9 -0.0  2 0 2370 3736 1646
[02]  10(G11)  f 43  7  0    649.2  2045999.1  0.0  2 0 2077 3227 1879
[03]  16(G17)  f 42  8  0  -2494.7  2046003.2  0.1  2 0  598 1498  819
[04]  17(G18)  f 44  7  0   1250.7  2045998.3 -0.0  2 0 2377 3283 1429
[05]  02(G03)  7 20  7  0  -3520.3  2046004.3  0.3 10 0 1071  877  244
[06]  27(G28)  f 43  8  0  -2879.1  2046003.7  0.1  2 0 1892 3390 1722
[08]  29(G30)  f 45  7  0   -511.2  2046000.6 -0.0  2 0 2732 4345 1992
[09]  11(G12)  1  7  7  0  -2410.6  2046002.8  0.1  1 0  220  321  215
[10]  21(G22)  f 38  7  0  -2587.0  2046003.3  0.0  2 0 1358 1710  432
[11]  12(G13)  7 28  7  0   -621.0  2046000.7  0.2 10 0  797  763  431
[16]  37(B01) 1f 41 20  0  -1059.2  4092002.7 -0.3  2 0 1015 1367  810
[17]  41(B05) 1f 39 17  0  -1109.9  4092002.8 -0.8  2 0 1332 1465  457
[18]  39(B03) 1f 45 30  0  -1073.3  4092002.7 -0.0  2 0 1371 1675  988
[19]  40(B04) 1f 40 21  0  -1067.1  4092002.6 -0.4  2 0  639 1125  617
[20]  64(B28) 1f 41  7  0  -3036.8  4092007.8  0.0  2 0 2103 2119  774
[21]  43(B07) 1f 43  7  0  -1144.5  4092002.9  0.0  2 0 1753 2257 1046
[22]  44(B08) 1f 43  7  0  -1378.2  4092003.5 -0.0  2 0 1540 2133  967
[24]  38(B02)  1 40 23  0  -1103.2  4092003.0  1.0  1 0  971 1402  908
[25]  46(B10) 1f 43  7  0  -1477.2  4092003.7  0.1  2 0 1891 2368  942
[26]  47(B11) 1f 44  7  0    463.1  4091998.7 -0.0  2 0 2284 2879 1402
[27]  49(B13) 1f 43  7  0  -1874.0  4092004.8 -0.0  2 0 1954 2250  690
[28]  54(B18) 1f 44  7  0  -1192.2  4092003.0  0.0  2 0 2343 3254 1521
[29]  59(B23) 1f 45  8  0  -2375.9  4092006.1 -0.0  2 0 2726 3488 1446
[30]  61(B25) 1f 44  7  0    693.7  4091998.1  0.0  2 0 2862 3657 1566
[32]  77(N-4)  f 29  7  0  -3102.6  1022001.9  0.0  5 0  1373 2292 1042
[33]  79(N-2)  f 44 18  0    663.1  1021999.5 -0.0  2 0   817 1607  760
[34]  81(N00)  f 37  7  0  -5127.8  1022003.2  0.1  2 0   432  830  440
[36]  86(N05)  f 47  7  0   1026.3  1021999.3  0.0  2 0  2004 3359 1398
[48]  37(B01)  f 10 37  1  -1348.6 20460022.0 -0.1  2 0  162  229  312
[49]  41(B05)  1 26 33  1  -1265.1 20460015.0  0.0  1 0  877  684  474
[50]  39(B03)  1 14 28  1   -424.1 20460012.0  0.1  1 0  884  249  323
[51]  40(B04)  1 25 28  1   -351.9 20460024.6 -0.0  1 0  416  816  493
[52]  64(B28)  1  7  7  0  -1948.7 20460050.1 -0.0  1 0  328  491  315
[53]  43(B07)  f 28  7  0   -943.9 20460014.4  0.0 10 0  734  830  954
[54]  44(B08)  1  7  7  0  -1555.0 20460021.2 -0.0  1 0  402  419  541
[57]  46(B10)  1  7  7  0   -995.6 20460021.9  0.1  1 0  815  563  753
[58]  47(B11) 1f 31  7  0    378.6 20459993.6 -0.1  5 0  796 1065  398
[59]  49(B13)  1  7  7  0  -2236.4 20460030.3 -0.1  1 0  597  664  615
[60]  54(B18)  1  7  7  0  -2379.3 20460019.8  0.1  1 0  221  253  556
[61]  59(B23)  1  7  7  0  -2193.5 20460040.2 -0.0  1 0  357  490  413
[62]  61(B25)  1  8  7  0      7.2 20459988.2  0.1  1 0  415  508  163
Refix G01: 1, 548280.932068, -445
$GNGGA,081743.000,2944.9067,N,10633.0907,E,1,12,1.1,324.6,M,,,,0000*12
$GNRMC,081743.000,A,2944.9067,N,10633.0907,E,0.23,0.00,200419,,*11
$GPGSA,A,3,,,,,,,,,,,,,2.0,1.1,1.6*37
$BDGSA,A,3,01,03,04,05,07,08,10,11,13,23,25,28,2.0,1.1,1.6*25
$GLGSA,A,3,,,,,,,,,,,,,2.0,1.1,1.6*2B
$GPGSV,3,1,10,01,00,000,44,07,00,000,44,11,00,000,43,17,00,000,42*7B
$GPGSV,3,2,10,18,00,000,44,03,00,000,20,28,00,000,43,30,00,000,45*7E
$GPGSV,3,3,10,22,00,000,38,13,00,000,28*7B
$BDGSV,3,1,12,01,40,125,41,05,27,244,39,03,55,171,45,04,23,109,40*6B
$BDGSV,3,2,12,28,31,247,41,07,65,097,43,08,81,169,43,10,77,008,43*6D
$BDGSV,3,3,12,11,57,019,44,13,55,205,43,18,00,000,44,23,59,306,45*63
$B3CN0,0,0,0,0,0,0,28,0,0,0,31,0,0,0*44
---00000023--- Acq_st=3 0  2019-4-20 8:17:43 
[00]  00(G01)  f 45  9  0   -442.8  2046000.5 -0.0  2 0 2080 4553 2602
[01]  06(G07)  f 45 11  0   1555.0  2045997.9  0.0  2 0 2680 3966 1457
[02]  10(G11)  f 44  7  0    647.8  2045999.1 -0.1  2 0 1889 2662 1087
[03]  16(G17)  f 42  7  0  -2488.6  2046003.2 -0.0  2 0 1649 2101 1016
[04]  17(G18)  f 44  7  0   1253.6  2045998.3  0.1  2 0 1657 2859 1094
[05]  02(G03)  7 33  7  0  -3520.5  2046004.5 -0.2  5 0  795 1550  678
[06]  27(G28)  f 43  7  0  -2874.8  2046003.7  0.1  2 0 1746 3069 1729
[08]  29(G30)  f 45  9  0   -509.7  2046000.6  0.0  2 0 2833 4469 2381
[09]  11(G12)  1  7  7  0  -1767.4  2046002.7 -0.1  1 0  449  579  235
[10]  21(G22)  f 40  7  0  -2584.0  2046003.3 -0.1  2 0  874 1509  603
[11]  12(G13)  7 35  7  0   -631.1  2046000.8 -0.0  2 0  915 1404  906
[16]  37(B01) 1f 40 13  0  -1051.2  4092002.7 -0.1  2 0  939 1894 1304
[17]  41(B05) 1f 36 28  0  -1110.1  4092002.8 -0.1  2 0  828 1184  350
[18]  39(B03) 1f 45 33  0  -1073.0  4092002.7  0.2  2 0 1282 2487 1464
[19]  40(B04) 1f 39 18  0  -1070.8  4092002.8  0.0  2 0  909 1604 1140
[20]  64(B28) 1f 41 12  0  -3038.0  4092007.8 -0.1  2 0 1329 1786  940
[21]  43(B07) 1f 42  7  0  -1146.8  4092002.9 -0.1  2 0 1826 2625  958
[22]  44(B08) 1f 43  7  0  -1378.9  4092003.5 -0.0  2 0 1597 1965 1073
[24]  38(B02)  f 40 29  0  -1098.3  4092002.8 -0.5  2 0 1017 1699  833
[25]  46(B10) 1f 43  7  0  -1475.0  4092003.8 -0.1  2 0 2352 2690  796
[26]  47(B11) 1f 44 11  0    463.5  4091998.6 -0.0  2 0 2179 2698 1227
[27]  49(B13) 1f 43  7  0  -1875.6  4092004.8  0.0  2 0 1871 2598 1373
[28]  54(B18) 1f 44  7  0  -1192.6  4092003.0 -0.0  2 0 2422 3118 1192
[29]  59(B23) 1f 45  7  0  -2372.1  4092006.1 -0.0  2 0 2597 3441 1343
[30]  61(B25) 1f 44  7  0    698.1  4091998.0  0.0  2 0 2578 3526 1433
[32]  77(N-4)  f 32  7  0  -3100.3  1022002.1  0.1  5 0  1052 1658  790
[33]  79(N-2)  f 44 13  0    665.8  1021999.5 -0.1  2 0   829 1573  845
[34]  81(N00)  f 37  7  0  -5128.6  1022003.2  0.2  2 0   404  696  471
[36]  86(N05)  f 47  7  0   1028.1  1021999.3 -0.0  2 0  1867 3351 1625
[48]  37(B01)  f 10 35  1  -1342.4 20460021.2 -0.0  2 0  380  584  607
[49]  41(B05)  1 24 28  1  -1572.7 20460019.1  0.0  1 0  476  405  718
[50]  39(B03)  1 23 29  1   -152.9 20460015.3  0.0  1 0  409  322  463
[51]  40(B04)  1 23 29  1   -467.4 20460019.2 -0.1  1 0  869  662  470
[52]  64(B28)  1  7  7  0  -1296.7 20460049.9 -0.1  1 0  743  244  167
[53]  43(B07)  f 28 10  0   -941.0 20460014.3 -0.0 10 0  307  455  379
[58]  47(B11) 1f 31  7  0    375.8 20459992.4 -0.0  5 0  541  919  891
Refix G01: 1, 548281.932068, -449
$GNGGA,081744.000,2944.9067,N,10633.0906,E,1,12,1.1,324.4,M,,,,0000*16
$GNRMC,081744.000,A,2944.9067,N,10633.0906,E,0.25,0.00,200419,,*11
$GPGSA,A,3,,,,,,,,,,,,,2.0,1.1,1.6*37
$BDGSA,A,3,01,03,04,05,07,08,10,11,13,23,25,28,2.0,1.1,1.6*25
$GLGSA,A,3,,,,,,,,,,,,,2.0,1.1,1.6*2B
$GPGSV,3,1,10,01,66,074,45,07,00,000,45,11,00,000,44,17,00,000,42*7F
$GPGSV,3,2,10,18,00,000,44,03,00,000,33,28,00,000,43,30,00,000,45*7C
$GPGSV,3,3,10,22,00,000,40,13,00,000,35*78
$BDGSV,3,1,12,01,40,125,40,05,27,244,36,03,55,171,45,04,23,109,39*6B
$BDGSV,3,2,12,28,31,247,41,07,65,097,42,08,81,169,43,02,46,219,40*6C
$BDGSV,3,3,12,10,77,008,43,11,57,019,44,13,55,205,43,18,00,000,44*64
$B3CN0,0,0,0,0,0,0,28,0,0,0,31,0,0,0*44
---00000024--- Acq_st=3 0  2019-4-20 8:17:44 
[00]  00(G01)  f 45  9  0   -446.2  2046000.5  0.0  2 0 2468 4604 2420
[01]  06(G07)  f 45  7  0   1551.7  2045997.9 -0.0  2 0 2461 3382 1293
[02]  10(G11)  f 44  7  0    646.0  2045999.1  0.0  2 0 1461 3474 1873
[03]  16(G17)  f 41 11  0  -2495.7  2046003.2 -0.0  2 0 1006 1650  598
[04]  17(G18)  f 43  7  0   1252.3  2045998.3 -0.0  2 0 2088 2783  731
[05]  02(G03)  7 35 11  0  -3522.5  2046004.5  0.0  2 0 1071 1061  547
[06]  27(G28)  f 43  7  0  -2879.0  2046003.7  0.0  2 0 2109 3316 1941
[08]  29(G30)  f 45  7  0   -513.4  2046000.6 -0.0  2 0 2254 4168 2352
[09]  11(G12)  1  7  7  0  -1840.0  2046002.6 -0.1  1 0  176  265  519
[10]  21(G22)  f 40  7  0  -2582.7  2046003.3  0.1  2 0 1633 1721  518
[11]  12(G13)  7 35  8  0   -633.1  2046000.8 -0.2  2 0 1109 1031  645
[16]  37(B01) 1f 41 10  0  -1061.5  4092002.4  0.5  2 0 1296 1357  173
[17]  41(B05) 1f 38 17  0  -1115.9  4092002.9 -0.0  2 0  863  873  291
