SD initialized success
Create debug.log Failed! 3
bbram_blkflag = 1
rtcflag = 0
BBRAM Block OK: 01 EPHflag: c660a004 00000000, rtc 00
Hot-start nowtime:day = 20,minute = 0,seconds = 0
Start Channel by LuYu
$GNGGA,000000.000,,,,,0,00,,,M,,,,0000*2B
$GNRMC,000000.000,A,,,,,,,060180,,*29
$GPGSA,A,1,,,,,,,,,,,,,,,*1E
$BDGSA,A,1,,,,,,,,,,,,,,,*0F
$GLGSA,A,1,,,,,,,,,,,,,,,*02
$B3CN0,0,0,0,0,0,0,0,0,0,0,0,0,0,0*4C
---00000001--- Acq_st=3 0  2019-4-20 8:0:37 
[00]  00(G01)  1 27  7  0  -1218.4  2046002.6  0.3  1 0 2573 4082 1699
[01]  02(G03)  1  7  7  0  -3918.3  2046005.7 -0.2  1 0  289  311  343
[02]  06(G07)  1 22  7  0   1000.0  2045999.3 -0.1  1 0 2726 4829 2814
[03]  07(G08)  1 20  7  0   1500.0  2045999.5 -0.0  1 0  847 2176 1603
[04]  10(G11)  1  7  7  0     -0.0  2046001.2 -0.0  1 0 1224 2949 2316
$GNGGA,000000.000,,,,,0,00,,,M,,,,0000*2B
$GNRMC,000000.000,A,,,,,,,060180,,*29
$GPGSA,A,1,,,,,,,,,,,,,,,*1E
$BDGSA,A,1,,,,,,,,,,,,,,,*0F
$GLGSA,A,1,,,,,,,,,,,,,,,*02
$B3CN0,0,0,0,0,0,0,0,0,0,0,0,0,0,0*4C
---00000002--- Acq_st=4 0  2019-4-20 8:0:38 
[00]  00(G01)  7 25  7  0  -1209.6  2046001.4  0.7 10 0 3053 3883 1444
[01]  02(G03)  1  7  7  0  -4059.6  2046006.0  0.0  1 0  573  987  403
[02]  06(G07)  1 32 12  0    986.2  2045998.5  1.0  1 0 3216 4509 2283
[03]  07(G08)  1 27  7  0   1470.5  2045997.7  0.3  1 0  752 1506  924
[04]  10(G11)  1 25  7  0    110.6  2045999.7  0.7  1 0 2469 3164 1144
[05]  17(G18)  1 18  7  0    624.1  2046000.7  0.1  1 0 2524 3286 1234
[06]  21(G22)  1  7  7  0  -2750.0  2046002.7  0.0  1 0  629  529  622
$GNGGA,000000.000,,,,,0,00,,,M,,,,0000*2B
$GNRMC,000000.000,A,,,,,,,060180,,*29
$GPGSA,A,1,,,,,,,,,,,,,,,*1E
$BDGSA,A,1,,,,,,,,,,,,,,,*0F
$GLGSA,A,1,,,,,,,,,,,,,,,*02
$GPGSV,1,1,01,01,00,000,25*4E
$B3CN0,0,0,0,0,0,0,0,0,0,0,0,0,0,0*4C
---00000003--- Acq_st=3 0  2019-4-20 8:0:39 
[00]  00(G01)  7 46  7  0  -1213.7  2046001.5 -0.0  2 0 3198 4272 1674
[01]  02(G03)  1  7  7  0  -4572.9  2046005.5  0.1  1 0  377  428  391
[02]  06(G07)  7 37  7  0    984.9  2045998.7  0.1  2 0 2701 4255 2262
[03]  07(G08)  7 33  7  0   1471.1  2045998.0  0.2  5 0  692 1969 1266
[04]  10(G11)  7 30  7  0    108.2  2045999.8  0.4  5 0 2290 3239 1050
[05]  17(G18)  7  7  7  0    620.5  2045999.1  0.9 10 0 2287 2865 1377
[06]  21(G22)  1  7  7  0  -2469.1  2046003.4 -0.1  1 0  765  772  229
[08]  27(G28)  1 23 11  0  -2945.5  2046006.7 -0.0  1 0  285 1355 3193
[09]  29(G30)  1 26  7  0  -1229.1  2046003.2  0.1  1 0 2694 5595 3092
[16]  37(B01)  1 30 36  0  -1250.0  4092005.4 -0.1  1 0  463 1082 1628
[17]  38(B02)  1 18 25  1  -1000.0  4092001.2  0.0  1 0    6  269  346
[18]  39(B03)  1 30 34  0  -1000.0  4092004.6  0.0  1 0   12  836 1831
$GNGGA,000000.000,,,,,0,00,,,M,,,,0000*2B
$GNRMC,000000.000,A,,,,,,,060180,,*29
$GPGSA,A,1,,,,,,,,,,,,,,,*1E
$BDGSA,A,1,,,,,,,,,,,,,,,*0F
$GLGSA,A,1,,,,,,,,,,,,,,,*02
$GPGSV,1,1,04,01,00,000,46,07,00,000,37,08,00,000,33,11,00,000,30*76
$B3CN0,0,0,0,0,0,0,0,0,0,0,0,0,0,0*4C
---00000004--- Acq_st=3 0  2019-4-20 8:0:40 
[00]  00(G01)  7 45  7  0  -1215.2  2046001.5  0.0  2 0 3052 4639 1973
[01]  02(G03)  1  7  9  0  -4140.6  2046004.6 -0.0  1 0  610  117  247
[02]  06(G07)  7 45  7  0    979.0  2045998.7 -0.1  2 0 2239 4006 2216
[03]  07(G08)  7 40  7  0   1461.6  2045998.0  0.1  2 0 1580 2400 1296
[04]  10(G11)  7 44  7  0    105.7  2045999.8 -0.0  2 0 1645 2552 1369
[05]  17(G18)  7 44  7  0    620.1  2045999.1 -0.0  2 0 1879 3009 1376
[06]  21(G22)  1 15  7  0  -1863.1  2046003.0  0.1  1 0 1009  400  637
[08]  27(G28)  7 23  7  0  -2951.1  2046003.7  0.5 10 0 1468 1571  524
[09]  29(G30)  7 20  7  0  -1231.2  2046001.5  0.8 10 0 4139 5045 1844
[16]  37(B01)  9 39 10  0  -1108.7  4092003.1  1.0  1 0 1479 1524  434
[17]  38(B02)  1 19 10  0   -756.0  4092003.4 -0.1  1 0  302   56  792
[18]  39(B03)  1 43 30  0  -1127.7  4092002.9  1.0  1 0 1495 1876  458
[19]  40(B04)  1 10 10  1  -1618.1  4092005.4 -0.2  1 0  443  956  906
[20]  43(B07)  1  7  7  0  -1272.2  4092004.5  0.0  1 0 1258 2688 1945
[21]  44(B08)  1  7  7  0  -1718.8  4092005.9  0.0  1 0  174  120  953
[22]  46(B10)  1  7  7  0  -1500.0  4092005.2  0.1  1 0  595  669  971
[24]  47(B11)  1  7  7  0     -0.0  4092001.1  0.0  1 0 1335 2998 2446
$GNGGA,000000.000,,,,,0,00,,,M,,,,0000*2B
$GNRMC,000000.000,A,,,,,,,060180,,*29
$GPGSA,A,1,,,,,,,,,,,,,,,*1E
$BDGSA,A,1,,,,,,,,,,,,,,,*0F
$GLGSA,A,1,,,,,,,,,,,,,,,*02
$GPGSV,2,1,07,01,00,000,45,07,00,000,45,08,00,000,40,11,00,000,44*77
$GPGSV,2,2,07,18,00,000,44,28,00,000,23,30,00,000,19*47
$B3CN0,0,0,0,0,0,0,0,0,0,0,0,0,0,0*4C
---00000005--- Acq_st=3 0  2019-4-20 8:0:41 
[00]  00(G01)  7 45  7  0  -1214.7  2046001.5 -0.0  2 0 2192 3650 1455
[02]  06(G07)  7 45 11  0    980.9  2045998.7  0.1  2 0 2408 4024 1777
[03]  07(G08)  7 39  7  0   1468.5  2045998.0  0.0  2 0  555 1619  725
[04]  10(G11)  7 43  7  0    108.3  2045999.8  0.1  2 0 1817 3211 1674
[05]  17(G18)  7 43  7  0    618.7  2045999.1 -0.0  2 0 2508 3369 1012
[06]  21(G22)  1  7  9  0  -2123.6  2046003.2  0.0  1 0  274  276  541
[08]  27(G28)  7 42  7  0  -2950.9  2046003.7 -0.0  2 0 1990 2491 1281
[09]  29(G30)  7 47  7  0  -1227.3  2046001.5  0.0  2 0 3409 5336 2295
[16]  37(B01)  f 40 14  0  -1101.5  4092002.7 -0.4  2 0 1096 1616  660
[17]  38(B02)  1 10 23  0   -733.4  4092002.5 -0.1  1 0  733  311  209
[18]  39(B03)  7 43 31  0  -1122.5  4092002.7 -0.0  2 0 1452 2023  754
[19]  40(B04)  1 10 10  1  -1586.7  4092004.5 -0.0  1 0  734  322  508
[20]  43(B07)  1  7  7  0  -1264.4  4092003.0  0.4  1 0 1916 2609 1109
[21]  44(B08)  1 11  7  0  -2103.0  4092005.4  0.5  1 0  971 1153  461
[22]  46(B10)  1  7  7  0  -1562.2  4092005.1  0.3  1 0 1500 2231 1039
[24]  47(B11)  1  7  7  0    186.6  4091999.3  0.3  1 0 2371 3299 1206
[25]  49(B13)  1  7  9  0  -2073.4  4092005.6  0.1  1 0 1075 2342 1165
[26]  54(B18)  1  7  7  0  -1250.0  4092005.0 -0.1  1 0  419   55 1940
$GNGGA,000000.000,,,,,0,00,,,M,,,,0000*2B
$GNRMC,000000.000,A,,,,,,,060180,,*29
$GPGSA,A,1,,,,,,,,,,,,,,,*1E
$BDGSA,A,1,,,,,,,,,,,,,,,*0F
$GLGSA,A,1,,,,,,,,,,,,,,,*02
$GPGSV,2,1,07,01,00,000,45,07,00,000,45,08,00,000,39,11,00,000,43*7E
$GPGSV,2,2,07,18,00,000,43,28,00,000,42,30,00,000,47*4C
$BDGSV,1,1,02,01,00,000,40,03,00,000,43*6B
$B3CN0,0,0,0,0,0,0,0,0,0,0,0,0,0,0*4C
---00000006--- Acq_st=3 0  2019-4-20 8:0:42 
[00]  00(G01)  7 45  7  0  -1216.2  2046001.5  0.0  2 0 2038 3894 1958
[02]  06(G07)  7 45  7  0    981.5  2045998.6 -0.0  2 0 2347 3939 2227
[03]  07(G08)  7 39  7  0   1465.9  2045998.1  0.2  2 0  793 1374  796
[04]  10(G11)  7 43  7  0    102.3  2045999.8  0.1  2 0 1377 3132 1864
[05]  17(G18)  7 43  7  0    616.0  2045999.1  0.0  2 0 2484 3021 1221
[06]  21(G22)  1  7  7  0  -2836.8  2046003.5  0.1  1 0  378  497  215
[08]  27(G28)  7 42  7  0  -2948.2  2046003.7  0.0  2 0 1320 2069 1195
[09]  29(G30)  7 46  7  0  -1229.0  2046001.5  0.0  2 0 4181 5739 2532
[16]  37(B01)  f 40 22  0  -1107.4  4092002.7  0.3  2 0 1061 1337  353
[17]  38(B02)  1 16 10  1  -1215.5  4092003.9  0.1  1 0  265  240  498
[18]  39(B03)  f 42 31  0  -1123.4  4092002.8 -0.2  2 0 1836 2418  900
[19]  40(B04)  1 10 20  1  -1698.5  4092005.7  0.2  1 0  484  592  622
[20]  43(B07)  7 40  9  0  -1266.3  4092003.2  0.1  2 0 1870 2428  819
[21]  44(B08)  1 10  7  0  -2106.4  4092003.6  0.9  1 0 1322 1363  520
[22]  46(B10)  7 31  7  0  -1561.6  4092004.0  0.3  5 0 1572 1738  620
[24]  47(B11)  7 30  7  0    186.5  4091999.4  0.1  5 0 2197 2550 1380
[25]  49(B13)  7 25  7  0  -2072.5  4092005.4  0.3 10 0 1650 2714 1202
[26]  54(B18)  1  7  7  0  -1346.3  4092004.5  0.2  1 0 2254 3140 1653
[27]  59(B23)  1  7  7  0  -3000.0  4092007.9  0.1  1 0 1571 3710 2368
[28]  60(B24)  1  7  7  0   1750.0  4091994.5  0.0  1 0  705  515  222
[29]  61(B25)  1  7  7  0     -0.0  4091999.2 -0.1  1 0 1910 3425 1534
[48]  37(B01)  1 10 18  0   -927.7 20460017.2 -0.1  1 0  467  257  212
$GNGGA,080043.832,,,,,0,00,,,M,,,,0000*2D
$GNRMC,080043.832,A,,,,,,,120180,,*2A
$GPGSA,A,1,,,,,,,,,,,,,,,*1E
$BDGSA,A,1,,,,,,,,,,,,,,,*0F
$GLGSA,A,1,,,,,,,,,,,,,,,*02
$GPGSV,2,1,07,01,00,000,45,07,00,000,45,08,00,000,39,11,00,000,43*7E
$GPGSV,2,2,07,18,00,000,44,28,00,000,42,30,00,000,46*4A
$BDGSV,2,1,06,01,00,000,40,03,00,000,42,07,00,000,40,10,00,000,31*6D
$BDGSV,2,2,06,11,00,000,30,13,00,000,25*68
$B3CN0,0,0,0,0,0,0,0,0,0,0,0,0,0,0*4C
---00000007--- Acq_st=3 0  2019-4-20 8:0:43 
[00]  00(G01)  f 45  7  0  -1212.3  2046001.5  0.0  2 0 3195 4759 2420
[02]  06(G07)  f 44  7  0    983.6  2045998.7 -0.0  2 0 3180 4683 1976
[03]  07(G08)  f 38  7  0   1466.2  2045998.1  0.0  2 0 1096 1917  851
[04]  10(G11)  f 43  7  0    109.9  2045999.8 -0.0  2 0 1398 2892 1797
[05]  17(G18)  f 43  7  0    622.6  2045999.1 -0.0  2 0 2505 3254 1333
[08]  27(G28)  f 42  7  0  -2948.1  2046003.7  0.0  2 0 1428 2082  828
[09]  29(G30)  f 46  7  0  -1223.5  2046001.5 -0.0  2 0 3450 5645 2793
[16]  37(B01)  f 40 18  0  -1101.1  4092002.7 -0.1  2 0 1348 1695  689
[17]  38(B02)  1 10 10  1  -1641.3  4092005.0  0.0  1 0  457  727 1339
[18]  39(B03)  f 43 28  0  -1118.3  4092002.8  0.1  2 0 1573 1940  895
[19]  40(B04)  1 10 18  0  -1627.4  4092006.1  0.0  1 0  293  250  283
[20]  43(B07)  7 43 11  0  -1264.9  4092003.2 -0.0  2 0 1392 2058  916
[21]  44(B08)  1 12  7  0  -2100.7  4092003.9  0.9  1 0  398 1686 1070
[22]  46(B10)  7 43  7  0  -1558.9  4092003.9 -0.1  2 0 1963 2276  589
[24]  47(B11)  7 45  7  0    192.1  4091999.4  0.0  2 0 2778 3461 1356
[25]  49(B13)  7 43  7  0  -2069.1  4092005.3  0.0  2 0 1393 2285 1311
[26]  54(B18)  7 31  7  0  -1339.4  4092003.4  0.2  5 0 2812 2810 1332
[27]  59(B23)  1  7  7  0  -2849.7  4092007.3  0.4  1 0 2190 4188 1938
[28]  60(B24)  1  7 13  0   2009.1  4091993.5  0.2  1 0  960 1252  307
[29]  61(B25)  1  7  7  0    178.6  4091999.4  0.4  1 0 2039 3698 1808
[30]  64(B28)  1  7  7  0  -2999.3  4092008.0  0.0  1 0  269  140  253
[48]  37(B01)  1 22 19  0  -1245.4 20460016.6 -0.0  1 0  179  256  209
[50]  39(B03)  1 22 19  0   -974.5 20460023.9 -0.1  1 0   64  363  564
$GNGGA,080044.832,,,,,0,00,,,M,,,,0000*2A
$GNRMC,080044.832,A,,,,,,,120180,,*2D
$GPGSA,A,1,,,,,,,,,,,,,,,*1E
$BDGSA,A,1,,,,,,,,,,,,,,,*0F
$GLGSA,A,1,,,,,,,,,,,,,,,*02
$GPGSV,2,1,07,01,00,000,45,07,00,000,45,08,00,000,38,11,00,000,43*7F
$GPGSV,2,2,07,18,00,000,43,28,00,000,41,30,00,000,46*4E
$BDGSV,2,1,07,01,00,000,40,03,00,000,43,07,00,000,43,10,00,000,43*6B
$BDGSV,2,2,07,11,00,000,45,13,00,000,43,18,00,000,30*51
$B3CN0,0,0,0,0,0,0,0,0,0,0,0,0,0,0*4C
---00000008--- Acq_st=3 0  2019-4-20 8:0:44 
[00]  00(G01)  f 45  7  0  -1211.4  2046001.5  0.0  2 0 2768 4583 2301
[02]  06(G07)  f 44  7  0    985.0  2045998.6 -0.0  2 0 3197 4272 1565
[03]  07(G08)  f 39  7  0   1467.7  2045998.1  0.1  2 0 1085 1728  770
[04]  10(G11)  f 43  7  0    108.8  2045999.8 -0.0  2 0 1285 2620 1279
[05]  17(G18)  f 43  7  0    624.4  2045999.1 -0.0  2 0 2279 3440 1595
[08]  27(G28)  f 42  7  0  -2949.4  2046003.7 -0.0  2 0 1574 2554 1416
[09]  29(G30)  f 46  7  0  -1224.8  2046001.5 -0.0  2 0 3656 5755 2081
[16]  37(B01)  f 41 10  0  -1104.9  4092002.7 -0.3  2 0 1538 1683  886
[18]  39(B03)  f 43 31  0  -1118.9  4092002.8 -0.0  2 0 1993 2458 1587
[20]  43(B07)  7 42  7  0  -1264.7  4092003.2  0.1  2 0 1800 2454 1400
[21]  44(B08)  1 11  9  0  -2101.5  4092004.1  0.9  1 0  787 1533 1264
[22]  46(B10)  7 43  7  0  -1555.1  4092003.9  0.0  2 0 2095 2111  496
[24]  47(B11)  7 44  7  0    191.8  4091999.4  0.0  2 0 1954 2815 1521
[25]  49(B13)  7 43  7  0  -2069.3  4092005.3 -0.0  2 0 1345 2148 1113
[26]  54(B18)  7 44  7  0  -1339.4  4092003.4  0.0  2 0 1786 2407  789
[27]  59(B23)  7 37  7  0  -2845.5  4092007.4  0.0  2 0 2370 4094 1916
[28]  60(B24)  7 31  7  0   2005.6  4091994.7  0.5  5 0 1012 1106  682
[29]  61(B25)  7 31  7  0    179.1  4091999.5  0.2  5 0 2223 3879 2005
[30]  64(B28)  1  7  7  0  -2452.3  4092008.1  0.0  1 0  198  179  235
[32]  77(N-4)  1 29 24  0  -3720.6  1022002.7  0.5  1 0  1141 2054  904
[33]  78(N-3)  1 25  7  0   2694.3  1021999.6  0.1  1 0   274  476  271
[34]  79(N-2)  1 29 31  0     34.0  1022002.6  0.1  1 0   580 1274  953
[35]  82(N01)  1  7 23  0   2500.0  1022000.4  0.0  1 0   150  319  316
[36]  83(N02)  1 21  7  0    250.0  1022002.1  0.0  1 0   515 2113 2713
[48]  37(B01)  1 10 21  0  -1319.2 20460016.9  0.0  1 0  897 1090  597
[50]  39(B03)  1 23 10  1  -1808.9 20460023.1 -0.0  1 0  549  598  166
$GNGGA,080045.832,,,,,0,00,,,M,,,,0000*2B
$GNRMC,080045.832,A,,,,,,,120180,,*2C
$GPGSA,A,1,,,,,,,,,,,,,,,*1E
$BDGSA,A,1,,,,,,,,,,,,,,,*0F
$GLGSA,A,1,,,,,,,,,,,,,,,*02
$GPGSV,2,1,07,01,00,000,45,07,00,000,45,08,00,000,39,11,00,000,43*7E
$GPGSV,2,2,07,18,00,000,43,28,00,000,42,30,00,000,46*4D
$BDGSV,3,1,10,01,00,000,41,03,00,000,45,07,00,000,43,10,00,000,42*6A
$BDGSV,3,2,10,11,00,000,44,13,00,000,42,18,00,000,43,23,00,000,44*63
$BDGSV,3,3,10,24,00,000,38,25,00,000,45*62
$B3CN0,0,0,0,0,0,0,0,0,0,0,0,0,0,0*4C
---00000009--- Acq_st=7 0  2019-4-20 8:0:45 
[00]  00(G01)  f 45  7  0  -1205.3  2046001.5 -0.0  2 0 3037 4444 1813
[02]  06(G07)  f 45 12  0    990.6  2045998.6 -0.0  2 0 1851 3737 2057
[03]  07(G08)  f 39  7  0   1473.9  2045998.0  0.0  2 0 1176 1853  751
[04]  10(G11)  f 43  7  0    114.5  2045999.8  0.0  2 0 1846 2279  978
[05]  17(G18)  f 43  7  0    627.3  2045999.1  0.0  2 0 2042 3527 2314
[08]  27(G28)  f 42  7  0  -2942.9  2046003.7  0.1  2 0  880 1978  748
[09]  29(G30)  f 46  7  0  -1218.8  2046001.5  0.0  2 0 3739 5890 2478
[16]  37(B01) 1f 42 10  0  -1099.0  4092002.7  0.4  2 0 1439 1819  849
[18]  39(B03) 1f 45 29  0  -1114.0  4092002.8 -0.1  2 0 1566 1964  789
[20]  43(B07) 1f 42  9  0  -1260.2  4092003.2 -0.0  2 0 2060 2202  766
[22]  46(B10) 1f 42  7  0  -1550.0  4092003.9  0.0  2 0 1359 1928  548
[24]  47(B11) 1f 44  7  0    197.8  4091999.4  0.0  2 0 1741 2991 1575
[25]  49(B13) 1f 42  7  0  -2063.1  4092005.3  0.1  2 0 1185 1998  922
[26]  54(B18) 1f 43  7  0  -1334.3  4092003.4 -0.0  2 0 2064 2538 1254
[27]  59(B23) 1f 44  7  0  -2841.5  4092007.4 -0.0  2 0 2076 3555 1684
[28]  60(B24) 1f 38  7  0   2014.9  4091994.7 -0.2  2 0 1153 1351  191
[29]  61(B25) 1f 45  7  0    187.6  4091999.4 -0.0  2 0 2764 3817 1689
[30]  64(B28)  1  7  7  0  -2605.0  4092008.2 -0.0  1 0  103  263  170
[32]  77(N-4)  1 29 29  0  -3714.7  1022002.3  1.0  1 0   865 1822  598
[33]  78(N-3)  1 24  7  0   2681.6  1021998.2  0.1  1 0   426  591  627
[34]  79(N-2)  1 33 20  0     40.0  1022000.0  1.0  1 0  1203 1385  414
[35]  82(N01)  1 11 17  1   2113.6  1022000.2  0.0  1 0   484  307  296
[36]  83(N02)  1 26  7  0    195.0  1021999.9  1.0  1 0  2123 2949 1286
[37]  86(N05)  1 33 21  0    482.6  1022000.0  0.9  1 0  3112 3232 1228
[48]  37(B01)  1 18 18  1  -1343.6 20460019.5 -0.1  1 0  375  343  485
[50]  39(B03)  1 21 36  1  -2024.7 20460018.4 -0.1  1 0 1003  758  342
---00000010--- Acq_st=7 0  2019-4-20 8:0:46 
[00]  00(G01)  f 45  7  0  -1216.5  2046001.5  0.0  2 0 2857 4419 2220
[02]  06(G07)  f 44  7  0    981.2  2045998.7 -0.0  2 0 2237 3820 2078
[03]  07(G08)  f 39  7  0   1466.5  2045998.0  0.0  2 0 1476 1626  301
[04]  10(G11)  f 43  7  0    106.6  2045999.8  0.1  2 0 1490 3149 1858
[05]  17(G18)  f 44  7  0    619.5  2045999.1 -0.0  2 0 2600 3392 1468
[08]  27(G28)  f 41  7  0  -2951.6  2046003.8 -0.0  2 0  940 2053 1370
[09]  29(G30)  f 46  7  0  -1226.9  2046001.5 -0.0  2 0 3901 6303 2656
[16]  37(B01) 1f 41 17  0  -1108.8  4092002.8 -0.5  2 0 1287 1264  335
[18]  39(B03) 1f 43 30  0  -1122.8  4092002.9  0.2  2 0 1778 2560 1491
[20]  43(B07) 1f 42  7  0  -1265.9  4092003.2 -0.0  2 0 1269 1787 1059
[22]  46(B10) 1f 42  7  0  -1559.1  4092004.0  0.0  2 0 1755 2444  992
[24]  47(B11) 1f 44  7  0    186.7  4091999.4 -0.0  2 0 2350 2636 1095
[25]  49(B13) 1f 42  7  0  -2071.0  4092005.3 -0.0  2 0 2028 2286  804
[26]  54(B18) 1f 43  7  0  -1343.2  4092003.4 -0.0  2 0 2392 2672  997
[27]  59(B23) 1f 45  7  0  -2846.6  4092007.4  0.0  2 0 3256 4211 1967
[28]  60(B24) 1f 37  7  0   2006.7  4091994.7 -0.1  2 0 1229 1295  443
[29]  61(B25) 1f 44  7  0    176.4  4091999.4 -0.0  2 0 1826 3182  838
[30]  64(B28)  1  7  7  0  -2730.7  4092008.5 -0.1  1 0  657  528  515
[32]  77(N-4)  7 25  7  0  -3723.1  1022002.4  1.0 10 0   827 1869 1180
[33]  78(N-3)  7 11  7  0   2671.3  1021998.3  0.2 10 0   303   40   44
[34]  79(N-2)  1 33 26  0     31.9  1021999.8  1.0  1 0  1070 1670  809
[35]  82(N01)  1 15 12  1   1982.1  1021999.6 -0.0  1 0   430  139  460
[36]  83(N02)  1 26 13  0    186.8  1021999.6  1.0  1 0  1509 2736 1168
[37]  86(N05)  7 32 10  0    476.0  1021999.6  0.3  5 0  2806 3780 1802
[50]  39(B03)  1 20 36  1  -1306.5 20460018.9 -0.1  1 0  318   86  236
[52]  43(B07)  1  7  7  0   -626.3 20460017.8 -0.0  1 0  405  986  861
[54]  46(B10)  1  7  7  0  -1387.6 20460024.6 -0.0  1 0  303  249  565
[56]  47(B11)  1  7  7  0    145.6 20459994.7 -0.1  1 0  822  946  360
[57]  49(B13)  1  7  8  0  -2342.3 20460033.8 -0.0  1 0  129  512  495
[58]  54(B18)  1  7  7  0  -1469.6 20460022.3  0.1  1 0  254   93  331
[59]  59(B23)  1  7  7  0  -2257.7 20460045.0 -0.1  1 0  411  262   89
[60]  60(B24)  1  7  7  0   1546.9 20459968.4  0.0  1 0  689  170   48
[61]  61(B25)  1  7  7  0   -316.4 20459997.9 -0.1  1 0  632  597  132
$GNGGA,080046.832,,,,,0,00,,,M,,,,0000*28
$GNRMC,080046.832,A,,,,,,,120180,,*2F
$GPGSA,A,1,,,,,,,,,,,,,,,*1E
$BDGSA,A,1,,,,,,,,,,,,,,,*0F
$GLGSA,A,1,,,,,,,,,,,,,,,*02
$GPGSV,2,1,07,01,00,000,45,07,00,000,44,08,00,000,39,11,00,000,43*7F
$GPGSV,2,2,07,18,00,000,44,28,00,000,41,30,00,000,46*49
$BDGSV,3,1,10,01,00,000,41,03,00,000,43,07,00,000,42,10,00,000,42*6D
$BDGSV,3,2,10,11,00,000,44,13,00,000,42,18,00,000,43,23,00,000,45*62
$BDGSV,3,3,10,24,00,000,37,25,00,000,44*6C
$B3CN0,0,0,0,0,0,0,0,0,0,0,0,0,0,0*4C
---00000011--- Acq_st=3 0  2019-4-20 8:0:47 
[00]  00(G01)  f 46  7  0  -1209.4  2046001.5 -0.0  2 0 2843 4588 1995
[01]  12(G13)  1  7  7  0  -1250.0  2046002.7  0.0  1 0  863 1176 1399
[02]  06(G07)  f 45  7  0    987.3  2045998.7 -0.0  2 0 2900 4294 2216
[03]  07(G08)  f 39  7  0   1470.6  2045998.0 -0.0  2 0 1018 1871  843
[04]  10(G11)  f 43 12  0    112.4  2045999.8  0.0  2 0 2295 2620  842
[05]  17(G18)  f 44  7  0    625.5  2045999.1 -0.0  2 0 2467 3314 1265
[08]  27(G28)  f 42  7  0  -2945.4  2046003.8 -0.0  2 0 2177 3079 1494
[09]  29(G30)  f 46  7  0  -1221.6  2046001.5  0.0  2 0 3580 5850 2748
[16]  37(B01) 1f 40 20  0  -1101.4  4092002.8  0.3  2 0  724 1878 1115
[18]  39(B03) 1f 43 29  0  -1118.2  4092002.8  0.2  2 0 1873 2652 1275
[20]  43(B07) 1f 43  7  0  -1263.3  4092003.2  0.0  2 0 1834 2550  955
[22]  46(B10) 1f 42  7  0  -1556.1  4092004.0  0.1  2 0 1724 1921  767
[24]  47(B11) 1f 44  7  0    192.6  4091999.4 -0.0  2 0 2217 3063 1456
[25]  49(B13) 1f 43  7  0  -2066.4  4092005.3 -0.0  2 0 2181 2675 1139
[26]  54(B18) 1f 43  7  0  -1336.6  4092003.4  0.0  2 0 2198 2699  962
[27]  59(B23) 1f 45  7  0  -2843.8  4092007.4 -0.0  2 0 2918 3518 1443
[28]  60(B24) 1f 37  7  0   2006.2  4091994.7 -0.4  2 0  917  975   65
[29]  61(B25) 1f 45  7  0    182.7  4091999.4 -0.0  2 0 1877 3236 1410
[32]  77(N-4)  7 46 30  0  -3716.2  1022002.4  0.1  2 0  1237 1940  830
[33]  78(N-3)  7 33  7  0   2676.4  1021998.3 -0.0  5 0   124  527  197
[34]  79(N-2)  7 44 25  0     39.6  1021999.9  0.2  2 0   890 1330  393
[35]  82(N01)  1 16 15  1   2243.9  1021999.5  0.2  1 0   167  332  328
[36]  83(N02)  1 26 14  0    193.0  1021999.8  1.0  1 0  1459 3295 1684
[37]  86(N05)  7 48 23  0    483.0  1021999.6  0.0  2 0  2732 3666 1611
[48]  37(B01)  1 10 16  0   -790.3 20460017.5 -0.1  1 0   64  231  300
[52]  43(B07)  1  7  7  0   -286.3 20460019.1 -0.0  1 0  323  184  423
[54]  46(B10)  1  7  7  0  -1495.9 20460024.9 -0.1  1 0  436  442  655
[56]  47(B11)  7 22  7  0    148.5 20459997.3 -0.0 10 0  639  587  409
[57]  49(B13)  1  7  7  0  -1864.7 20460032.2 -0.0  1 0  416  295  250
[58]  54(B18)  1  7  7  0  -1170.0 20460020.5  0.1  1 0  429  173  595
[59]  59(B23)  1  7  7  0  -2956.3 20460046.0  0.1  1 0  477  279   72
[60]  60(B24)  1  7  7  0   1024.4 20459967.2 -0.0  1 0  289  327  505
[61]  61(B25)  1  7  7  0   -284.9 20459998.7 -0.2  1 0  631  362  159
$GNGGA,080047.832,,,,,0,00,,,M,,,,0000*29
$GNRMC,080047.832,A,,,,,,,120180,,*2E
$GPGSA,A,1,,,,,,,,,,,,,,,*1E
$BDGSA,A,1,,,,,,,,,,,,,,,*0F
$GLGSA,A,1,,,,,,,,,,,,,,,*02
$GPGSV,2,1,07,01,00,000,46,07,00,000,45,08,00,000,39,11,00,000,43*7D
$GPGSV,2,2,07,18,00,000,44,28,00,000,42,30,00,000,46*4A
$BDGSV,3,1,10,01,00,000,40,03,00,000,43,07,00,000,43,10,00,000,42*6D
$BDGSV,3,2,10,11,00,000,44,13,00,000,43,18,00,000,43,23,00,000,45*63
$BDGSV,3,3,10,24,00,000,37,25,00,000,45*6D
$B3CN0,0,0,0,0,0,0,0,0,0,0,22,0,0,0*7C
---00000012--- Acq_st=3 0  2019-4-20 8:0:48 
[00]  00(G01)  f 46  7  0  -1209.9  2046001.5  0.0  2 0 2800 4422 2104
[01]  12(G13)  1 27  7  0  -1172.0  2046002.1  0.5  1 0  592 1122  493
[02]  06(G07)  f 45  7  0    985.2  2045998.7 -0.0  2 0 2598 3634 1588
[03]  07(G08)  f 39  7  0   1467.8  2045998.0 -0.1  2 0 1211 2227 1064
[04]  10(G11)  f 44  7  0    110.9  2045999.8 -0.1  2 0 1894 3334 1610
[05]  17(G18)  f 44  7  0    626.0  2045999.1 -0.0  2 0 2161 3222 1204
[06]  16(G17)  1  7  7  0  -3378.5  2046004.1 -0.2  1 0  452  757  457
[08]  27(G28)  f 41  7  0  -2947.9  2046003.8  0.0  2 0 1698 1937  547
[09]  29(G30)  f 46  7  0  -1223.7  2046001.5 -0.0  2 0 3352 5377 2672
[10]  21(G22)  1  7  7  0  -2890.2  2046004.9  0.1  1 0  670 1288  867
[16]  37(B01) 1f 40 23  0  -1102.6  4092002.8 -0.3  2 0  943 1287  569
[18]  39(B03) 1f 43 31  0  -1118.8  4092002.8 -0.1  2 0 1901 2026 1126
[20]  43(B07) 1f 43 10  0  -1266.8  4092003.2 -0.1  2 0 1461 1876  990
[22]  46(B10) 1f 43  7  0  -1556.1  4092004.0 -0.1  2 0 1759 2507 1291
[24]  47(B11) 1f 44  7  0    194.0  4091999.4 -0.0  2 0 2255 3193 1495
[25]  49(B13) 1f 42  7  0  -2068.0  4092005.3  0.0  2 0 1659 2391 1135
[26]  54(B18) 1f 43  7  0  -1339.8  4092003.4  0.0  2 0 2264 2997 1234
[27]  59(B23) 1f 44  9  0  -2843.1  4092007.3 -0.0  2 0 2714 3567 1152
[28]  60(B24) 1f 38  7  0   2013.6  4091994.6  0.4  2 0 1017 1181  558
[29]  61(B25) 1f 44  7  0    181.7  4091999.4  0.0  2 0 2908 3566 1311
[32]  77(N-4)  7 46 28  0  -3717.4  1022002.3  0.2  2 0  1067 1998 1081
[33]  78(N-3)  7 34  7  0   2673.5  1021998.2 -0.1  5 0   145  439  419
[34]  79(N-2)  7 44 23  0     38.6  1022000.0  0.3  2 0  1087 1767  588
[35]  82(N01)  1 18 19  1   2254.6  1022000.5  0.1  1 0   165  220  156
[36]  83(N02)  1 26  7  0    191.3  1021999.9  1.0  1 0  1377 2976 1697
[37]  86(N05)  7 48 16  0    481.9  1021999.6 -0.0  2 0  2344 3693 1400
[48]  37(B01)  1 10 16  0   -561.2 20460021.1 -0.1  1 0  717  459  442
[50]  39(B03)  1 21 20  1  -1296.0 20460018.6  0.1  1 0   77  289  285
[52]  43(B07)  1  7  7  0    189.1 20460018.8  0.1  1 0  882  362  342
[54]  46(B10)  1  7  7  0  -1212.8 20460024.7  0.1  1 0  383  407  559
[56]  47(B11)  7 30  9  0    145.4 20459996.7  0.1  5 0  383  951  901
[57]  49(B13)  1  7  8  0  -1480.1 20460034.3  0.1  1 0  556  681  619
[58]  54(B18)  1  7  7  0  -1361.4 20460022.0  0.1  1 0  688  624  773
[59]  59(B23)  1  7  7  0  -2960.3 20460046.4 -0.1  1 0  489  293  218
[60]  60(B24)  1  7  7  0    592.7 20459967.6 -0.2  1 0  587  230  346
[61]  61(B25)  1 11  7  0   -283.2 20459996.9  0.0  1 0  837  676  181
$GNGGA,080048.832,,,,,0,00,,,M,,,,0000*26
$GNRMC,080048.832,A,,,,,,,200419,,*25
$GPGSA,A,1,,,,,,,,,,,,,,,*1E
$BDGSA,A,1,,,,,,,,,,,,,,,*0F
$GLGSA,A,1,,,,,,,,,,,,,,,*02
$GPGSV,2,1,07,01,00,000,46,07,00,000,45,08,00,000,39,11,00,000,44*7A
$GPGSV,2,2,07,18,00,000,44,28,00,000,41,30,00,000,46*49
$BDGSV,3,1,10,01,00,000,40,03,00,000,43,07,00,000,43,10,00,000,43*6C
$BDGSV,3,2,10,11,00,000,44,13,00,000,42,18,00,000,43,23,00,000,44*63
$BDGSV,3,3,10,24,00,000,38,25,00,000,44*63
$B3CN0,0,0,0,0,0,0,0,0,0,0,30,0,0,0*7F
---00000013--- Acq_st=3 0  2019-4-20 8:0:49 
[00]  00(G01)  f 46  7  0  -1205.3  2046001.5  0.0  2 0 2660 4236 1923
[01]  12(G13)  7 29  7  0  -1177.9  2046001.5  0.3  5 0  770  724  339
[02]  06(G07)  f 45  7  0    992.8  2045998.7 -0.0  2 0 2345 3294 1226
[03]  07(G08)  f 40  7  0   1471.0  2045998.0 -0.0  2 0  948 1681  780
[04]  10(G11)  f 43  7  0    119.5  2045999.8  0.1  2 0 2269 3726 1687
[05]  17(G18)  f 44  7  0    630.4  2045999.1  0.1  2 0 2191 3459 1876
[06]  16(G17)  1  7  7  0  -3555.5  2046003.7  0.0  1 0  304  422  389
[08]  27(G28)  f 41  7  0  -2944.3  2046003.7  0.0  2 0 1680 2415 1533
[09]  29(G30)  f 47  7  0  -1217.4  2046001.5 -0.0  2 0 4087 6090 2758
[10]  21(G22)  1 29  7  0  -2881.0  2046003.9  0.8  1 0  389 1794 1795
[16]  37(B01) 1f 41 13  0  -1097.9  4092002.7  0.2  2 0 1447 2214  770
[17]  38(B02)  1 10 26  1   -814.2  4092002.4  0.2  1 0  677  371  620
[18]  39(B03) 1f 43 29  0  -1116.2  4092002.8 -0.4  2 0 1783 2311 1028
[19]  40(B04)  1 23 18  1  -1235.5  4092004.0 -0.1  1 0   96  459  991
[20]  43(B07) 1f 42  7  0  -1261.5  4092003.2 -0.0  2 0 1688 2077  740
[21]  41(B05)  1 10 10  1   -750.0  4092002.5  0.1  1 0  287  478  674
[22]  46(B10) 1f 42  7  0  -1553.0  4092004.0  0.0  2 0 2267 2444 1000
[24]  47(B11) 1f 44  7  0    197.7  4091999.4  0.0  2 0 2173 3065 1856
[25]  49(B13) 1f 42  7  0  -2062.1  4092005.3 -0.0  2 0 1024 1988 1129
[26]  54(B18) 1f 43  7  0  -1332.1  4092003.4  0.0  2 0 1900 2711 1000
[27]  59(B23) 1f 44  7  0  -2837.6  4092007.3 -0.1  2 0 2553 3397 1253
[28]  60(B24) 1f 38  7  0   2015.2  4091994.6  0.5  2 0  733 1597  724
[29]  61(B25) 1f 44  7  0    189.1  4091999.4  0.0  2 0 2267 3552 1776
[30]  44(B08)  1  7  7  0  -1500.0  4092004.3 -0.1  1 0  224  709  830
[32]  77(N-4)  7 46 28  0  -3712.4  1022002.3  0.1  2 0  1342 1955  798
[33]  78(N-3)  7 34  7  0   2679.3  1021998.2  0.0  2 0   505  843  455
[34]  79(N-2)  7 45 20  0     42.8  1021999.9 -0.0  2 0   741 1742  742
[37]  86(N05)  7 49 20  0    487.3  1021999.6  0.0  2 0  2265 3993 2113
[48]  37(B01)  7 17 10  1  -1203.9 20460017.4 -0.1  2 0  716  242  255
[50]  39(B03)  7 17 13  1   -713.0 20460010.9  0.1  2 0  264  127  178
[52]  43(B07)  1  7  7  0    -32.6 20460020.0  0.3  1 0  190  246  228
[54]  46(B10)  1  7  7  0  -1176.1 20460022.9 -0.1  1 0  397  478  183
[56]  47(B11)  7 30  8  0    153.2 20459997.0  0.0  5 0  835  453  383
[57]  49(B13)  1  7  7  0  -1344.8 20460031.8 -0.0  1 0   63   92  304
[58]  54(B18)  1  7  7  0  -1501.6 20460022.8 -0.2  1 0  702   90  286
[59]  59(B23)  1  7  7  0  -2384.4 20460045.9  0.1  1 0  741  568  165
[60]  60(B24)  1  7  7  0   1061.2 20459967.4  0.1  1 0  560 1059  770
[61]  61(B25)  1  8  7  0   -684.0 20459996.5  0.0  1 0  185  191  296
$GNGGA,080049.832,,,,,0,00,,,M,,,,0000*27
$GNRMC,080049.832,A,,,,,,,200419,,*24
$GPGSA,A,1,,,,,,,,,,,,,,,*1E
$BDGSA,A,1,,,,,,,,,,,,,,,*0F
$GLGSA,A,1,,,,,,,,,,,,,,,*02
$GPGSV,2,1,08,01,00,000,46,13,00,000,29,07,00,000,45,08,00,000,40*72
$GPGSV,2,2,08,11,00,000,43,18,00,000,44,28,00,000,41,30,00,000,47*70
$BDGSV,3,1,10,01,00,000,41,03,00,000,43,07,00,000,42,10,00,000,42*6D
$BDGSV,3,2,10,11,00,000,44,13,00,000,42,18,00,000,43,23,00,000,44*63
$BDGSV,3,3,10,24,00,000,38,25,00,000,44*63
$B3CN0,17,0,0,0,0,0,0,0,0,0,30,0,0,0*49
---00000014--- Acq_st=3 0  2019-4-20 8:0:50 
[00]  00(G01)  f 46  7  0  -1202.7  2046001.5 -0.0  2 0 2557 4016 1570
[01]  12(G13)  7 36  7  0  -1175.6  2046001.4  0.4  2 0  624 1135  705
[02]  06(G07)  f 44 10  0    991.5  2045998.7 -0.0  2 0 2722 4237 2794
[03]  07(G08)  f 40  7  0   1471.6  2045998.0 -0.1  2 0  883 1789  870
[04]  10(G11)  f 43  7  0    116.9  2045999.8  0.0  2 0 2180 3279 1743
[05]  17(G18)  f 44  7  0    630.2  2045999.1 -0.0  2 0 2228 3312  710
[06]  16(G17)  1  7  7  0  -3917.2  2046003.8 -0.1  1 0  240  145  538
[08]  27(G28)  f 42  7  0  -2941.1  2046003.8 -0.0  2 0 1800 2501  652
[09]  29(G30)  f 46 10  0  -1217.7  2046001.5  0.0  2 0 4128 6050 2434
[10]  21(G22)  7 36  7  0  -2881.0  2046003.7  0.2  2 0  746 1828 1545
[16]  37(B01) 1f 42 10  0  -1099.1  4092002.7  0.5  2 0 1568 1871 1230
[17]  38(B02)  7 20 20  1   -822.6  4092002.1 -0.0  2 0  590  343  399
[18]  39(B03) 1f 43 31  0  -1114.2  4092002.7  0.1  2 0 2064 2181  489
[19]  40(B04)  1 10 10  1  -1616.8  4092005.0 -0.1  1 0 1159 1022  511
[20]  43(B07) 1f 43 11  0  -1256.6  4092003.2  0.0  2 0 1666 2389 1042
[21]  41(B05)  1 22 10  1   -559.8  4092001.9  0.2  1 0  537  725  706
[22]  46(B10) 1f 43  7  0  -1553.3  4092004.0  0.0  2 0 2113 2418  616
[24]  47(B11) 1f 44  7  0    197.7  4091999.4 -0.1  2 0 2055 2650 1657
[25]  49(B13) 1f 42  7  0  -2066.8  4092005.3  0.0  2 0 1796 2203  590
[26]  54(B18) 1f 43  7  0  -1334.7  4092003.4  0.0  2 0 2209 3009 1143
[27]  59(B23) 1f 44 11  0  -2836.8  4092007.3  0.0  2 0 2740 3525 1308
[28]  60(B24) 1f 37  7  0   2011.0  4091994.6  0.1  2 0  817 1177  583
[29]  61(B25) 1f 44  7  0    189.7  4091999.4 -0.0  2 0 2616 3242 1469
[30]  44(B08)  1  7  7  0  -1596.4  4092006.2  0.3  1 0 1437 2397 1663
[32]  77(N-4)  f 35 21  0  -3710.7  1022002.3  0.2  2 0  1340 1785  699
[33]  78(N-3)  f 31  7  0   2680.9  1021998.3 -0.0  5 0   368  552  574
[34]  79(N-2)  f 35 23  0     43.5  1021999.9 -0.2  2 0   875 1496  555
[37]  86(N05)  f 35  7  0    487.5  1021999.6 -0.1  2 0  2696 4031 1917
[48]  37(B01)  7 10 16  0  -1685.1 20460027.3 -0.1  2 0  671  806  728
[50]  39(B03)  7 21 18  0   -896.2 20460015.8  0.2  2 0  151  327  203
[56]  47(B11)  7 30  7  0    148.2 20459996.4 -0.0  5 0  787 1151 1014
$GNGGA,080050.832,,,,,0,00,,,M,,,,0000*2F
$GNRMC,080050.832,A,,,,,,,200419,,*2C
$GPGSA,A,1,,,,,,,,,,,,,,,*1E
$BDGSA,A,1,,,,,,,,,,,,,,,*0F
$GLGSA,A,1,,,,,,,,,,,,,,,*02
$GPGSV,3,1,09,01,00,000,46,13,00,000,36,07,00,000,44,08,00,000,40*7D
$GPGSV,3,2,09,11,00,000,43,18,00,000,44,28,00,000,42,30,00,000,46*72
$GPGSV,3,3,09,22,00,000,36*45
$BDGSV,3,1,11,01,00,000,42,02,00,000,20,03,00,000,43,07,00,000,43*69
$BDGSV,3,2,11,10,00,000,43,11,00,000,44,13,00,000,42,18,00,000,43*65
$BDGSV,3,3,11,23,00,000,44,24,00,000,37,25,00,000,44*5C
$B3CN0,0,0,20,0,0,0,0,0,0,0,30,0,0,0*4D
---00000015--- Acq_st=3 0  2019-4-20 8:0:51 
[00]  00(G01)  f 45  7  0  -1203.9  2046001.5 -0.0  2 0 2823 4139 1928
[01]  12(G13)  7 37  7  0  -1176.7  2046001.5 -0.4  2 0 1035 1893 1032
[02]  06(G07)  f 45 10  0    989.9  2045998.6 -0.0  2 0 3295 4421 2697
[03]  07(G08)  f 39  7  0   1465.8  2045998.0  0.0  2 0 1064 1300  500
[04]  10(G11)  f 44  7  0    113.2  2045999.8 -0.1  2 0 1762 3009 1121
[05]  17(G18)  f 43  7  0    629.8  2045999.1 -0.1  2 0 1477 2860 1316
[06]  16(G17)  1  7  8  0  -4019.0  2046003.9 -0.0  1 0  182   55  277
[08]  27(G28)  f 42  7  0  -2944.7  2046003.7  0.0  2 0  765 2054 1577
[09]  29(G30)  f 47  7  0  -1219.5  2046001.5  0.0  2 0 3675 5558 2462
[10]  21(G22)  7 38  7  0  -2881.2  2046003.7 -0.2  2 0  393 1100  600
[16]  37(B01) 1f 40 18  0  -1102.8  4092002.7 -0.1  2 0 1749 2214  665
[17]  38(B02)  7 10 28  1   -990.1  4092002.5 -0.0  2 0  353  120  938
[18]  39(B03) 1f 43 30  0  -1119.7  4092002.8  0.2  2 0 1563 2248  997
[19]  40(B04)  1 19 10  0  -2385.4  4092005.5  0.1  1 0  330  577  438
[20]  43(B07) 1f 43 14  0  -1263.3  4092003.2 -0.0  2 0 1597 2171 1326
[21]  41(B05)  7 10 10  0   -742.5  4092002.0 -0.1  2 0  546  236   41
[22]  46(B10) 1f 43  7  0  -1557.0  4092004.0 -0.0  2 0 1812 2676 1267
[24]  47(B11) 1f 44  7  0    196.1  4091999.4 -0.0  2 0 2242 2885 1117
[25]  49(B13) 1f 42  7  0  -2067.9  4092005.3  0.0  2 0 1601 2153  983
[26]  54(B18) 1f 44  7  0  -1340.0  4092003.4  0.0  2 0 2548 2730  949
[27]  59(B23) 1f 44  7  0  -2842.7  4092007.3  0.0  2 0 2524 3466 1444
[28]  60(B24) 1f 37  7  0   2003.9  4091994.6 -0.3  2 0 1199 1239  346
[29]  61(B25) 1f 45  7  0    184.5  4091999.4  0.0  2 0 3226 4009 1377
[30]  44(B08)  7 29  7  0  -1593.6  4092004.1  0.1  5 0 1444 1934  396
[32]  77(N-4)  f 46 25  0  -3714.4  1022002.3 -0.0  2 0  1123 2035  924
[33]  78(N-3)  f 34  7  0   2678.3  1021998.3  0.1  5 0   175  366  261
[34]  79(N-2)  f 44 22  0     40.9  1021999.9 -0.1  2 0   836 1530  545
[37]  86(N05)  f 46  7  0    484.5  1021999.6  0.0  2 0  2350 3733 1752
[48]  37(B01)  7 10 10  0  -1691.8 20460025.4  0.2  2 0   90  360  389
[50]  39(B03)  7 36 20  0  -1444.3 20460024.4 -0.2  2 0  205  112  325
[52]  43(B07)  1  7  7  0   -708.8 20460017.7 -0.0  1 0  162  224  542
[54]  46(B10)  1  7  7  0  -1585.8 20460026.0  0.0  1 0  189  358  767
[56]  47(B11) 1f 30 12  0    147.5 20459996.5 -0.0  5 0  684  916  812
[57]  49(B13)  1  7  7  0  -1604.2 20460033.9  0.0  1 0  736  861  723
[58]  54(B18)  1  7  7  0  -1215.3 20460021.9  0.1  1 0  291  592  549
[59]  59(B23)  1  7  7  0  -2472.0 20460044.7  0.0  1 0   44  255  149
[60]  60(B24)  1  7  7  0   1779.0 20459967.8 -0.1  1 0  119  648  611
[61]  61(B25)  1  7  7  0      5.8 20459999.0 -0.1  1 0  391  330   61
$GNGGA,080051.832,,,,,0,00,,,M,,,,0000*2E
$GNRMC,080051.832,A,,,,,,,200419,,*2D
$GPGSA,A,1,,,,,,,,,,,,,,,*1E
$BDGSA,A,1,,,,,,,,,,,,,,,*0F
$GLGSA,A,1,,,,,,,,,,,,,,,*02
$GPGSV,3,1,09,01,00,000,45,13,00,000,37,07,00,000,45,08,00,000,39*70
$GPGSV,3,2,09,11,00,000,44,18,00,000,43,28,00,000,42,30,00,000,47*73
$GPGSV,3,3,09,22,00,000,38*4B
$BDGSV,3,1,11,01,00,000,40,03,00,000,43,07,00,000,43,10,00,000,43*6D
$BDGSV,3,2,11,11,00,000,44,13,00,000,42,18,00,000,44,23,00,000,44*65
$BDGSV,3,3,11,24,00,000,37,25,00,000,45,08,00,000,29*5F
$B3CN0,36,0,36,0,0,0,0,0,0,0,30,0,0,0*7F
---00000016--- Acq_st=2 0  2019-4-20 8:0:52 
[00]  00(G01)  f 45  7  0  -1208.2  2046001.5  0.0  2 0 2238 4020 2267
[01]  12(G13)  7 37  7  0  -1183.3  2046001.5  0.3  2 0  543 1273 1015
[02]  06(G07)  f 45  8  0    989.1  2045998.6  0.0  2 0 2652 4258 2106
[03]  07(G08)  f 39  7  0   1462.6  2045998.0  0.0  2 0  613 1213  685
[04]  10(G11)  f 44  7  0    112.6  2045999.8 -0.0  2 0 1950 3213 1278
[05]  17(G18)  f 43  7  0    625.8  2045999.1 -0.0  2 0 2350 3339 1622
[08]  27(G28)  f 42  7  0  -2949.3  2046003.8  0.0  2 0 1826 2298  547
[09]  29(G30)  f 46  7  0  -1221.5  2046001.5 -0.0  2 0 3480 5667 2568
[10]  21(G22)  7 39  7  0  -2887.4  2046003.7 -0.0  2 0 1212 1605  884
[16]  37(B01) 1f 42 14  0  -1102.7  4092002.8 -0.5  2 0 1018 1886  825
[17]  38(B02)  7 18 30  1  -1031.3  4092002.5  0.0  2 0  552  540  841
[18]  39(B03) 1f 42 28  0  -1119.4  4092002.8 -0.0  2 0 1693 2281 1040
[19]  40(B04)  1 10 10  0  -2453.4  4092006.6  0.1  1 0  578  568  692
[20]  43(B07) 1f 43 13  0  -1261.0  4092003.2 -0.0  2 0 1740 2567 1004
[21]  41(B05)  7 18 20  0  -1100.5  4092002.6  0.0  2 0  200  133   73
[22]  46(B10) 1f 43  7  0  -1558.9  4092004.0  0.0  2 0 1845 2867 1251
[24]  47(B11) 1f 44  7  0    193.2  4091999.3  0.0  2 0 2121 2869 1777
[25]  49(B13) 1f 42  7  0  -2066.7  4092005.3  0.0  2 0 1215 1643  521
[26]  54(B18) 1f 44  7  0  -1341.1  4092003.4 -0.0  2 0 2238 2743 1001
[27]  59(B23) 1f 45  7  0  -2843.9  4092007.3 -0.0  2 0 2350 3256 1312
[28]  60(B24) 1f 38  7  0   2002.4  4091994.6 -0.1  2 0  730 1104  497
[29]  61(B25) 1f 45  7  0    185.3  4091999.4  0.0  2 0 2933 3792 1652
[30]  44(B08)  7 42  8  0  -1596.8  4092004.0  0.0  2 0 1713 1920  547
[32]  77(N-4)  f 46 22  0  -3714.2  1022002.3  0.1  2 0  1134 1905  864
[33]  78(N-3)  f 34  7  0   2675.9  1021998.2 -0.0  5 0   679  851  542
[34]  79(N-2)  f 44 22  0     40.0  1021999.9  0.1  2 0   780 1331  611
[35]  81(N00)  1 17 18  0 297595.1  1022003.0  0.0  1 0   253  125  401
[37]  86(N05)  f 46  7  0    484.7  1021999.7  0.0  2 0  2147 3789 1704
[48]  37(B01)  7 10 10  0  -2021.8 20460034.5 -0.1  2 0  351  621  973
[50]  39(B03)  7 18 22  1  -1637.3 20460028.3 -0.1  2 0  771  711  350
[52]  43(B07)  1  7  7  0  -1281.5 20460019.2  0.1  1 0  205  424  809
[54]  46(B10)  1  7  7  0  -1750.6 20460024.0  0.0  1 0  404  372  393
[56]  47(B11) 1f 30  7  0    142.2 20459996.8 -0.0  5 0  580  711  357
[57]  49(B13)  1  9  7  0  -1689.0 20460031.7 -0.0  1 0  348  235  587
[58]  54(B18)  1  7  7  0  -1552.0 20460020.3  0.0  1 0  222  603  518
[59]  59(B23)  1  7  7  0  -2456.7 20460045.0  0.0  1 0  197  234  467
[60]  60(B24)  1  8  8  0   1622.5 20459967.6  0.0  1 0  595  585  110
[61]  61(B25)  1 14  9  0     40.1 20459996.4 -0.0  1 0  331  200  173
$GNGGA,080052.832,,,,,0,00,,,M,,,,0000*2D
$GNRMC,080052.832,A,,,,,,,200419,,*2E
$GPGSA,A,1,,,,,,,,,,,,,,,*1E
$BDGSA,A,1,,,,,,,,,,,,,,,*0F
$GLGSA,A,1,,,,,,,,,,,,,,,*02
$GPGSV,3,1,09,01,00,000,45,13,00,000,37,07,00,000,45,08,00,000,39*70
$GPGSV,3,2,09,11,00,000,44,18,00,000,43,28,00,000,42,30,00,000,46*72
$GPGSV,3,3,09,22,00,000,39*4A
$BDGSV,3,1,12,01,00,000,42,02,00,000,18,03,00,000,42,07,00,000,43*60
$BDGSV,3,2,12,05,00,000,18,10,00,000,43,11,00,000,44,13,00,000,42*64
$BDGSV,3,3,12,18,00,000,44,23,00,000,45,24,00,000,38,25,00,000,45*69
$B3CN0,0,0,17,0,0,0,0,0,0,0,30,0,0,0*49
---00000017--- Acq_st=7 0  2019-4-20 8:0:53 
[00]  00(G01)  f 46  7  0  -1201.1  2046001.5  0.0  2 0 3319 5256 2296
[01]  12(G13)  7 37  7  0  -1186.6  2046001.4 -0.2  2 0  750  935  848
[02]  06(G07)  f 45  7  0    992.6  2045998.6 -0.0  2 0 2571 3320 1330
[03]  07(G08)  f 39  7  0   1470.2  2045998.1  0.0  2 0  757 1369  817
[04]  10(G11)  f 43  7  0    116.4  2045999.8  0.1  2 0 1639 2645 1222
[05]  17(G18)  f 44  7  0    627.2  2045999.1  0.0  2 0 2272 3476 1878
[08]  27(G28)  f 41  7  0  -2944.8  2046003.8  0.1  2 0 1533 2242 1560
[09]  29(G30)  f 46  7  0  -1215.5  2046001.5 -0.0  2 0 2899 5382 2256
[10]  21(G22)  7 38  7  0  -2880.4  2046003.7  0.0  2 0 1217 1815  459
[16]  37(B01) 1f 41 14  0  -1102.3  4092002.7 -0.3  2 0 2137 1795  597
[17]  38(B02)  7 36 10  0  -1442.7  4092003.9 -0.1  2 0  239  371  902
[18]  39(B03) 1f 45 31  0  -1116.9  4092002.8  0.3  2 0 1456 1858  737
[19]  40(B04)  7 10 24  1  -2821.4  4092007.4 -0.1  2 0  490  359  426
[20]  43(B07) 1f 43  7  0  -1260.9  4092003.2 -0.0  2 0 1602 2454 1387
[21]  41(B05)  7 36 10  0  -1693.8  4092004.2  0.0  2 0  579   53   63
[22]  46(B10) 1f 43  7  0  -1553.2  4092003.9 -0.0  2 0 1895 2977 1418
[24]  47(B11) 1f 45  7  0    195.9  4091999.4  0.0  2 0 2626 2879 1144
[25]  49(B13) 1f 43  7  0  -2061.2  4092005.3 -0.0  2 0 1297 1886 1016
[26]  54(B18) 1f 44  7  0  -1337.8  4092003.4 -0.0  2 0 2111 2793 1445
[27]  59(B23) 1f 45  7  0  -2840.6  4092007.3 -0.0  2 0 2575 3286 1423
[28]  60(B24) 1f 38  7  0   2012.9  4091994.6  0.2  2 0 1416 1616 1227
[29]  61(B25) 1f 45  7  0    187.9  4091999.4  0.0  2 0 2944 3805 1856
[30]  44(B08)  7 42 11  0  -1591.0  4092004.1 -0.0  2 0 1380 2098 1281
[32]  77(N-4)  f 45 20  0  -3711.5  1022002.3 -0.1  2 0   919 2100 1052
[33]  78(N-3)  f 34  7  0   2678.7  1021998.3 -0.0  5 0   723  918  662
[34]  79(N-2)  f 44 17  0     43.6  1022000.0  0.0  2 0  1009 1685  633
[35]  81(N00)  1 23 16  0  -5245.6  1022004.2 -0.0  1 0   368  301  314
[37]  86(N05)  f 46  7  0    487.0  1021999.7  0.0  2 0  1965 3617 1842
[50]  39(B03)  7 25 18  0  -1958.5 20460030.6  0.1  2 0  688  661  626
[52]  43(B07)  1  7  7  0  -1431.2 20460017.6  0.0  1 0  487  633  430
[54]  46(B10)  1  7  7  0  -1676.5 20460025.0 -0.1  1 0  330  877  974
[56]  47(B11) 1f 30 10  0    161.5 20459996.9  0.0  5 0  308  606  113
[57]  49(B13)  1  7  7  0  -1065.7 20460031.5  0.0  1 0   86  289  592
[58]  54(B18)  1  7  7  0  -1539.0 20460021.2  0.1  1 0  688  665  596
[59]  59(B23)  1  7  7  0  -1388.6 20460045.6  0.1  1 0  562  180  454
[60]  60(B24)  1  7  7  0   1489.3 20459967.7 -0.1  1 0  176  415  640
[61]  61(B25)  1  7  7  0    338.8 20459996.4 -0.0  1 0  290  219  167
$GNGGA,080053.832,,,,,0,00,,,M,,,,0000*2C
$GNRMC,080053.832,A,,,,,,,200419,,*2F
$GPGSA,A,1,,,,,,,,,,,,,,,*1E
$BDGSA,A,1,,,,,,,,,,,,,,,*0F
$GLGSA,A,1,,,,,,,,,,,,,,,*02
$GPGSV,3,1,09,01,00,000,46,13,00,000,37,07,00,000,45,08,00,000,39*73
$GPGSV,3,2,09,11,00,000,43,18,00,000,44,28,00,000,41,30,00,000,46*71
$GPGSV,3,3,09,22,00,000,38*4B
$BDGSV,3,1,11,01,00,000,41,03,00,000,45,07,00,000,43,10,00,000,43*6A
$BDGSV,3,2,11,11,00,000,45,13,00,000,43,18,00,000,43,23,00,000,45*63
$BDGSV,3,3,11,24,00,000,38,25,00,000,45,08,00,000,42*5D
$B3CN0,0,0,25,0,0,0,0,0,0,0,30,0,0,0*48
---00000018--- Acq_st=7 0  2019-4-20 8:0:54 
[00]  00(G01)  f 45  7  0  -1196.4  2046001.5 -0.0  2 0 2610 4365 2915
[01]  12(G13)  7 37  7  0  -1169.6  2046001.5  0.0  2 0  810 1387  954
[02]  06(G07)  f 44  7  0    996.3  2045998.6 -0.0  2 0 2414 3998 2280
[03]  07(G08)  f 38  7  0   1474.2  2045998.0  0.1  2 0 1075 1420  534
[04]  10(G11)  f 44  7  0    119.4  2045999.8 -0.0  2 0 1852 3373 1565
[05]  17(G18)  f 45  7  0    635.6  2045999.1  0.0  2 0 2352 3861 1998
[08]  27(G28)  f 42  7  0  -2944.3  2046003.7  0.0  2 0 1744 2458 1197
[09]  29(G30)  f 46  7  0  -1212.5  2046001.5  0.0  2 0 3836 5688 2807
[10]  21(G22)  7 38  7  0  -2875.0  2046003.6  0.0  2 0 1318 1821  441
[16]  37(B01) 1f 40 17  0  -1099.1  4092002.8  0.0  2 0  845 1424  629
[17]  38(B02)  7 10 10  0  -1583.8  4092004.3  0.1  2 0  768 1280 1167
[18]  39(B03) 1f 43 29  0  -1109.2  4092002.8 -0.2  2 0 1532 2070 1137
[19]  40(B04)  7 10 10  1  -2684.3  4092007.0 -0.1  2 0   84  198  212
[20]  43(B07) 1f 43 13  0  -1258.7  4092003.2  0.0  2 0 1258 1863 1283
[21]  41(B05)  7 19 30  1  -2024.5  4092005.0  0.0  2 0  227  642  657
[22]  46(B10) 1f 43  7  0  -1549.3  4092004.0  0.0  2 0 1775 2665 1330
[24]  47(B11) 1f 44  7  0    199.5  4091999.3  0.0  2 0 2371 2834 1147
[25]  49(B13) 1f 43  7  0  -2060.8  4092005.3 -0.1  2 0 1436 1891  694
[26]  54(B18) 1f 44  7  0  -1330.1  4092003.4 -0.0  2 0 2147 2716 1459
[27]  59(B23) 1f 45  7  0  -2834.6  4092007.3 -0.0  2 0 2761 3431 1563
[28]  60(B24) 1f 37  7  0   2019.2  4091994.6 -0.2  2 0 1110  917  505
[29]  61(B25) 1f 45  7  0    193.6  4091999.4  0.0  2 0 2752 3655 1601
[30]  44(B08)  7 42  8  0  -1586.2  4092004.0 -0.0  2 0 1751 1973  474
[32]  77(N-4)  f 46 24  0  -3706.9  1022002.3  0.0  2 0  1564 2083  920
[33]  78(N-3)  f 34  7  0   2683.6  1021998.3 -0.0  5 0   209  463  246
[34]  79(N-2)  f 43 19  0     48.5  1021999.9 -0.0  2 0  1018 1246  289
[35]  81(N00)  7 29  8  0  -5180.0  1022003.3  0.2  5 0   165  567  274
[37]  86(N05)  f 46  7  0    492.3  1021999.7  0.0  2 0  2369 3945 1953
[48]  37(B01)  1 10 19  1  -1474.4 20460017.3  0.1  1 0  357  602  287
[50]  39(B03)  7 25 22  1  -2244.6 20460037.8 -0.1  2 0  802  652  230
[52]  43(B07)  1  7  7  0   -728.5 20460019.0 -0.1  1 0  533  438  294
[54]  46(B10)  1  7  7  0  -2121.1 20460025.1 -0.1  1 0  577  757  549
[56]  47(B11) 1f 31  7  0    158.8 20459995.8 -0.1  5 0  610  936  925
[57]  49(B13)  1  7  8  0   -742.7 20460033.1  0.3  1 0  790  387  304
[58]  54(B18)  1  7  7  0  -1463.4 20460023.8  0.0  1 0  502  541  628
[59]  59(B23)  1  7  7  0  -2088.7 20460044.9 -0.2  1 0  491  729  310
[60]  60(B24)  1  7  7  0   1474.8 20459968.4  0.1  1 0  635  544   66
[61]  61(B25)  1  7  9  0    879.6 20459998.3 -0.1  1 0  154  648  708
$GNGGA,080054.832,,,,,0,00,,,M,,,,0000*2B
$GNRMC,080054.832,A,,,,,,,200419,,*28
$GPGSA,A,1,,,,,,,,,,,,,,,*1E
$BDGSA,A,1,,,,,,,,,,,,,,,*0F
$GLGSA,A,1,,,,,,,,,,,,,,,*02
$GPGSV,3,1,09,01,00,000,45,13,00,000,37,07,00,000,44,08,00,000,38*70
$GPGSV,3,2,09,11,00,000,44,18,00,000,45,28,00,000,42,30,00,000,46*74
$GPGSV,3,3,09,22,00,000,38*4B
$BDGSV,3,1,12,01,00,000,40,03,00,000,43,07,00,000,43,05,00,000,20*6F
$BDGSV,3,2,12,10,00,000,43,11,00,000,44,13,00,000,43,18,00,000,44*60
$BDGSV,3,3,12,23,00,000,45,24,00,000,37,25,00,000,45,08,00,000,42*61
$B3CN0,0,0,25,0,0,0,0,0,0,0,31,0,0,0*49
---00000019--- Acq_st=7 0  2019-4-20 8:0:55 
[00]  00(G01)  f 45  7  0  -1203.6  2046001.5  0.0  2 0 3050 4769 1954
[01]  12(G13)  f 37  7  0  -1175.7  2046001.5  0.8  2 0 1020 1586  496
[02]  06(G07)  f 44  7  0    993.1  2045998.7 -0.0  2 0 2463 3825 1761
[03]  07(G08)  f 38  7  0   1469.8  2045998.0 -0.1  2 0 1169 1253  301
[04]  10(G11)  f 44  7  0    110.9  2045999.8 -0.0  2 0 2523 3801 1536
[05]  17(G18)  f 44  7  0    629.7  2045999.1 -0.0  2 0 2740 3858 1446
[08]  27(G28)  f 42  7  0  -2947.2  2046003.8 -0.0  2 0 1160 2128  943
[09]  29(G30)  f 46  8  0  -1218.9  2046001.5 -0.0  2 0 3615 6072 2557
[10]  21(G22)  f 39 11  0  -2881.6  2046003.7 -0.0  2 0 1384 1782  731
[16]  37(B01) 1f 41 10  0  -1105.4  4092002.8  0.4  2 0  804 1232  485
[17]  38(B02)  7 27 24  1  -1011.3  4092002.4 -0.1  2 0  711 1259  429
[18]  39(B03) 1f 43 31  0  -1119.2  4092002.8 -0.2  2 0 1389 2176 1313
[19]  40(B04)  7 10 24  0  -3106.6  4092008.1  0.2  2 0  246  581  859
[20]  43(B07) 1f 42 11  0  -1266.4  4092003.2  0.0  2 0 1274 1754  699
[21]  41(B05)  7 36 28  0  -2018.9  4092005.5 -0.2  2 0  325  355  253
[22]  46(B10) 1f 42  7  0  -1557.1  4092004.0  0.0  2 0 1865 2691 1085
[24]  47(B11) 1f 44  7  0    193.5  4091999.4  0.0  2 0 2614 3028 1160
[25]  49(B13) 1f 42  7  0  -2069.3  4092005.3  0.1  2 0 1783 2537 1213
[26]  54(B18) 1f 44  7  0  -1339.1  4092003.4 -0.0  2 0 2292 3045  968
[27]  59(B23) 1f 44  7  0  -2844.5  4092007.3 -0.0  2 0 2269 3585 1834
[28]  60(B24) 1f 38  7  0   2014.0  4091994.6  0.2  2 0  904 1234  673
[29]  61(B25) 1f 45  7  0    184.8  4091999.4 -0.0  2 0 2547 3449 1514
[30]  44(B08)  7 42  8  0  -1595.1  4092004.1  0.0  2 0 1560 1609  634
[32]  77(N-4)  f 46 24  0  -3712.6  1022002.3 -0.2  2 0  1283 2106  997
[33]  78(N-3)  f 34  7  0   2677.1  1021998.4 -0.0  5 0   423  927  599
[34]  79(N-2)  f 44 23  0     42.8  1021999.9  0.1  2 0   850 1765  799
[35]  81(N00)  7 31 13  0  -5188.0  1022003.1  0.1  5 0   282  290   69
[37]  86(N05)  f 46  7  0    485.3  1021999.6  0.0  2 0  2453 4058 1893
[48]  37(B01)  1 10 18  1  -1779.0 20460021.5  0.1  1 0  366  385  221
[50]  39(B03)  7 21 10  1  -2777.9 20460045.3 -0.1  2 0  565  359   76
[56]  47(B11) 1f 30  7  0    150.3 20459996.4 -0.0  5 0  546  903  323
$GNGGA,080055.832,,,,,0,00,,,M,,,,0000*2A
$GNRMC,080055.832,A,,,,,,,200419,,*29
$GPGSA,A,1,,,,,,,,,,,,,,,*1E
$BDGSA,A,1,,,,,,,,,,,,,,,*0F
$GLGSA,A,1,,,,,,,,,,,,,,,*02
$GPGSV,3,1,09,01,00,000,45,13,00,000,37,07,00,000,44,08,00,000,38*70
$GPGSV,3,2,09,11,00,000,44,18,00,000,44,28,00,000,42,30,00,000,46*75
$GPGSV,3,3,09,22,00,000,39*4A
$BDGSV,3,1,12,01,00,000,41,02,00,000,27,03,00,000,43,07,00,000,42*6F
$BDGSV,3,2,12,05,00,000,36,10,00,000,42,11,00,000,44,13,00,000,42*69
$BDGSV,3,3,12,18,00,000,44,23,00,000,44,24,00,000,38,25,00,000,45*68
$B3CN0,0,0,21,0,0,0,0,0,0,0,30,0,0,0*4C
---00000020--- Acq_st=3 0  2019-4-20 8:0:56 
[00]  00(G01)  f 45  7  0  -1206.4  2046001.5  0.0  2 0 3104 4537 2016
[01]  12(G13)  f 37  7  0  -1184.2  2046001.5 -0.7  2 0  711  714  816
[02]  06(G07)  f 44  7  0    989.3  2045998.7  0.0  2 0 2274 3293 1380
[03]  07(G08)  f 38  7  0   1463.0  2045998.0 -0.0  2 0  754 1299  696
[04]  10(G11)  f 43  7  0    112.2  2045999.8  0.0  2 0 1434 2331  925
[05]  17(G18)  f 44  7  0    625.2  2045999.1  0.0  2 0 2186 3354 1866
[06]  02(G03)  1  7  7  0  -3155.5  2046004.1 -0.1  1 0  510  402  395
[08]  27(G28)  f 42  8  0  -2948.3  2046003.8 -0.0  2 0  649 1797 1286
[09]  29(G30)  f 46  7  0  -1221.7  2046001.5  0.0  2 0 3455 6029 2939
[10]  21(G22)  f 39  7  0  -2883.9  2046003.7  0.1  2 0 1049 1502  540
[16]  37(B01) 1f 41 20  0  -1107.8  4092002.8 -0.1  2 0 1149 1638  705
[17]  38(B02)  7 10 25  1  -1094.7  4092003.0  0.1  2 0  391 1520 1039
[18]  39(B03) 1f 43 30  0  -1123.5  4092002.9 -0.1  2 0 1680 1817  651
[19]  40(B04)  7 17 10  0  -3565.5  4092009.6  0.0  2 0  305  249  444
[20]  43(B07) 1f 42 13  0  -1267.9  4092003.2 -0.0  2 0 1711 2030  772
[21]  41(B05)  7 10 26  1  -2014.3  4092005.2  0.3  2 0  382  220  146
[22]  46(B10) 1f 42  7  0  -1561.4  4092003.9  0.0  2 0 1776 2900 1407
[24]  47(B11) 1f 44  7  0    188.1  4091999.4 -0.0  2 0 2210 3128 1668
[25]  49(B13) 1f 43  7  0  -2072.2  4092005.3 -0.1  2 0 1943 2523  933
[26]  54(B18) 1f 43  7  0  -1341.8  4092003.4 -0.1  2 0 2389 3197 1608
[27]  59(B23) 1f 45  7  0  -2844.7  4092007.3  0.0  2 0 2778 3561 1362
[28]  60(B24) 1f 37  7  0   2008.5  4091994.6 -0.0  2 0  697  736  133
[29]  61(B25) 1f 44  7  0    181.4  4091999.4 -0.0  2 0 3146 4271 2385
[30]  44(B08)  7 42  7  0  -1598.0  4092004.1  0.0  2 0 2165 2315 1052
[32]  77(N-4)  f 46 22  0  -3717.2  1022002.4  0.0  2 0  1283 2127 1149
[33]  78(N-3)  f 34  7  0   2672.6  1021998.3  0.0  5 0    88  415  381
[34]  79(N-2)  f 44 16  0     38.6  1021999.9  0.0  2 0   759  997  191
[35]  81(N00)  7 32 16  0  -5193.2  1022003.3  0.0  5 0   247  640  410
[37]  86(N05)  f 47  7  0    482.4  1021999.7 -0.0  2 0  1886 3747 1555
[48]  37(B01)  f 36 10  0  -2046.9 20460032.9 -0.1  2 0  419  452  216
[50]  39(B03)  7 21 16  0  -2480.8 20460041.4 -0.0  2 0  603  870  464
[52]  43(B07)  1 23  7  0  -1166.3 20460017.7  0.1  1 0  921  674  460
[54]  46(B10)  1 20  7  0  -1342.3 20460025.8  0.1  1 0  298   96  597
[56]  47(B11) 1f 30  7  0    155.8 20459996.3  0.0  5 0  662  472  334
[57]  49(B13)  1  7  7  0  -1618.4 20460032.8 -0.0  1 0  122  695  944
[58]  54(B18)  1  7  7  0   -752.3 20460020.2  0.1  1 0  558  503  117
[59]  59(B23)  1  7  7  0  -2609.2 20460046.2 -0.0  1 0  501  454  536
[60]  60(B24)  1  7  7  0   1648.1 20459968.6  0.1  1 0  373  598  857
[61]  61(B25)  1  8  7  0     78.9 20459998.1 -0.1  1 0  113  354  304
$GNGGA,080056.832,,,,,0,00,,,M,,,,0000*29
$GNRMC,080056.832,A,,,,,,,200419,,*2A
$GPGSA,A,1,,,,,,,,,,,,,,,*1E
$BDGSA,A,1,,,,,,,,,,,,,,,*0F
$GLGSA,A,1,,,,,,,,,,,,,,,*02
$GPGSV,3,1,09,01,00,000,45,13,00,000,37,07,00,000,44,08,00,000,38*70
$GPGSV,3,2,09,11,00,000,43,18,00,000,44,28,00,000,42,30,00,000,46*72
$GPGSV,3,3,09,22,00,000,39*4A
$BDGSV,3,1,12,01,00,000,41,03,00,000,43,04,00,000,17,07,00,000,42*6A
$BDGSV,3,2,12,10,00,000,42,11,00,000,44,13,00,000,43,18,00,000,43*66
$BDGSV,3,3,12,23,00,000,45,24,00,000,37,25,00,000,44,08,00,000,42*60
$B3CN0,0,0,22,0,0,0,0,0,0,0,30,0,0,0*4F
---00000021--- Acq_st=3 0  2019-4-20 8:0:57 
[00]  00(G01)  f 45  7  0  -1204.1  2046001.5 -0.0  2 0 2754 4529 2585
[01]  12(G13)  f 38  7  0  -1175.7  2046001.5 -0.2  2 0  834 1378  817
[02]  06(G07)  f 44  9  0    988.8  2045998.7  0.0  2 0 2794 4260 1945
[03]  07(G08)  f 39  7  0   1467.5  2045998.0 -0.0  2 0  663  923  483
[04]  10(G11)  f 43  7  0    114.6  2045999.8  0.1  2 0 1930 2746 1443
[05]  17(G18)  f 44  7  0    630.4  2045999.1 -0.0  2 0 1841 3764 2287
[06]  02(G03)  1  7  7  0  -3154.5  2046004.2 -0.0  1 0  366  385  763
[08]  27(G28)  f 42  7  0  -2946.3  2046003.8  0.0  2 0  965 1926 1285
[09]  29(G30)  f 46  7  0  -1218.4  2046001.5 -0.1  2 0 3455 5401 2778
[10]  21(G22)  f 40  7  0  -2883.9  2046003.7 -0.2  2 0  577 1344  728
[16]  37(B01) 1f 39 16  0  -1105.2  4092002.7  0.4  2 0 1049 1336  346
[17]  38(B02)  7 10 25  0  -1038.4  4092002.7  0.0  2 0  913 1451  450
[18]  39(B03) 1f 43 30  0  -1121.6  4092002.8 -0.3  2 0 1981 2621 1256
[20]  43(B07) 1f 42 11  0  -1264.4  4092003.2 -0.0  2 0 1492 2145 1244
[21]  41(B05)  7 19 31  1  -2002.4  4092005.1 -0.1  2 0  204   40  254
[22]  46(B10) 1f 43  7  0  -1557.9  4092003.9  0.0  2 0 1786 2576 1198
[24]  47(B11) 1f 44  7  0    191.2  4091999.4  0.0  2 0 2084 2688 1010
[25]  49(B13) 1f 42  7  0  -2069.2  4092005.3 -0.0  2 0 1516 2203 1011
[26]  54(B18) 1f 43  7  0  -1340.3  4092003.4 -0.0  2 0 2288 2308  929
[27]  59(B23) 1f 45  9  0  -2841.1  4092007.3  0.0  2 0 2811 3407 1235
[28]  60(B24) 1f 37  7  0   2002.1  4091994.6  0.5  2 0  629  828  454
[29]  61(B25) 1f 45  7  0    184.3  4091999.4 -0.0  2 0 2419 3412 1244
[30]  44(B08) 1f 42 11  0  -1594.9  4092004.1  0.0  2 0 1520 2108 1050
[32]  77(N-4)  f 46 22  0  -3712.9  1022002.3  0.1  2 0  1235 1882 1107
[33]  78(N-3)  f 34  7  0   2676.1  1021998.2  0.0  5 0   261  281  142
[34]  79(N-2)  f 44 10  0     43.9  1021999.9 -0.1  2 0   655 1418  935
[35]  81(N00)  7 32 17  0  -5187.7  1022003.1 -0.0  5 0   433  459  111
[37]  86(N05)  f 47  7  0    485.8  1021999.7 -0.0  2 0  2493 3969 1828
[48]  37(B01)  f 10 10  0  -2661.1 20460043.4  0.1  2 0  582  834  738
[50]  39(B03)  7 21 22  1  -2866.5 20460044.3  0.1  2 0  522  288  467
[52]  43(B07)  1  7  7  0  -1384.1 20460017.7 -0.1  1 0  573  166  531
[54]  46(B10)  1  7  7  0  -1918.1 20460025.3  0.0  1 0  779  988  629
[56]  47(B11) 1f 30  8  0    158.4 20459996.9  0.0  5 0   39   43  777
[57]  49(B13)  1  7  7  0  -1684.1 20460032.0  0.1  1 0   76  113  265
[58]  54(B18)  1  7  7  0  -1086.1 20460021.7 -0.1  1 0  302  782  589
[59]  59(B23)  1  7  8  0  -2407.8 20460045.0  0.2  1 0  241  642  516
[60]  60(B24)  1  8  7  0   1310.3 20459968.9  0.1  1 0  700  850  812
[61]  61(B25)  1  7  8  0   -188.8 20459998.7 -0.0  1 0  253  374  831
$GNGGA,080057.832,,,,,0,00,,,M,,,,0000*28
$GNRMC,080057.832,A,,,,,,,200419,,*2B
$GPGSA,A,1,,,,,,,,,,,,,,,*1E
$BDGSA,A,1,,,,,,,,,,,,,,,*0F
$GLGSA,A,1,,,,,,,,,,,,,,,*02
$GPGSV,3,1,09,01,00,000,45,13,00,000,38,07,00,000,44,08,00,000,39*7E
$GPGSV,3,2,09,11,00,000,43,18,00,000,44,28,00,000,42,30,00,000,46*72
$GPGSV,3,3,09,22,00,000,40*44
$BDGSV,3,1,12,01,00,000,39,03,00,000,43,07,00,000,42,05,00,000,19*6A
$BDGSV,3,2,12,10,00,000,43,11,00,000,44,13,00,000,42,18,00,000,43*66
$BDGSV,3,3,12,23,00,000,45,24,00,000,37,25,00,000,45,08,00,000,42*61
$B3CN0,0,0,21,0,0,0,0,0,0,0,30,0,0,0*4C
---00000022--- Acq_st=3 0  2019-4-20 8:0:58 
[00]  00(G01)  f 45  7  0  -1201.9  2046001.5  0.0  2 0 2572 4486 2380
[01]  12(G13)  f 37  7  0  -1172.9  2046001.5 -0.1  2 0  298 1327  776
[02]  06(G07)  f 45 13  0    994.5  2045998.7 -0.0  2 0 3331 4250 2154
[03]  07(G08)  f 39  7  0   1469.7  2045998.0 -0.1  2 0 1355 1802  758
[04]  10(G11)  f 43  7  0    115.8  2045999.8 -0.0  2 0 2235 3098 1384
[05]  17(G18)  f 44  9  0    633.8  2045999.1 -0.0  2 0 1878 3163 1427
[06]  02(G03)  7  7  7  0  -3157.4  2046004.2 -0.0 10 0  192  473  246
[08]  27(G28)  f 41  8  0  -2944.0  2046003.8  0.0  2 0 2186 2589 1325
[09]  29(G30)  f 46  7  0  -1214.8  2046001.5 -0.0  2 0 2915 5473 3164
[10]  21(G22)  f 39  8  0  -2882.6  2046003.7  0.1  2 0  576 1162  622
[16]  37(B01) 1f 41 36  0  -1101.6  4092002.8 -0.3  2 0 1032 1794  895
[17]  38(B02)  7 25 28  1  -1002.1  4092002.8  0.0  2 0  616 1241 1280
[18]  39(B03) 1f 43 29  0  -1117.0  4092002.8 -0.2  2 0 1363 1990  733
[20]  43(B07) 1f 42 11  0  -1261.7  4092003.2 -0.1  2 0 1823 2293  518
[21]  41(B05)  7 10 27  1  -2007.0  4092005.3 -0.2  2 0  697  399  372
[22]  46(B10) 1f 43  7  0  -1555.3  4092003.9 -0.0  2 0 2078 2548 1110
[24]  47(B11) 1f 44  7  0    196.5  4091999.4  0.0  2 0 2504 3020 1519
[25]  49(B13) 1f 42  7  0  -2064.2  4092005.3  0.0  2 0 1414 1861 1030
[26]  54(B18) 1f 43  7  0  -1337.1  4092003.4  0.0  2 0 2704 3169 1444
[27]  59(B23) 1f 44  7  0  -2838.6  4092007.3  0.0  2 0 2501 3136 1360
[28]  60(B24) 1f 37  7  0   2007.3  4091994.6 -0.7  2 0  428 1070  650
[29]  61(B25) 1f 45  7  0    189.2  4091999.4 -0.0  2 0 3465 4445 2176
[30]  44(B08) 1f 42  7  0  -1593.2  4092004.1 -0.1  2 0 2370 2760  863
[32]  77(N-4)  f 46 25  0  -3709.7  1022002.3 -0.0  2 0  1319 1972 1282
[33]  78(N-3)  f 34  7  0   2678.2  1021998.3  0.2  5 0   312  844  352
[34]  79(N-2)  f 44  7  0     45.9  1021999.9  0.1  2 0  1027 1538  574
[35]  81(N00)  f 29  7  0  -5186.4  1022003.4  0.1  5 0   101  293  160
[37]  86(N05)  f 47  7  0    488.9  1021999.7  0.1  2 0  2052 3741 2064
[48]  37(B01)  f 10 18  1  -3124.9 20460048.9 -0.2  2 0   53  384   70
[52]  43(B07)  1  7  7  0  -1441.4 20460018.1  0.2  1 0  233  318   99
[54]  46(B10)  1  9  8  0  -2033.0 20460027.0 -0.2  1 0  406  660  343
[56]  47(B11) 1f 30  7  0    159.8 20459996.3  0.0  5 0  119 1064 1011
[57]  49(B13)  1  7  7  0   -917.9 20460033.4  0.0  1 0  678  120  228
[58]  54(B18)  1  7  7  0  -1155.0 20460020.7 -0.3  1 0  980 1159  276
[59]  59(B23)  1  7  7  0  -3187.6 20460046.7  0.1  1 0  507  337  266
[60]  60(B24)  1  8  7  0   1124.0 20459969.2 -0.0  1 0  210  383  115
[61]  61(B25)  1  7  7  0     90.6 20459999.5  0.1  1 0  233  417  534
[62]  44(B08)  1 22  8  0  -1500.9 20460025.5  0.0  1 0  348   35  157
$GNGGA,080058.832,,,,,0,00,,,M,,,,0000*27
$GNRMC,080058.832,A,,,,,,,200419,,*24
$GPGSA,A,1,,,,,,,,,,,,,,,*1E
$BDGSA,A,1,,,,,,,,,,,,,,,*0F
$GLGSA,A,1,,,,,,,,,,,,,,,*02
$GPGSV,3,1,09,01,00,000,45,13,00,000,37,07,00,000,45,08,00,000,39*70
$GPGSV,3,2,09,11,00,000,43,18,00,000,44,28,00,000,41,30,00,000,46*71
$GPGSV,3,3,09,22,00,000,39*4A
$BDGSV,3,1,12,01,00,000,41,02,00,000,25,03,00,000,42,07,00,000,42*6C
$BDGSV,3,2,12,10,00,000,43,11,00,000,44,13,00,000,42,18,00,000,43*66
$BDGSV,3,3,12,23,00,000,44,24,00,000,37,25,00,000,45,08,00,000,42*60
$B3CN0,0,0,0,0,0,0,0,0,0,0,30,0,0,0*7F
---00000023--- Acq_st=3 0  2019-4-20 8:0:59 
[00]  00(G01)  f 45  7  0  -1206.7  2046001.5  0.0  2 0 3029 4860 1833
[01]  12(G13)  f 37  7  0  -1173.7  2046001.5  0.4  2 0 1036 2058 1339
[02]  06(G07)  f 44  7  0    989.2  2045998.7  0.0  2 0 2746 4263 2212
[03]  07(G08)  f 39  7  0   1460.0  2045998.1 -0.0  2 0  720 1346  656
[04]  10(G11)  f 44  7  0    113.9  2045999.8 -0.0  2 0 1975 3371 1442
[05]  17(G18)  f 44  7  0    623.5  2045999.1  0.0  2 0 1981 3240 1472
[06]  02(G03)  7 16  7  0  -3287.6  2046004.5  0.2 10 0  554  448  679
[08]  27(G28)  f 42  7  0  -2954.1  2046003.8 -0.0  2 0 1601 2546 1004
[09]  29(G30)  f 46  7  0  -1220.0  2046001.5  0.0  2 0 3229 5303 2771
[10]  21(G22)  f 40  7  0  -2885.4  2046003.7 -0.0  2 0  566 1361  737
[16]  37(B01) 1f 41 21  0  -1108.3  4092002.8 -0.2  2 0 1375 1713  898
[17]  38(B02)  7 10 10  1  -1268.8  4092003.4 -0.2  2 0  421 1004  706
[18]  39(B03) 1f 43 29  0  -1126.1  4092002.8  0.1  2 0 1602 2291  921
[20]  43(B07) 1f 41  9  0  -1265.9  4092003.2 -0.0  2 0 1096 1936 1010
[21]  41(B05)  7 10 30  1  -2002.0  4092005.2  0.0  2 0  891  586   90
[22]  46(B10) 1f 43  7  0  -1563.7  4092004.0  0.0  2 0 1609 2059  731
[24]  47(B11) 1f 44  7  0    188.9  4091999.4  0.0  2 0 2429 3226 1286
[25]  49(B13) 1f 42  7  0  -2070.0  4092005.3 -0.0  2 0 1399 1893  631
[26]  54(B18) 1f 43  7  0  -1342.4  4092003.4  0.0  2 0 1504 2327 1279
[27]  59(B23) 1f 44  7  0  -2844.2  4092007.3  0.0  2 0 2778 3810 1911
[28]  60(B24) 1f 36  7  0   1996.4  4091994.6  0.0  2 0  517  689  588
[29]  61(B25) 1f 44  7  0    182.2  4091999.4  0.1  2 0 2398 3367 1826
[30]  44(B08) 1f 42  7  0  -1600.1  4092004.1  0.0  2 0 2077 2512  984
[32]  77(N-4)  f 45 23  0  -3716.2  1022002.3  0.0  2 0  1168 2117 1128
[33]  78(N-3)  f 35  7  0   2669.7  1021998.3 -0.0  2 0   276  465  369
[34]  79(N-2)  f 44 20  0     40.3  1021999.9  0.0  2 0  1110 1730  796
[35]  81(N00)  f 31  7  0  -5190.4  1022003.2 -0.0  5 0   130  546  343
[37]  86(N05)  f 47  7  0    482.5  1021999.6 -0.0  2 0  2143 3736 2043
[48]  37(B01)  f 10 16  0  -3632.8 20460056.9  0.1  2 0  431  277  322
[50]  39(B03)  1 24 19  1  -1177.1 20460022.9 -0.1  1 0  214  529  613
[52]  43(B07)  1  7  7  0  -1462.2 20460018.5  0.0  1 0  391  310  176
[54]  46(B10)  1  7  7  0  -2022.0 20460025.8  0.1  1 0  788  771  426
[56]  47(B11) 1f 30 11  0    136.9 20459997.6 -0.0  5 0  111  285  944
[57]  49(B13)  1  7  8  0  -1251.2 20460033.2 -0.2  1 0  563  570  733
[58]  54(B18)  1  7  8  0   -968.3 20460022.0 -0.1  1 0  484  582  508
[59]  59(B23)  1  7  9  0  -3407.1 20460045.9 -0.1  1 0  275  450  732
[60]  60(B24)  1  7  7  0    813.5 20459969.0 -0.1  1 0  400  104  359
[61]  61(B25)  1  7 11  0    337.5 20459998.6  0.1  1 0  134  379  263
[62]  44(B08)  1  9  7  0  -2063.2 20460024.2 -0.0  1 0  382  599  589
$GNGGA,080059.832,,,,,0,00,,,M,,,,0000*26
$GNRMC,080059.832,A,,,,,,,200419,,*25
$GPGSA,A,1,,,,,,,,,,,,,,,*1E
$BDGSA,A,1,,,,,,,,,,,,,,,*0F
$GLGSA,A,1,,,,,,,,,,,,,,,*02
$GPGSV,3,1,10,01,00,000,45,13,00,000,37,07,00,000,44,08,00,000,39*79
$GPGSV,3,2,10,11,00,000,44,18,00,000,44,03,00,000,16,28,00,000,42*78
$GPGSV,3,3,10,30,00,000,46,22,00,000,40*7D
$BDGSV,3,1,11,01,00,000,41,03,00,000,43,07,00,000,41,10,00,000,43*6E
$BDGSV,3,2,11,11,00,000,44,13,00,000,42,18,00,000,43,23,00,000,44*62
$BDGSV,3,3,11,24,00,000,36,25,00,000,44,08,00,000,42*52
$B3CN0,0,0,0,0,0,0,0,0,0,0,30,0,0,0*7F
---00000024--- Acq_st=3 0  2019-4-20 8:1:0 
[00]  00(G01)  f 45  7  0  -1202.2  2046001.5 -0.0  2 0 3234 4446 2015
[01]  12(G13)  f 36  7  0  -1179.8  2046001.5 -0.1  2 0  557  771  357
[02]  06(G07)  f 44  7  0    992.5  2045998.7  0.0  2 0 3059 3860 1482
[03]  07(G08)  f 40  7  0   1466.2  2045998.0  0.0  2 0 1062 1847  869
[04]  10(G11)  f 43  7  0    116.7  2045999.8  0.1  2 0 2533 3360 1723
[05]  17(G18)  f 44 10  0    633.2  2045999.1 -0.0  2 0 1778 2788 1211
[06]  02(G03)  7  7  7  0  -3409.1  2046004.6  0.0 10 0  504  481  631
[08]  27(G28)  f 41  7  0  -2947.3  2046003.8 -0.1  2 0 1207 2045  885
[09]  29(G30)  f 45  7  0  -1214.1  2046001.5 -0.0  2 0 3665 5884 2727
