SD initialized success
Create debug.log Failed! 3
bbram_blkflag = 1
rtcflag = 0
BBRAM Block OK: 01 EPHflag: 2c4205c9 340093df, rtc 00
Hot-start nowtime:day = 24,minute = 29,seconds = 42.00
GPS Pred_Dopp 1 -10162.22
sv_pvt.vx:-361.172668,sv_pvt.vy:64.437973,sv_pvt.vz:3212.812500
vel[0]:0.000000,vel[1]:64.437927,vel[2]:3212.812500
-0.429982 0.613245 -0.598582,df:-205.490000
BD Pred_Dopp 1 -1045.28
BD Pred_Dopp 2  -924.53
BD Pred_Dopp 3 -1188.49
GPS Pred_Dopp 4 -9916.47
sv_pvt.vx:-277.205872,sv_pvt.vy:76.415115,sv_pvt.vz:-3173.673096
vel[0]:0.000000,vel[1]:76.415100,vel[2]:-3173.673096
0.799123 1.244422 0.490007,df:-205.490000
BD Pred_Dopp 4 -1110.91
BD Pred_Dopp 5  -917.83
GPS Pred_Dopp 7 18371.83
sv_pvt.vx:-1232.587158,sv_pvt.vy:1329.418213,sv_pvt.vz:-2403.969727
vel[0]:0.000000,vel[1]:1329.417969,vel[2]:-2403.969727
-0.143203 1.584861 -0.589890,df:-205.490000
BD Pred_Dopp 7  7222.12
GPS Pred_Dopp 8 -4107.82
sv_pvt.vx:-1272.677979,sv_pvt.vy:-2395.490479,sv_pvt.vz:692.325562
vel[0]:0.000000,vel[1]:-2395.490234,vel[2]:692.325562
-0.393891 0.276170 -0.600782,df:-205.490000
BD Pred_Dopp 8 -10079.46
GPS Pred_Dopp 9 -17079.63
sv_pvt.vx:-641.231995,sv_pvt.vy:-623.697815,sv_pvt.vz:-3003.778809
vel[0]:0.000000,vel[1]:-623.697754,vel[2]:-3003.778809
0.894579 2.000203 0.407320,df:-205.490000
BD Pred_Dopp 9 -27118.93
BD Pred_Dopp 10  4774.87
GPS Pred_Dopp 11 -14460.74
sv_pvt.vx:-250.438614,sv_pvt.vy:-1040.170654,sv_pvt.vz:2853.589600
vel[0]:0.000000,vel[1]:-1040.169922,vel[2]:2853.589600
-0.374060 0.887743 -0.601548,df:-205.490000
BD Pred_Dopp 13 -2286.09
BD Pred_Dopp 16 -13914.81
GPS Pred_Dopp 18 -13035.69
sv_pvt.vx:222.220688,sv_pvt.vy:-960.247009,sv_pvt.vz:3005.245850
vel[0]:0.000000,vel[1]:-960.246582,vel[2]:3005.245850
-0.457245 0.397594 -0.596198,df:-205.490000
GPS Pred_Dopp 23 -8637.99
sv_pvt.vx:-1188.112061,sv_pvt.vy:-1769.121826,sv_pvt.vz:-2085.634277
vel[0]:0.000000,vel[1]:-1769.121094,vel[2]:-2085.634277
-0.099035 1.567624 -0.583701,df:-205.490000
GPS Pred_Dopp 27  6779.30
sv_pvt.vx:-1133.880127,sv_pvt.vy:-2439.957520,sv_pvt.vz:-899.933716
vel[0]:0.000000,vel[1]:-2439.957031,vel[2]:-899.933716
-0.450155 -0.183599 -0.596880,df:-205.490000
BD Pred_Dopp 27 -5248.75
GPS Pred_Dopp 28 -1853.91
sv_pvt.vx:-1870.995605,sv_pvt.vy:-162.525925,sv_pvt.vz:2312.894287
vel[0]:0.000000,vel[1]:-162.525879,vel[2]:2312.894287
0.713340 0.304926 0.534792,df:-205.490000
BD Pred_Dopp 29 12606.46
GPS Pred_Dopp 30   899.76
sv_pvt.vx:-1638.102051,sv_pvt.vy:2004.280273,sv_pvt.vz:-1024.073120
vel[0]:0.000000,vel[1]:2004.280273,vel[2]:-1024.073120
0.906233 1.129185 0.392543,df:-205.490000
BD Pred_Dopp 30 -20815.69
GPS 0 Init Dop:-10037, 2
GPS 1 Init Dop: 10000,80
GPS 2 Init Dop: 10000,80
GPS 3 Init Dop: -9791, 2
GPS 4 Init Dop: 10000,80
GPS 5 Init Dop: 10000,80
GPS 6 Init Dop: 18496, 2
GPS 7 Init Dop: -3982, 2
GPS 8 Init Dop:-16954, 2
GPS 9 Init Dop: 10000,80
GPS10 Init Dop:-14335, 2
GPS11 Init Dop: 10000,80
GPS12 Init Dop: 10000,80
GPS13 Init Dop: 10000,80
GPS14 Init Dop: 10000,80
GPS15 Init Dop: 10000,80
GPS16 Init Dop: 10000,80
GPS17 Init Dop:-12910, 2
GPS18 Init Dop: 10000,80
GPS19 Init Dop: 10000,80
GPS20 Init Dop: 10000,80
GPS21 Init Dop: 10000,80
GPS22 Init Dop: -8512, 2
GPS23 Init Dop: 10000,80
GPS24 Init Dop: 10000,80
GPS25 Init Dop: 10000,80
GPS26 Init Dop:  6904, 2
GPS27 Init Dop: -1728, 2
GPS28 Init Dop: 10000,80
GPS29 Init Dop:  1024, 2
GPS30 Init Dop: 10000,80
GPS31 Init Dop: 10000,80
BDS 0 Init Dop:  -920, 2
BDS 1 Init Dop:  -799, 2
BDS 2 Init Dop: -1063, 2
BDS 3 Init Dop:  -985, 2
BDS 4 Init Dop:  -792, 2
BDS 5 Init Dop: 10000,80
BDS 6 Init Dop:  7347, 2
BDS 7 Init Dop: -9954, 2
BDS 8 Init Dop:-26993, 2
BDS 9 Init Dop:  4899, 2
BDS10 Init Dop: 10000,80
BDS11 Init Dop: 10000,80
BDS12 Init Dop: -2161, 2
BDS13 Init Dop: 10000,80
BDS14 Init Dop: 10000,80
BDS15 Init Dop:-13789, 2
BDS16 Init Dop: 10000,80
BDS17 Init Dop: 10000,80
BDS18 Init Dop: 10000,80
BDS19 Init Dop: 10000,80
BDS20 Init Dop: 10000,80
BDS21 Init Dop: 10000,80
BDS22 Init Dop: 10000,80
BDS23 Init Dop: 10000,80
BDS24 Init Dop: 10000,80
BDS25 Init Dop: 10000,80
BDS26 Init Dop: -5123, 2
BDS27 Init Dop: 10000,80
BDS28 Init Dop: 12731, 2
BDS29 Init Dop:-20690, 2
BDS30 Init Dop: 10000,80
BDS31 Init Dop: 10000,80
Good luck!
$GNGGA,000000.000,,,,,0,00,,,M,,,,0000*2B
$GNRMC,000000.000,A,,,,,,,060180,,*29
$GPGSA,A,1,,,,,,,,,,,,,,,*1E
$BDGSA,A,1,,,,,,,,,,,,,,,*0F
$GLGSA,A,1,,,,,,,,,,,,,,,*02
$B3CN0,0,0,0,0,0,0,0,0,0,0,0,0,0,0*4C
---00000001--- Acq_st=3 0  2019-4-24 6:29:43 
[00]  16(G17)  1  7  7  0  -4000.0  2046006.0 -0.0  1 0  395  170  475
ch16 satid=37 freq=-920 acq ok!
ch18 satid=39 freq=-1063 acq ok!
$GNGGA,000000.000,,,,,0,00,,,M,,,,0000*2B
$GNRMC,000000.000,A,,,,,,,060180,,*29
$GPGSA,A,1,,,,,,,,,,,,,,,*1E
$BDGSA,A,1,,,,,,,,,,,,,,,*0F
$GLGSA,A,1,,,,,,,,,,,,,,,*02
$B3CN0,0,0,0,0,0,0,0,0,0,0,0,0,0,0*4C
---00000002--- Acq_st=3 0  2019-4-24 6:29:44 
[00]  16(G17)  1 24 12  0  -3934.2  2046007.0  0.2  1 0  866 1278  989
[16]  37(B01)  1 10 10  1   -920.0  4092002.0  0.0  1 0  220  547 1132
[17]  38(B02)  1 10 21  0   -799.0  4092004.5 -0.1  1 0  429 1126 1143
[18]  39(B03)  1 10 33  1  -1063.0  4092002.8  0.0  1 0  775  955 1815
[19]  40(B04)  1 14 16  0   -985.0  4092003.2 -0.0  1 0  412 1225 1180
[20]  41(B05)  1 10 26  1  -1042.0  4092001.3  0.1  1 0  509  887 1191
ch21 satid=49 freq=-2411 acq ok!
$GNGGA,000000.000,,,,,0,00,,,M,,,,0000*2B
$GNRMC,000000.000,A,,,,,,,060180,,*29
$GPGSA,A,1,,,,,,,,,,,,,,,*1E
$BDGSA,A,1,,,,,,,,,,,,,,,*0F
$GLGSA,A,1,,,,,,,,,,,,,,,*02
$B3CN0,0,0,0,0,0,0,0,0,0,0,0,0,0,0*4C
---00000003--- Acq_st=3 0  2019-4-24 6:29:45 
[00]  16(G17)  7 27  7  0  -3923.2  2046005.0  0.8 10 0 1031 1068  264
[16]  37(B01)  1 20 19  1  -1078.0  4092003.3  0.5  1 0 1037 1215  618
[17]  38(B02)  1 10 10  0   -598.7  4092003.5  0.4  1 0 1250 1633 1244
[18]  39(B03)  1 18 31  1  -1095.4  4092002.9  0.5  1 0  466 1726 1870
[19]  40(B04)  1 23 22  0  -1083.3  4092002.7  0.6  1 0  694  776  269
[20]  41(B05)  1 23 22  0  -1106.0  4092005.0  0.2  1 0   84  731  995
[21]  49(B13)  1  7  7  0  -2579.0  4092009.0  0.0  1 0  313  624 1739
$GNGGA,000000.000,,,,,0,00,,,M,,,,0000*2B
$GNRMC,000000.000,A,,,,,,,060180,,*29
$GPGSA,A,1,,,,,,,,,,,,,,,*1E
$BDGSA,A,1,,,,,,,,,,,,,,,*0F
$GLGSA,A,1,,,,,,,,,,,,,,,*02
$GPGSV,1,1,01,17,00,000,27*4B
$B3CN0,0,0,0,0,0,0,0,0,0,0,0,0,0,0*4C
---00000004--- Acq_st=3 0  2019-4-24 6:29:46 
[00]  16(G17)  7 38  7  0  -3914.6  2046004.9 -0.3  2 0 1222 1166  520
[16]  37(B01)  7 39 18  0  -1067.6  4092002.6  0.4  2 0  959 1020  390
[17]  38(B02)  1 10 10  0   -593.9  4092002.7  0.4  1 0 1125 1123  810
[18]  39(B03)  7 45 30  0  -1083.5  4092002.9  0.1  2 0  852 1601  883
[19]  40(B04)  7 40 18  0  -1076.6  4092002.6  0.2  2 0 1410 1600  734
[20]  41(B05)  7 39 10  0  -1098.5  4092002.9  0.6  2 0  396 1414  756
[21]  49(B13)  7  7  7  0  -2576.8  4092006.6 -0.1 10 0 1840 2748  991
$GNGGA,000000.000,,,,,0,00,,,M,,,,0000*2B
$GNRMC,000000.000,A,,,,,,,060180,,*29
$GPGSA,A,1,,,,,,,,,,,,,,,*1E
$BDGSA,A,1,,,,,,,,,,,,,,,*0F
$GLGSA,A,1,,,,,,,,,,,,,,,*02
$GPGSV,1,1,01,17,00,000,38*45
$BDGSV,1,1,04,01,00,000,39,03,00,000,45,04,00,000,40,05,00,000,39*6A
$B3CN0,0,0,0,0,0,0,0,0,0,0,0,0,0,0*4C
---00000005--- Acq_st=3 0  2019-4-24 6:29:47 
[00]  16(G17)  7 38  7  0  -3904.2  2046005.0 -0.2  2 0 1020 1443  652
[16]  37(B01)  f 41 36  0  -1051.1  4092002.7  0.5  2 0  703  776  381
[17]  38(B02)  1 10 10  0   -582.3  4092002.4  0.4  1 0 1123  723  470
[18]  39(B03)  f 42 31  0  -1064.9  4092002.7 -0.1  2 0 1659 2081 1007
[19]  40(B04)  f 41 26  0  -1063.6  4092002.7  0.0  2 0 1240 1580  944
[20]  41(B05)  f 37 26  0  -1082.8  4092002.8  0.1  2 0  612 1082  174
[21]  49(B13)  7 43  7  0  -2558.7  4092006.6 -0.0  2 0 1939 2216 1027
ch32 satid=78 freq=0 acq ok!
ch33 satid=79 freq=-3750 acq ok!
ch34 satid=82 freq=1250 acq ok!
ch35 satid=83 freq=-2250 acq ok!
ch36 satid=84 freq=3250 acq ok!
$GNGGA,000000.000,,,,,0,00,,,M,,,,0000*2B
$GNRMC,000000.000,A,,,,,,,060180,,*29
$GPGSA,A,1,,,,,,,,,,,,,,,*1E
$BDGSA,A,1,,,,,,,,,,,,,,,*0F
$GLGSA,A,1,,,,,,,,,,,,,,,*02
$GPGSV,1,1,01,17,00,000,38*45
$BDGSV,2,1,05,01,00,000,41,03,00,000,42,04,00,000,41,05,00,000,38*60
$BDGSV,2,2,05,13,00,000,43*58
$B3CN0,0,0,0,0,0,0,0,0,0,0,0,0,0,0*4C
---00000006--- Acq_st=3 0  2019-4-24 6:29:48 
[00]  16(G17)  7 38  7  0  -3917.8  2046005.0  0.1  2 0 1071 1337  770
[16]  37(B01) 1f 40 20  0  -1070.1  4092002.7  0.1  2 0 1470 1575  816
[17]  38(B02)  1 10 10  0   -596.5  4092002.9  0.4  1 0  694  982  815
[18]  39(B03) 1f 43 29  0  -1083.8  4092002.8  0.0  2 0 1264 2217 1061
[19]  40(B04) 1f 40 19  0  -1077.3  4092002.6 -0.5  2 0 1291 1776  642
[20]  41(B05) 1f 39 22  0  -1103.7  4092002.8 -0.6  2 0 1082 1491  748
[21]  49(B13)  7 42  7  0  -2577.7  4092006.6  0.1  2 0 1991 2465 1142
[32]  78(N-3)  1 27 13  0     25.8  1022000.6  0.3  1 0  1684 3287 1540
[33]  79(N-2)  1 23 16  0  -3712.5  1022005.3  0.1  1 0   212  740 1022
[34]  82(N01)  1 22  7  0   1250.0  1022001.9 -0.0  1 0   550 1316  922
[35]  83(N02)  1 20  7  0  -2250.0  1022003.2  0.1  1 0   368  251 1317
[36]  84(N03)  1  7  7  0   3250.0  1021999.8 -0.0  1 0   284  453  619
[48]  37(B01)  1 10 10  1  -1061.8 20460017.6 -0.2  1 0  549  628  758
[50]  39(B03)  1 16 10  0   -790.5 20460018.7 -0.0  1 0  426  169  213
[51]  40(B04)  1 23 25  0   -890.4 20460018.8 -0.1  1 0  579  327   50
[52]  41(B05)  1 25 22  1   -823.6 20460020.9 -0.2  1 0  813  918  447
$GNGGA,000000.000,,,,,0,00,,,M,,,,0000*2B
$GNRMC,000000.000,A,,,,,,,060180,,*29
$GPGSA,A,1,,,,,,,,,,,,,,,*1E
$BDGSA,A,1,,,,,,,,,,,,,,,*0F
$GLGSA,A,1,,,,,,,,,,,,,,,*02
$GPGSV,1,1,01,17,00,000,38*45
$BDGSV,2,1,05,01,00,000,41,03,00,000,43,04,00,000,41,05,00,000,39*60
$BDGSV,2,2,05,13,00,000,42*59
$B3CN0,0,0,0,0,0,0,0,0,0,0,0,0,0,0*4C
---00000007--- Acq_st=7 0  2019-4-24 6:29:49 
[00]  16(G17)  7 38  7  0  -3913.9  2046005.0 -0.1  2 0 1056 1399  812
[16]  37(B01) 1f 41 20  0  -1064.7  4092002.7 -0.6  2 0  843 1022  565
[18]  39(B03) 1f 43 31  0  -1079.0  4092002.7  0.2  2 0 2046 2624  837
[19]  40(B04) 1f 40 26  0  -1071.3  4092002.6  0.4  2 0  769  927  702
[20]  41(B05) 1f 38 25  0  -1096.4  4092002.7  0.1  2 0  967 1016  411
[21]  49(B13)  7 42  8  0  -2569.5  4092006.6 -0.0  2 0 1611 1943  757
[32]  78(N-3)  7 17  7  0     31.9  1021999.9  1.0 10 0  1819 3085 1239
[33]  79(N-2)  1 24 24  0  -3707.5  1022002.2  0.9  1 0   762  994  201
[34]  82(N01)  1 29  7  0   1315.6  1021998.9  1.0  1 0  1364 1261  415
[35]  83(N02)  1 29  7  0  -2209.9  1022001.6  1.0  1 0  1340 1357  599
[36]  84(N03)  1 32 18  0   3076.9  1021998.1  1.0  1 0   907 1393  736
[48]  37(B01)  1 10 10  1  -1105.5 20460021.0  0.1  1 0  309  675   64
[50]  39(B03)  1 22 14  1   -529.2 20460022.0  0.1  1 0  308  167  431
[51]  40(B04)  1 18 14  1   -325.3 20460015.7  0.0  1 0  558  419  415
[52]  41(B05)  1 24 18  0   -818.3 20460020.9 -0.1  1 0  183  332  413
ch1 satid=0 freq=-4000 acq ok!
ch2 satid=3 freq=1000 acq ok!
ch3 satid=6 freq=-1750 acq ok!
ch4 satid=7 freq=1250 acq ok!
ch5 satid=8 freq=1500 acq ok!
ch6 satid=10 freq=-2500 acq ok!
$GNGGA,062950.359,,,,,0,00,,,M,,,,0000*2C
$GNRMC,062950.359,A,,,,,,,090180,,*21
$GPGSA,A,1,,,,,,,,,,,,,,,*1E
$BDGSA,A,1,,,,,,,,,,,,,,,*0F
$GLGSA,A,1,,,,,,,,,,,,,,,*02
$GPGSV,1,1,01,17,00,000,38*45
$BDGSV,2,1,05,01,00,000,41,03,00,000,42,04,00,000,40,05,00,000,38*61
$BDGSV,2,2,05,13,00,000,42*59
$B3CN0,0,0,0,0,0,0,0,0,0,0,0,0,0,0*4C
---00000008--- Acq_st=3 0  2019-4-24 6:29:50 
[00]  16(G17)  f 38  7  0  -3920.7  2046005.1  0.1  2 0 1117 1619  951
[01]  00(G01)  1 23  7  0  -3908.0  2046006.1  0.3  1 0 2002 2426 1046
[02]  03(G04)  1 26 11  0   1009.7  2046000.3  0.2  1 0 1124 2421 1402
[03]  06(G07)  1 20  7  0  -1783.4  2046004.6  0.0  1 0 1995 4295 3808
[04]  07(G08)  1  7  7  0   1250.0  2045999.0  0.1  1 0 2219 3797 1413
[05]  08(G09)  1  7  7  0   1500.0  2046000.1  0.0  1 0  932 2710 1587
[06]  10(G11)  1 21  7  0  -2500.0  2046005.4 -0.0  1 0  506 1651 2112
[16]  37(B01) 1f 41 10  0  -1070.7  4092002.8  0.3  2 0 1117 1278  601
[18]  39(B03) 1f 43 32  0  -1083.0  4092002.7  0.2  2 0 1736 1911  966
[19]  40(B04) 1f 39 22  0  -1075.3  4092002.7  0.6  2 0  846 1072  240
[20]  41(B05) 1f 39 23  0  -1101.2  4092002.9  0.0  2 0  781 1286  346
[21]  49(B13)  7 42  7  0  -2576.2  4092006.6  0.0  2 0 1077 1719  798
[32]  78(N-3)  7 49  7  0     30.7  1021999.9  0.0  2 0  1897 2664 1107
[33]  79(N-2)  1 28 25  0  -3710.5  1022001.9  0.9  1 0   580 1335 1037
[34]  82(N01)  1 31  7  0   1311.0  1021999.0  1.0  1 0  1153 1690  987
[35]  83(N02)  1 31 11  0  -2214.3  1022001.0  1.0  1 0  1195 1534  554
[36]  84(N03)  1 33 15  0   3071.9  1021997.9  1.0  1 0   732  984  382
[48]  37(B01)  7 10 10  1  -1024.4 20460015.2  0.1  2 0  512  526  470
[50]  39(B03)  1 22 16  1   -565.2 20460021.3  0.0  1 0  523  412  248
[51]  40(B04)  1 24 25  0   -228.7 20460018.0 -0.1  1 0  359  830  717
[52]  41(B05)  1 25 19  0   -642.1 20460019.5  0.2  1 0  177  795  970
ch8 satid=17 freq=-2500 acq ok!
---00000009--- Acq_st=3 0  2019-4-24 6:29:51 
[00]  16(G17)  f 38  7  0  -3907.7  2046005.0  0.1  2 0 1272 1405  657
[01]  00(G01)  7 25  7  0  -3909.2  2046004.9  0.6 10 0 2437 2585 1062
[02]  03(G04)  7 16  7  0   1008.7  2045998.5  1.0 10 0 2024 2195  202
[03]  06(G07)  1 30  7  0  -1785.0  2046002.1  0.9  1 0 3893 4349 1839
[04]  07(G08)  1 31  7  0   1131.8  2045998.2  0.9  1 0 2217 3691 1488
[05]  08(G09)  1 38  8  0   1576.2  2045997.4  0.9  1 0 2045 2473 1579
[06]  10(G11)  1 31  7  0  -2506.8  2046003.3  0.7  1 0 1662 2702 1559
[08]  17(G18)  1 20  7  0  -2425.6  2046006.6  0.1  1 0  541 1343 3180
[09]  22(G23)  1  7  7  0   1750.0  2045998.5 -0.0  1 0  864 1447  988
[10]  27(G28)  1  7  7  0  -2750.0  2046004.3 -0.0  1 0  143  907 1108
[16]  37(B01) 1f 40 10  0  -1075.9  4092002.7 -0.3  2 0 1002 1469  875
[18]  39(B03) 1f 43 31  0  -1085.9  4092002.7  0.0  2 0 1297 1852  584
[19]  40(B04) 1f 39 24  0  -1078.0  4092002.6  0.2  2 0  984 1108  218
[20]  41(B05) 1f 38 23  0  -1109.1  4092002.9 -0.3  2 0  281  584  173
[21]  49(B13)  7 42 10  0  -2576.0  4092006.6 -0.0  2 0 1786 2428 1087
[32]  78(N-3)  7 49  7  0     27.2  1021999.9  0.0  2 0  1823 3002 1590
[33]  79(N-2)  7 43 23  0  -3712.1  1022002.3 -0.1  2 0   883 1494  728
[34]  82(N01)  7 44  7  0   1309.3  1021999.2 -0.2  2 0   783 1434  901
[35]  83(N02)  7 44 10  0  -2214.8  1022001.3  0.1  2 0   791 1393  640
[36]  84(N03)  7 41 20  0   3069.6  1021998.0  0.0  2 0   451  799  218
[48]  37(B01)  7 19 10  1  -1432.2 20460023.0 -0.2  2 0  470  467  223
[50]  39(B03)  1 23 20  1    116.3 20460020.3 -0.1  1 0  308  579  141
[51]  40(B04)  1 23 24  0    222.0 20460018.3  0.0  1 0  650  355  116
[52]  41(B05)  1 25 24  0   -546.8 20460025.5 -0.0  1 0  556  382  264
ch11 satid=29 freq=-3500 acq ok!
ch22 satid=43 freq=-1500 acq ok!
Refix G01: 2, 282609.927570, -3898
Refix G07: 2, 282609.932595, -1773
Refix G08: 2, 282609.928721, 1142
Refix G09: 2, 282609.922303, 1592
Refix G11: 2, 282609.931259, -2496
Refix G18: 2, 282609.930230, -2414
Refix G23: 2, 282609.917985, 1935
Refix G27: 2, 282609.920432, 2169
Refix G28: 2, 282609.920668, -2787
Refix G30: 2, 282609.927474, -3590
$GNGGA,062952.000,2944.9098,N,10633.0897,E,1,05,3.2,325.4,M,,,,0000*1D
$GNRMC,062952.000,A,2944.9098,N,10633.0897,E,0.59,0.00,090180,,*19
$GPGSA,A,3,,,,,,,,,,,,,4.7,3.2,3.4*37
$BDGSA,A,3,01,03,04,05,13,,,,,,,,4.7,3.2,3.4*27
$GLGSA,A,3,,,,,,,,,,,,,4.7,3.2,3.4*2B
$GPGSV,1,1,03,17,00,000,38,01,00,000,25,04,00,000,16*42
$BDGSV,2,1,05,01,00,000,40,03,00,000,43,04,00,000,39,05,00,000,38*6F
$BDGSV,2,2,05,13,00,000,42*59
$B3CN0,19,0,0,0,0,0,0,0,0,0,0,0,0,0*74
ch24 satid=44 freq=-2250 acq ok!
---00000010--- Acq_st=3 0  2000-1-9 6:29:52 
[00]  16(G17)  f 38  9  0  -3910.0  2046005.0  0.2  2 0  727 1469 1420
[01]  00(G01)  7 42  7  0  -3900.1  2046005.0  0.1  2 0  986 1684  838
[02]  03(G04)  7 42 15  0   1018.2  2045998.5 -0.1  2 0 1877 2273  846
[03]  06(G07)  7 37  7  0  -1775.4  2046002.2  0.1  2 0 4088 4709 2245
[04]  07(G08)  7 36  7  0   1139.7  2045998.5  0.2  2 0 1402 3405 1445
[05]  08(G09)  7 36  7  0   1590.4  2045997.8  0.2  2 0 1849 2678 1239
[06]  10(G11)  7 32  7  0  -2502.6  2046003.2  0.3  5 0 1505 2898 1791
[08]  17(G18)  7 23  7  0  -2417.8  2046002.9  0.7 10 0 2456 2686  644
[09]  22(G23)  1 27  7  0   1931.9  2045997.3  0.1  1 0  636  510  100
[10]  27(G28)  1 28  7  0  -2793.9  2046004.1  0.5  1 0 1133 1437  922
[11]  29(G30)  1 23  7  0  -3597.7  2046005.7  0.2  1 0 2202 3259 1529
[16]  37(B01) 1f 40 10  0  -1067.7  4092002.6 -0.3  2 0  947 1224  618
[17]  38(B02)  1 33 16  0  -1090.7  4092004.4 -0.1  1 0 1054 1568 1184
[18]  39(B03) 1f 43 31  0  -1082.0  4092002.8  0.2  2 0 1536 2058  841
[19]  40(B04) 1f 40 23  0  -1071.5  4092002.7 -0.1  2 0  927 1503  808
[20]  41(B05) 1f 38 22  0  -1093.1  4092002.8 -0.2  2 0  747  733  582
[21]  49(B13) 1f 42  7  0  -2572.3  4092006.6 -0.0  2 0 2004 2104  939
[22]  43(B07)  1  7  7  0  -1500.0  4092005.3  0.1  1 0  195  562 1311
[24]  44(B08)  1  7  7  0  -2250.0  4092007.3 -0.1  1 0  138 1667 2476
[25]  45(B09)  1  7  7  0    500.0  4092000.4  0.0  1 0  526  897 1094
[32]  78(N-3)  f 31  7  0     34.6  1021999.9 -0.0  5 0  1478 2985 1563
[33]  79(N-2)  7 43 26  0  -3704.8  1022002.3  0.3  2 0   924 1610 1070
[34]  82(N01)  7 44  7  0   1318.2  1021999.1 -0.0  2 0   591 1233  647
[35]  83(N02)  7 44 13  0  -2208.5  1022001.4 -0.0  2 0  1174 1598  990
[36]  84(N03)  7 40 12  0   3076.8  1021998.0 -0.0  2 0   466 1148  578
[48]  37(B01)  7 10 18  1  -1642.1 20460026.0  0.0  2 0  338  857  984
ch26 satid=46 freq=-1500 acq ok!
calculate DOP row 0,[  0.36  -0.93   0.08   1.00]
calculate DOP row 1,[  0.21  -0.89   0.40   1.00]
calculate DOP row 2,[  0.81  -0.58   0.06   1.00]
calculate DOP row 3,[  0.97  -0.23   0.07   1.00]
calculate DOP row 4,[ -0.60  -0.79   0.11   1.00]
DOP:  1.12   6.14  14.79   3.52
Refix G01: 2, 282610.927573, -3911
Refix G07: 2, 282610.932596, -1787
Refix G08: 2, 282610.928721, 1127
Refix G09: 2, 282610.922302, 1578
Refix G11: 2, 282610.931261, -2509
Refix G18: 2, 282610.930232, -2426
Refix G23: 2, 282610.917984, 1921
Refix G27: 2, 282610.920430, 2154
Refix G28: 2, 282610.920670, -2803
Refix G30: 2, 282610.927476, -3606
$GNGGA,062953.000,2944.9107,N,10633.0895,E,1,05,3.2,325.0,M,,,,0000*1D
$GNRMC,062953.000,A,2944.9107,N,10633.0895,E,1.22,0.00,090180,,*10
$GPGSA,A,3,,,,,,,,,,,,,4.7,3.2,3.4*37
$BDGSA,A,3,01,03,04,05,13,,,,,,,,4.7,3.2,3.4*27
$GLGSA,A,3,,,,,,,,,,,,,4.7,3.2,3.4*2B
$GPGSV,3,1,12,17,00,000,38,01,42,155,42,04,00,000,42,07,79,293,37*72
$GPGSV,3,2,12,08,50,030,36,09,22,219,36,11,71,160,32,18,54,115,23*7A
$GPGSV,3,3,12,23,07,187,00,27,18,043,00,28,20,295,00,30,44,315,00*7B
$BDGSV,3,1,12,01,40,125,40,03,55,171,43,04,23,109,40,05,26,244,38*6C
$BDGSV,3,2,12,13,36,183,42,02,46,218,00,07,62,055,00,08,56,154,00*62
$BDGSV,3,3,12,09,19,205,00,10,64,351,00,16,09,188,00,27,45,040,00*66
$B3CN0,0,0,0,0,0,0,0,0,0,0,0,0,0,0*4C
---00000011--- Acq_st=3 0  2000-1-9 6:29:53 
[00]  16(G17)  f 37  7  0  -3931.4  2046005.1 -0.2  2 0  754  789  128
[01]  00(G01)  7 41  7  0  -3915.2  2046005.0 -0.1  2 0 1299 2268  918
[02]  03(G04)  7 42 14  0   1005.3  2045998.6 -0.0  2 0 1386 2233 1215
[03]  06(G07)  7 45  7  0  -1788.1  2046002.2  0.0  2 0 3228 4564 2181
[04]  07(G08)  7 44 11  0   1128.8  2045998.5  0.0  2 0 1921 3432 1087
[05]  08(G09)  7 43  7  0   1576.7  2045997.8  0.1  2 0 2192 2743  835
[06]  10(G11)  7 43  7  0  -2512.6  2046003.2  0.0  2 0 1813 2701 1122
[08]  17(G18)  7 43  7  0  -2429.7  2046003.0 -0.0  2 0 2498 2984  777
[09]  22(G23)  7 31  7  0   1920.6  2045997.3  0.0  5 0  386  564  999
[10]  27(G28)  7 26  7  0  -2801.3  2046003.6  0.6 10 0 1086 1529  518
[11]  29(G30)  7 24  7  0  -3604.1  2046004.6  0.7 10 0 2173 3340 1895
[16]  37(B01) 1f 40 13  0  -1082.3  4092002.8  0.3  2 0  570 1040  659
[17]  38(B02)  9 41 10  0  -1105.4  4092002.8  1.0  1 0  831  999  503
[18]  39(B03) 1f 42 29  0  -1088.4  4092002.7  0.1  2 0 1739 2043  653
[19]  40(B04) 1f 39 20  0  -1088.7  4092002.7 -0.8  2 0 1249 1448  338
[20]  41(B05) 1f 37 18  0  -1111.5  4092003.0  0.5  2 0  313  757  876
[21]  49(B13) 1f 42  8  0  -2582.4  4092006.6 -0.0  2 0 1705 2246 1158
[22]  43(B07)  1  7  7  0  -1356.4  4092004.2  0.0  1 0 2217 2576 1003
[24]  44(B08)  1  7  7  0  -2350.6  4092006.6 -0.1  1 0 1145 1915  718
[25]  45(B09)  1 15  7  0    701.2  4091998.0  0.5  1 0 1216 1200  630
[26]  46(B10)  1  7  7  0  -1488.2  4092004.8 -0.1  1 0 1468 2456 1312
[27]  52(B16)  1  7  7  0    500.0  4092000.5 -0.1  1 0  902  659  882
[32]  78(N-3)  f 48  7  0     23.7  1022000.0  0.1  2 0  1825 3288 1670
[33]  79(N-2)  7 43 22  0  -3716.0  1022002.3  0.0  2 0  1036 1456  527
[34]  82(N01)  7 44  7  0   1305.1  1021999.1  0.1  2 0  1127 1764  899
[35]  83(N02)  7 44  7  0  -2220.5  1022001.3  0.2  2 0   832 1211  436
[36]  84(N03)  7 40 19  0   3064.6  1021998.0 -0.0  2 0   785 1204  376
[48]  37(B01)  7 36 17  0  -1720.1 20460027.3  0.2  2 0  800  574   96
[50]  39(B03)  1 19 22  1   -834.9 20460018.8  0.0  1 0  213  370  442
[51]  40(B04)  1 19 18  1   -726.9 20460019.6 -0.1  1 0  923  496  278
[52]  41(B05)  1 22 22  1   -945.6 20460026.4  0.1  1 0  953  474  167
[53]  49(B13)  1  7  7  0  -1710.9 20460041.0  0.0  1 0  470  805  849
calculate DOP row 0,[  0.36  -0.93   0.08   1.00]
calculate DOP row 1,[  0.21  -0.89   0.40   1.00]
calculate DOP row 2,[  0.81  -0.58   0.06   1.00]
calculate DOP row 3,[  0.97  -0.23   0.07   1.00]
calculate DOP row 4,[ -0.60  -0.79   0.11   1.00]
DOP:  1.12   6.14  14.79   3.52
Refix G01: 2, 282611.927575, -3914
Refix G07: 2, 282611.932597, -1788
Refix G08: 2, 282611.928720, 1127
Refix G09: 2, 282611.922301, 1577
Refix G11: 2, 282611.931262, -2512
Refix G18: 2, 282611.930233, -2429
Refix G23: 2, 282611.917983, 1919
Refix G27: 2, 282611.920429, 2155
Refix G28: 2, 282611.920671, -2800
Refix G30: 2, 282611.927479, -3604
$GNGGA,062954.000,2944.9110,N,10633.0892,E,1,05,3.2,325.8,M,,,,0000*13
$GNRMC,062954.000,A,2944.9110,N,10633.0892,E,0.24,0.00,090180,,*11
$GPGSA,A,3,,,,,,,,,,,,,4.7,3.2,3.4*37
$BDGSA,A,3,01,03,04,05,13,,,,,,,,4.7,3.2,3.4*27
$GLGSA,A,3,,,,,,,,,,,,,4.7,3.2,3.4*2B
$GPGSV,3,1,12,17,00,000,37,01,42,155,41,04,00,000,42,07,79,293,45*7B
$GPGSV,3,2,12,08,50,030,44,09,22,219,43,11,71,160,43,18,54,115,43*7D
$GPGSV,3,3,12,23,07,187,31,28,20,295,26,30,44,315,24,27,18,043,00*7B
$BDGSV,3,1,12,01,40,125,40,03,55,171,42,04,23,109,39,05,26,244,37*6C
$BDGSV,3,2,12,13,36,183,42,02,46,218,00,07,62,055,00,08,56,154,00*62
$BDGSV,3,3,12,09,19,205,00,10,64,351,00,16,09,188,00,27,45,040,00*66
$B3CN0,0,0,0,0,0,0,0,0,0,0,0,0,0,0*4C
---00000012--- Acq_st=3 0  2000-1-9 6:29:54 
[00]  16(G17)  f 36  7  0  -3925.4  2046005.0 -0.4  2 0 1314 1564  534
[01]  00(G01)  7 41  7  0  -3912.9  2046005.0  0.0  2 0 2068 2465  740
[02]  03(G04)  7 42 17  0   1009.6  2045998.6 -0.0  2 0 1582 2547 1207
[03]  06(G07)  7 45  7  0  -1783.6  2046002.2 -0.0  2 0 3555 4188 1562
[04]  07(G08)  7 44  7  0   1130.1  2045998.5 -0.0  2 0 2311 3391 1655
[05]  08(G09)  7 43  7  0   1580.0  2045997.9  0.0  2 0 1937 2472  863
[06]  10(G11)  7 42  7  0  -2508.8  2046003.2 -0.0  2 0 1970 2947 1485
[08]  17(G18)  7 43  7  0  -2428.3  2046003.0 -0.0  2 0 1948 2747 1446
[09]  22(G23)  7 34 11  0   1915.8  2045997.4  0.1  5 0  578 1170  757
[10]  27(G28)  7 38  7  0  -2799.0  2046003.6 -0.0  2 0  983 1841  997
[11]  29(G30)  7 45  7  0  -3602.7  2046004.6 -0.0  2 0 2130 3456 1448
[16]  37(B01) 1f 41 18  0  -1076.1  4092002.8  0.3  2 0 1251 1815  809
[17]  38(B02)  f 41 24  0  -1099.6  4092002.6 -0.3  2 0 1280 1657  950
[18]  39(B03) 1f 42 31  0  -1089.8  4092002.8  0.3  2 0 1817 2062  840
[19]  40(B04) 1f 39 20  0  -1084.1  4092002.7  0.1  2 0 1017 1412  486
[20]  41(B05) 1f 38 23  0  -1109.1  4092002.8  0.3  2 0  774 1155  411
[21]  49(B13) 1f 42  7  0  -2581.9  4092006.6  0.0  2 0  966 2302 1330
[22]  43(B07)  1  7  7  0  -1356.3  4092003.1  0.0  1 0 1953 2310 1058
[24]  44(B08)  1  7  7  0  -2344.6  4092005.9 -0.1  1 0 1458 1838  712
[25]  45(B09)  1  7  7  0    703.8  4091997.8  0.9  1 0  679 1241  312
[26]  46(B10)  1  7  7  0  -1488.5  4092003.6  0.1  1 0 1442 2049  796
[27]  52(B16)  1  7  7  0    468.3  4091999.3  0.0  1 0  838  944  729
[32]  78(N-3)  f 47  7  0     26.7  1022000.0 -0.0  2 0  1792 3054 1364
[33]  79(N-2)  f 30 19  0  -3714.5  1022002.3 -0.1  5 0  1192 1654  600
[34]  82(N01)  f 30  7  0   1306.1  1021999.1 -0.1  5 0  1135 1688  585
[35]  83(N02)  f 30  7  0  -2219.3  1022001.4  0.1  5 0  1186 1691  966
[36]  84(N03)  f 30 12  0   3065.5  1021998.1 -0.8  5 0   807 1242  465
[50]  39(B03)  1 23 10  1   -473.5 20460022.6  0.0  1 0  554  379  472
[51]  40(B04)  1 22 22  0  -1173.5 20460016.6  0.2  1 0  447  875  413
[52]  41(B05)  1 22 26  0  -1495.3 20460018.5  0.0  1 0  154  317  120
[53]  49(B13)  1 12  7  0  -1208.0 20460041.2 -0.1  1 0  407  903  342
ch28 satid=63 freq=1000 acq ok!
calculate DOP row 0,[  0.36  -0.93   0.08   1.00]
calculate DOP row 1,[  0.21  -0.89   0.40   1.00]
calculate DOP row 2,[  0.81  -0.58   0.06   1.00]
calculate DOP row 3,[  0.97  -0.23   0.07   1.00]
calculate DOP row 4,[ -0.60  -0.79   0.11   1.00]
DOP:  1.12   6.14  14.80   3.52
Refix G01: 2, 282612.927578, -3912
Refix G07: 2, 282612.932599, -1785
Refix G08: 2, 282612.928719, 1129
Refix G09: 2, 282612.922300, 1576
Refix G11: 2, 282612.931264, -2509
Refix G18: 2, 282612.930235, -2426
Refix G23: 2, 282612.917981, 1918
Refix G27: 2, 282612.920427, 2157
Refix G28: 2, 282612.920673, -2801
Refix G30: 2, 282612.927481, -3603
$GNGGA,062955.000,2944.9116,N,10633.0890,E,1,05,3.2,326.0,M,,,,0000*1D
$GNRMC,062955.000,A,2944.9116,N,10633.0890,E,0.34,0.00,090180,,*15
$GPGSA,A,3,,,,,,,,,,,,,4.7,3.2,3.4*37
$BDGSA,A,3,01,03,04,05,13,,,,,,,,4.7,3.2,3.4*27
$GLGSA,A,3,,,,,,,,,,,,,4.7,3.2,3.4*2B
$GPGSV,3,1,12,17,00,000,36,01,42,155,41,04,00,000,42,07,79,293,45*7A
$GPGSV,3,2,12,08,50,030,44,09,22,219,43,11,71,160,42,18,54,115,43*7C
$GPGSV,3,3,12,23,07,187,34,28,20,295,38,30,44,315,45,27,18,043,00*76
$BDGSV,3,1,12,01,40,125,41,02,46,218,41,03,55,171,42,04,23,109,39*64
$BDGSV,3,2,12,05,26,244,38,13,36,183,42,07,62,055,00,08,56,154,00*61
$BDGSV,3,3,12,09,19,205,00,10,64,351,00,16,09,188,00,27,45,040,00*66
$B3CN0,0,0,0,0,0,0,0,0,0,0,0,0,0,0*4C
ch30 satid=66 freq=-1750 acq ok!
---00000013--- Acq_st=3 0  2000-1-9 6:29:55 
[00]  16(G17)  f 36  7  0  -3921.7  2046005.0 -0.2  2 0  914 1367  971
[01]  00(G01)  7 41  8  0  -3909.2  2046005.0 -0.0  2 0 1412 2502  667
[02]  03(G04)  7 42 16  0   1008.4  2045998.6 -0.0  2 0 1784 2126  763
[03]  06(G07)  7 45  7  0  -1784.5  2046002.2 -0.0  2 0 3047 4429 2079
[04]  07(G08)  7 45  7  0   1132.1  2045998.5  0.0  2 0 2404 3990 1716
[05]  08(G09)  7 43  7  0   1579.6  2045997.8 -0.0  2 0 2021 2963 1127
[06]  10(G11)  7 43  7  0  -2507.0  2046003.2 -0.1  2 0 1735 2864 1144
[08]  17(G18)  7 43  7  0  -2426.3  2046003.0 -0.0  2 0 2049 2887 1701
[09]  22(G23)  7 34  7  0   1920.5  2045997.5 -0.1  5 0 1171 1488 1052
[10]  27(G28)  7 38  7  0  -2802.1  2046003.6  0.1  2 0  825 1463  649
[11]  29(G30)  7 44 12  0  -3600.7  2046004.6  0.0  2 0 2328 3386 1098
[16]  37(B01) 1f 40 10  0  -1076.8  4092002.7  0.3  2 0 1011 1404  568
[17]  38(B02)  f 40 26  0  -1102.2  4092002.8 -0.4  2 0 1215 1459  566
[18]  39(B03) 1f 43 30  0  -1092.1  4092002.8 -0.0  2 0 1672 2017  622
[19]  40(B04) 1f 40 21  0  -1082.9  4092002.6  0.1  2 0 1192 1287  367
[20]  41(B05) 1f 36 19  0  -1111.9  4092002.8  0.7  2 0  859  760  207
[21]  49(B13) 1f 42 10  0  -2583.8  4092006.6 -0.0  2 0 1083 1679  492
[22]  43(B07)  1  7  7  0  -1353.4  4092003.3  0.1  1 0 1392 1915  438
[24]  44(B08)  1  7 12  0  -2345.5  4092006.1 -0.2  1 0 1830 2841 1468
[25]  45(B09)  1  7  7  0    706.7  4091997.8  0.9  1 0  925 1479  734
[26]  46(B10)  1  7  7  0  -1484.5  4092003.6  0.1  1 0 1256 2352 1043
[27]  52(B16)  1  7  7  0    441.8  4091998.4 -0.0  1 0  498  727  465
[28]  63(B27)  1  7  7  0   1000.0  4091996.7 -0.0  1 0 2267 2968 1018
[29]  65(B29)  1  7  7  0  -4000.0  4092011.7 -0.0  1 0  654 1416 1730
[30]  66(B30)  1  7  7  0  -1750.0  4092005.7  0.0  1 0  108  326  899
[32]  78(N-3)  f 47  7  0     27.4  1021999.9 -0.0  2 0  1339 2747 1526
[33]  79(N-2)  f 43 22  0  -3712.6  1022002.3  0.0  2 0   769 1323  386
[34]  82(N01)  f 43  7  0   1308.4  1021999.1 -0.0  2 0   985 1636  834
[35]  83(N02)  f 43  7  0  -2216.0  1022001.4 -0.1  2 0  1125 1345  480
[36]  84(N03)  f 40 13  0   3067.9  1021998.0  0.1  2 0   439  787  485
[48]  37(B01)  1 10 10  1   -973.7 20460014.8 -0.0  1 0  536  598  387
[49]  38(B02)  1 10 10  0   -506.3 20460012.0  0.0  1 0  381  183  628
[50]  39(B03)  1 23 20  1   -187.6 20460025.3  0.1  1 0  846 1029  851
[51]  40(B04)  1 16 17  1  -1259.2 20460022.2 -0.0  1 0  512   50  387
[52]  41(B05)  1 23 24  1  -1605.8 20460016.7 -0.0  1 0  246  365  596
[53]  49(B13)  1  7  9  0  -1236.9 20460040.6 -0.0  1 0  314   79  290
calculate DOP row 0,[  0.36  -0.93   0.08   0.00]
calculate DOP row 1,[  0.21  -0.89   0.40   0.00]
calculate DOP row 2,[  0.81  -0.58   0.06   0.00]
calculate DOP row 3,[  0.97  -0.23   0.07   0.00]
calculate DOP row 4,[ -0.60  -0.79   0.11   0.00]
DOP:  1.06   0.01  -0.02   0.00
Refix G01: 2, 282613.927580, -3895
Refix G07: 2, 282613.932600, -1771
Refix G08: 2, 282613.928718, 1141
Refix G09: 2, 282613.922299, 1591
Refix G11: 2, 282613.931265, -2493
Refix G18: 2, 282613.930236, -2410
Refix G23: 2, 282613.917980, 1934
Refix G27: 2, 282613.920426, 2166
Refix G28: 2, 282613.920675, -2792
Refix G30: 2, 282613.927483, -3592
$GNGGA,062956.000,2944.9120,N,10633.0886,E,1,14,99.0,328.6,M,,,,0000*25
$GNRMC,062956.000,A,2944.9120,N,10633.0886,E,1.71,0.00,090180,,*14
$GPGSA,A,3,01,07,08,09,11,18,23,28,30,,,,99.0,99.0,99.0*04
$BDGSA,A,3,01,03,04,05,13,,,,,,,,99.0,99.0,99.0*12
$GLGSA,A,3,,,,,,,,,,,,,99.0,99.0,99.0*1E
$GPGSV,3,1,12,17,00,000,36,01,42,155,41,04,00,000,42,07,79,293,45*7A
$GPGSV,3,2,12,08,50,030,45,09,22,219,43,11,71,160,43,18,54,115,43*7C
$GPGSV,3,3,12,23,07,187,34,28,20,295,38,30,44,315,44,27,18,043,00*77
$BDGSV,3,1,12,01,40,125,40,02,46,218,40,03,55,171,43,04,23,109,40*6B
$BDGSV,3,2,12,05,26,244,36,13,36,183,42,07,62,055,00,08,56,154,00*6F
$BDGSV,3,3,12,09,19,205,00,10,64,351,00,16,09,188,00,27,45,040,00*66
$B3CN0,0,0,0,0,0,0,0,0,0,0,0,0,0,0*4C
---00000014--- Acq_st=3 0  2000-1-9 6:29:56 
[00]  16(G17)  f 36 10  0  -3911.3  2046005.0  0.1  2 0  877 1236  815
[01]  00(G01)  f 42  7  0  -3893.6  2046005.0 -0.1  2 0 1504 2661 1398
[02]  03(G04)  f 43 16  0   1022.5  2045998.6  0.0  2 0 1651 1753  575
[03]  06(G07)  f 45  7  0  -1769.8  2046002.2  0.1  2 0 2638 4150 2393
[04]  07(G08)  f 44  7  0   1146.5  2045998.4  0.0  2 0 2203 3629 1429
[05]  08(G09)  f 43  7  0   1593.8  2045997.9 -0.0  2 0 1872 2782 1472
[06]  10(G11)  f 43  7  0  -2494.3  2046003.2  0.0  2 0 1375 2236  895
[08]  17(G18)  f 43  7  0  -2407.0  2046003.0  0.0  2 0 2181 3035 1098
[09]  22(G23)  f 35  7  0   1928.7  2045997.4  0.2  2 0  916 1139  716
[10]  27(G28)  f 39  7  0  -2788.5  2046003.6  0.2  2 0 1067 1690 1059
[11]  29(G30)  f 44  7  0  -3583.3  2046004.6  0.0  2 0 2114 3789 2218
[16]  37(B01) 1f 41 10  0  -1063.4  4092002.7  0.8  2 0 1140 1089  437
[17]  38(B02)  f 40 22  0  -1081.1  4092002.7 -0.3  2 0 1286 1854  824
[18]  39(B03) 1f 43 30  0  -1075.9  4092002.6 -0.2  2 0 1208 1767  797
[19]  40(B04) 1f 39 13  0  -1068.2  4092002.6 -0.2  2 0 1048 1448  831
[20]  41(B05) 1f 37 26  0  -1101.6  4092002.6 -0.8  2 0 1011 1096  607
[21]  49(B13) 1f 43  7  0  -2568.2  4092006.6  0.0  2 0 1744 2226  896
[22]  43(B07)  1  7  7  0  -1338.7  4092003.4 -0.0  1 0 1310 2240 1581
[24]  44(B08)  1  7  8  0  -2330.8  4092006.1 -0.3  1 0 1471 2505 1129
[25]  45(B09)  1  7  7  0    716.3  4091998.1  0.8  1 0  371 1126  586
[26]  46(B10)  1  7  7  0  -1474.9  4092003.7 -0.0  1 0 1039 2370 1222
[27]  52(B16)  1  7  7  0    450.5  4091998.3 -0.1  1 0  353  977  689
[28]  63(B27)  1  7  7  0   1144.2  4091996.6  0.4  1 0 1915 2963 1653
[29]  65(B29)  1  7  7  0  -3885.1  4092010.4  0.2  1 0 1421 2394 1313
[30]  66(B30)  1  7  7  0  -1709.4  4092005.9  0.3  1 0 2590 4138 1704
[32]  78(N-3)  f 48  7  0     43.0  1021999.9 -0.1  2 0  1575 3090 1671
[33]  79(N-2)  f 43 22  0  -3696.5  1022002.3  0.0  2 0   698 1385  686
[34]  82(N01)  f 43  7  0   1323.0  1021999.1  0.0  2 0   875 1567  867
[35]  83(N02)  f 43  7  0  -2201.1  1022001.3  0.0  2 0   832 1206  626
[36]  84(N03)  f 40  7  0   3083.0  1021998.0  0.2  2 0   394  958  526
[48]  37(B01)  1 10 14  1   -551.2 20460022.1  0.0  1 0   37  250  498
[49]  38(B02)  1 36 19  0  -1326.2 20460017.2  0.0  1 0  639  105  425
[50]  39(B03)  1 23 21  0   -264.0 20460020.9  0.0  1 0  472  348  406
[51]  40(B04)  1 22 23  1   -885.3 20460022.9 -0.1  1 0  155  146  694
[52]  41(B05)  1 28 25  1  -1213.0 20460025.8 -0.1  1 0  624  462  324
[53]  49(B13)  1  7  8  0  -1435.9 20460038.6 -0.0  1 0  264  268  683
calculate DOP row 0,[  0.08  -0.83  -0.55   1.00]
calculate DOP row 1,[  0.42  -0.29  -0.86   1.00]
calculate DOP row 2,[ -0.37  -0.83   0.42   1.00]
calculate DOP row 3,[  0.74  -0.65  -0.18   1.00]
calculate DOP row 4,[ -0.38  -0.48  -0.79   1.00]
calculate DOP row 5,[  0.36  -0.93   0.08   0.00]
calculate DOP row 6,[  0.56  -0.79   0.24   1.00]
calculate DOP row 7,[  0.38  -0.90  -0.20   1.00]
calculate DOP row 8,[  0.21  -0.89   0.40   0.00]
calculate DOP row 9,[ -0.16  -0.98   0.11   0.00]
calculate DOP row 10,[  0.81  -0.58   0.06   0.00]
calculate DOP row 11,[  0.97  -0.23   0.07   0.00]
calculate DOP row 12,[ -0.79  -0.34  -0.52   1.00]
calculate DOP row 13,[ -0.60  -0.79   0.11   0.00]
calculate DOP row 14,[  0.04  -0.62   0.78   1.00]
DOP:  0.25   0.30   0.42   0.27
Refix G01: 2, 282614.927583, -3900
Refix G07: 2, 282614.932601, -1775
Refix G08: 2, 282614.928718, 1139
Refix G09: 2, 282614.922298, 1587
Refix G11: 2, 282614.931267, -2498
Refix G18: 2, 282614.930238, -2414
Refix G23: 2, 282614.917979, 1929
Refix G27: 2, 282614.920425, 2166
Refix G28: 2, 282614.920677, -2791
Refix G30: 2, 282614.927485, -3593
$GNGGA,062957.000,2944.9081,N,10633.0894,E,1,15,0.7,327.1,M,,,,0000*13
$GNRMC,062957.000,A,2944.9081,N,10633.0894,E,0.38,0.00,240419,,*1A
$GPGSA,A,3,01,07,08,09,11,18,23,28,30,,,,1.0,0.7,0.6*34
$BDGSA,A,3,01,02,03,04,05,13,,,,,,,1.0,0.7,0.6*20
$GLGSA,A,3,,,,,,,,,,,,,1.0,0.7,0.6*2E
$GPGSV,3,1,12,17,00,000,36,01,42,155,42,04,00,000,43,07,79,293,45*78
$GPGSV,3,2,12,08,50,030,44,09,22,219,43,11,71,160,43,18,54,115,43*7D
$GPGSV,3,3,12,23,07,187,35,28,20,295,39,30,44,315,44,27,18,043,00*77
$BDGSV,3,1,12,01,40,125,41,02,46,218,40,03,55,171,43,04,23,109,39*64
$BDGSV,3,2,12,05,26,244,37,13,36,183,43,07,62,055,00,08,56,154,00*6F
$BDGSV,3,3,12,09,19,205,00,10,64,351,00,16,09,188,00,27,45,040,00*66
$B3CN0,0,0,0,0,0,0,0,0,0,0,0,0,0,0*4C
---00000015--- Acq_st=7 0  2019-4-24 6:29:57 
[00]  16(G17)  f 36  7  0  -3913.3  2046005.0  0.7  2 0  614 1348 1027
[01]  00(G01)  f 42  7  0  -3903.5  2046005.0  0.0  2 0 2220 2169  971
[02]  03(G04)  f 42 14  0   1014.0  2045998.6 -0.0  2 0 1542 2631 1283
[03]  06(G07)  f 45  7  0  -1776.9  2046002.2 -0.0  2 0 2658 4262 2390
[04]  07(G08)  f 44  7  0   1139.8  2045998.4 -0.0  2 0 2195 3943 1838
[05]  08(G09)  f 43  7  0   1585.4  2045997.9  0.0  2 0 1860 2839 1234
[06]  10(G11)  f 43  7  0  -2499.2  2046003.2 -0.1  2 0 1872 2746  922
[08]  17(G18)  f 43  7  0  -2415.5  2046003.1  0.0  2 0 1663 3047 1251
[09]  22(G23)  f 35  7  0   1927.0  2045997.4 -0.3  2 0  644 1144 1048
[10]  27(G28)  f 38  7  0  -2791.7  2046003.6 -0.1  2 0 1013 1201  648
[11]  29(G30)  f 43  7  0  -3592.8  2046004.6  0.0  2 0 2089 2811 1343
[16]  37(B01) 1f 40 23  0  -1069.7  4092002.7  0.6  2 0  891 1054  416
[17]  38(B02) 1f 41 23  0  -1089.3  4092002.7 -0.2  2 0 1072 1566  663
[18]  39(B03) 1f 43 30  0  -1081.9  4092002.8 -0.2  2 0 1533 2087  952
[19]  40(B04) 1f 40 25  0  -1082.7  4092002.7  0.6  2 0 1317 1281  546
[20]  41(B05) 1f 38 24  0  -1096.6  4092002.6 -0.3  2 0 1055  921  568
[21]  49(B13) 1f 42  7  0  -2575.7  4092006.6 -0.0  2 0 1507 1869  890
[25]  45(B09)  7 27  7  0    710.8  4091998.1  0.4 10 0 1035 1376  409
[26]  46(B10)  7 26  7  0  -1478.0  4092003.9  0.2 10 0 1148 2476 1502
[27]  52(B16)  1  7  7  0    450.8  4091998.7  0.3  1 0  860 1096  557
[28]  63(B27)  7 36  7  0   1141.2  4091997.0  0.1  2 0 1829 3142 1390
[29]  65(B29)  7 29  7  0  -3893.5  4092010.1  0.1 10 0 1238 1886  856
[30]  66(B30)  7 27  7  0  -1712.0  4092004.3  0.3 10 0 3208 3290  918
[32]  78(N-3)  f 47  7  0     36.7  1021999.9  0.0  2 0  1757 2841 1502
[33]  79(N-2)  f 43 23  0  -3703.4  1022002.3  0.1  2 0   842 1558  646
[34]  82(N01)  f 43  7  0   1317.7  1021999.1 -0.1  2 0   640 1513  664
[35]  83(N02)  f 43  7  0  -2209.8  1022001.4 -0.0  2 0   928 1649  861
[36]  84(N03)  f 39  7  0   3073.6  1021998.0  0.2  2 0   500  670  139
[48]  37(B01)  1 20 10  0   -397.0 20460014.3 -0.1  1 0  326  469  233
[49]  38(B02)  7 36 10  0  -1182.0 20460016.5 -0.2  2 0  730  314 1155
calculate DOP row 0,[  0.08  -0.83  -0.55   1.00]
calculate DOP row 1,[  0.42  -0.29  -0.86   1.00]
calculate DOP row 2,[ -0.38  -0.48  -0.79   1.00]
calculate DOP row 3,[ -0.37  -0.83   0.42   1.00]
calculate DOP row 4,[  0.74  -0.65  -0.18   1.00]
calculate DOP row 5,[  0.36  -0.93   0.08   0.00]
calculate DOP row 6,[  0.56  -0.79   0.24   1.00]
calculate DOP row 7,[  0.38  -0.90  -0.20   1.00]
calculate DOP row 8,[  0.21  -0.89   0.40   0.00]
calculate DOP row 9,[ -0.16  -0.98   0.11   0.00]
calculate DOP row 10,[  0.97  -0.23   0.07   0.00]
calculate DOP row 11,[  0.81  -0.58   0.06   0.00]
calculate DOP row 12,[ -0.78  -0.34  -0.52   1.00]
calculate DOP row 13,[ -0.60  -0.79   0.11   0.00]
calculate DOP row 14,[  0.04  -0.62   0.78   1.00]
DOP:  0.25   0.30   0.42   0.27
Refix G01: 2, 282615.927585, -3899
Refix G07: 2, 282615.932602, -1772
Refix G08: 2, 282615.928717, 1142
Refix G09: 2, 282615.922297, 1589
Refix G11: 2, 282615.931268, -2496
Refix G18: 2, 282615.930239, -2413
Refix G23: 2, 282615.917978, 1930
Refix G27: 2, 282615.920423, 2169
Refix G28: 2, 282615.920678, -2788
Refix G30: 2, 282615.927488, -3590
$GNGGA,062958.000,2944.9069,N,10633.0897,E,1,15,0.7,327.0,M,,,,0000*18
$GNRMC,062958.000,A,2944.9069,N,10633.0897,E,0.27,0.00,240419,,*1E
$GPGSA,A,3,01,07,08,09,11,18,23,28,30,,,,1.0,0.7,0.6*34
$BDGSA,A,3,01,02,03,04,05,13,,,,,,,1.0,0.7,0.6*20
$GLGSA,A,3,,,,,,,,,,,,,1.0,0.7,0.6*2E
$GPGSV,3,1,12,17,00,000,36,01,42,155,42,04,00,000,42,07,79,293,45*79
$GPGSV,3,2,12,08,50,030,44,09,22,219,43,11,71,160,43,18,54,115,43*7D
$GPGSV,3,3,12,23,07,187,35,28,20,295,38,30,44,315,43,27,18,043,00*71
$BDGSV,3,1,12,01,40,125,40,02,46,218,41,03,55,171,43,04,23,109,40*6A
$BDGSV,3,2,12,05,26,244,38,13,36,183,42,09,19,205,27,10,64,351,26*6A
$BDGSV,3,3,12,27,45,040,36,29,21,223,29,30,76,232,27,07,62,055,00*69
$B3CN0,0,36,0,0,0,0,0,0,0,0,0,0,0,0*79
---00000016--- Acq_st=7 0  2019-4-24 6:29:58 
[00]  16(G17)  f 36  7  0  -3911.9  2046005.0  0.3  2 0  381  885 1018
[01]  00(G01)  f 42  7  0  -3895.6  2046005.0  0.0  2 0 1744 2283  689
[02]  03(G04)  f 42 15  0   1016.7  2045998.6  0.1  2 0 1249 2384 1044
[03]  06(G07)  f 45  7  0  -1771.9  2046002.2  0.0  2 0 3136 4546 2169
[04]  07(G08)  f 44  7  0   1144.1  2045998.5  0.0  2 0 2186 3821 1675
[05]  08(G09)  f 44  7  0   1589.6  2045997.9 -0.1  2 0 1659 2899 1572
[06]  10(G11)  f 42  7  0  -2497.4  2046003.2  0.0  2 0 1743 2019  679
[08]  17(G18)  f 43  7  0  -2412.8  2046003.1 -0.0  2 0 2128 3033 1724
[09]  22(G23)  f 35  7  0   1930.5  2045997.4 -0.0  2 0  260  590  233
[10]  27(G28)  f 38  7  0  -2791.2  2046003.6 -0.1  2 0 1209 1421  618
[11]  29(G30)  f 44 10  0  -3590.3  2046004.6 -0.0  2 0 2357 3186 1837
[16]  37(B01) 1f 41 10  0  -1063.4  4092002.6  0.2  2 0 1207 1388  575
[17]  38(B02) 1f 41 22  0  -1084.9  4092002.7 -0.4  2 0 1362 1419  529
[18]  39(B03) 1f 43 30  0  -1079.4  4092002.7 -0.4  2 0 1710 2461 1104
[19]  40(B04) 1f 39 21  0  -1077.9  4092002.6  0.3  2 0  943 1699  925
[20]  41(B05) 1f 38 21  0  -1099.2  4092002.7 -0.9  2 0  853  925  258
[21]  49(B13) 1f 42  8  0  -2571.5  4092006.6 -0.0  2 0 1740 2533 1294
[25]  45(B09)  7 40  7  0    717.3  4091998.0  0.1  2 0 1278 1492  412
[26]  46(B10)  7 44  9  0  -1474.7  4092003.8  0.0  2 0 1739 2911 1576
[27]  52(B16)  7 28  7  0    452.4  4091998.7  0.5 10 0  931  894  574
[28]  63(B27)  7 44  7  0   1144.0  4091996.9 -0.0  2 0 1904 2904 1565
[29]  65(B29)  7 41  7  0  -3891.0  4092010.1 -0.0  2 0 1478 2051 1301
[30]  66(B30)  7 44  7  0  -1708.8  4092004.3  0.0  2 0 2673 3170 1116
[32]  78(N-3)  f 47  7  0     40.1  1021999.9  0.0  2 0  1938 3121 1453
[33]  79(N-2)  f 43 22  0  -3699.3  1022002.3  0.2  2 0   818 1371  674
[34]  82(N01)  f 43  7  0   1319.7  1021999.1  0.0  2 0   642 1746  970
[35]  83(N02)  f 43  7  0  -2205.3  1022001.4 -0.1  2 0  1130 1733  917
[36]  84(N03)  f 39  7  0   3076.4  1021998.0 -0.8  2 0   686 1042  672
[48]  37(B01)  1 19 10  1   -797.0 20460018.9  0.1  1 0  432  436  312
[49]  38(B02)  7 10 19  1  -1340.0 20460022.0 -0.1  2 0  487  512  528
[50]  39(B03)  1 19 19  1  -1107.6 20460020.5 -0.1  1 0  508  206  309
[51]  40(B04)  1 17 23  1   -753.1 20460015.5 -0.0  1 0  542  507  779
[52]  41(B05)  1 25 23  0   -866.3 20460020.7  0.0  1 0  588  744  485
[53]  49(B13)  1  7  7  0  -1640.8 20460040.9  0.0  1 0  625  418  731
calculate DOP row 0,[  0.08  -0.83  -0.55   1.00]
calculate DOP row 1,[  0.42  -0.29  -0.86   1.00]
calculate DOP row 2,[ -0.37  -0.83   0.42   1.00]
calculate DOP row 3,[  0.38  -0.90  -0.20   1.00]
calculate DOP row 4,[  0.74  -0.65  -0.18   1.00]
calculate DOP row 5,[ -0.38  -0.48  -0.79   1.00]
calculate DOP row 6,[  0.36  -0.93   0.08   0.00]
calculate DOP row 7,[  0.56  -0.79   0.24   1.00]
calculate DOP row 8,[  0.21  -0.89   0.40   0.00]
calculate DOP row 9,[  0.81  -0.58   0.06   0.00]
calculate DOP row 10,[ -0.16  -0.98   0.11   0.00]
calculate DOP row 11,[  0.97  -0.23   0.07   0.00]
calculate DOP row 12,[ -0.78  -0.34  -0.52   1.00]
calculate DOP row 13,[ -0.60  -0.79   0.11   0.00]
calculate DOP row 14,[  0.04  -0.62   0.78   1.00]
DOP:  0.25   0.30   0.42   0.27
Refix G01: 2, 282616.927588, -3898
Refix G07: 2, 282616.932603, -1770
Refix G08: 2, 282616.928716, 1143
Refix G09: 2, 282616.922296, 1590
Refix G11: 2, 282616.931270, -2494
Refix G18: 2, 282616.930241, -2411
Refix G23: 2, 282616.917976, 1931
Refix G27: 2, 282616.920422, 2169
Refix G28: 2, 282616.920680, -2787
Refix G30: 2, 282616.927490, -3588
$GNGGA,062959.000,2944.9064,N,10633.0899,E,1,15,0.7,326.8,M,,,,0000*13
$GNRMC,062959.000,A,2944.9064,N,10633.0899,E,0.17,0.00,240419,,*1F
$GPGSA,A,3,01,07,08,09,11,18,23,28,30,,,,1.0,0.7,0.6*34
$BDGSA,A,3,01,02,03,04,05,13,,,,,,,1.0,0.7,0.6*20
$GLGSA,A,3,,,,,,,,,,,,,1.0,0.7,0.6*2E
$GPGSV,3,1,12,17,00,000,36,01,42,155,42,04,00,000,42,07,79,293,45*79
$GPGSV,3,2,12,08,50,030,44,09,22,219,44,11,71,160,42,18,54,115,43*7B
$GPGSV,3,3,12,23,07,187,35,28,20,295,38,30,44,315,44,27,18,043,00*76
$BDGSV,3,1,12,01,40,125,41,02,46,218,41,03,55,171,43,04,23,109,39*65
$BDGSV,3,2,12,05,26,244,38,13,36,183,42,09,19,205,40,10,64,351,44*6F
$BDGSV,3,3,12,16,09,188,28,27,45,040,44,29,21,223,41,30,76,232,44*61
$B3CN0,0,0,0,0,0,0,0,0,0,0,0,0,0,0*4C
---00000017--- Acq_st=3 0  2019-4-24 6:29:59 
[00]  16(G17)  f 36  7  0  -3908.1  2046005.0 -0.3  2 0 1056 1090  962
[01]  00(G01)  f 42  7  0  -3892.6  2046005.0 -0.0  2 0 1394 2135  922
[02]  03(G04)  f 42 11  0   1024.9  2045998.6  0.0  2 0 1822 2817 1642
[03]  06(G07)  f 45  7  0  -1765.0  2046002.2  0.0  2 0 3171 4398 2367
[04]  07(G08)  f 44  7  0   1147.0  2045998.5 -0.0  2 0 2001 3542 1401
[05]  08(G09)  f 43 10  0   1598.7  2045997.9  0.0  2 0 1743 3080 1544
[06]  10(G11)  f 43  7  0  -2491.4  2046003.2  0.1  2 0 2142 3250 1602
[08]  17(G18)  f 44  7  0  -2407.9  2046003.1 -0.0  2 0 2358 3285 1653
[09]  22(G23)  f 36  7  0   1933.1  2045997.4  0.2  2 0  594 1118  451
[10]  27(G28)  f 38  7  0  -2790.1  2046003.5  0.0  2 0  362 1191  817
[11]  29(G30)  f 43  8  0  -3585.2  2046004.6 -0.0  2 0 2013 3276 1539
[16]  37(B01) 1f 40 10  0  -1062.3  4092002.6  0.6  2 0 1042 1516  756
[17]  38(B02) 1f 39 18  0  -1087.3  4092002.7 -0.5  2 0 1680 1732  786
[18]  39(B03) 1f 43 32  0  -1076.9  4092002.6 -0.1  2 0 1322 1583  768
[19]  40(B04) 1f 38 16  0  -1072.5  4092002.8 -0.2  2 0 1053 1500  917
[20]  41(B05) 1f 36 27  0  -1094.4  4092002.6  0.1  2 0  933 1037  506
[21]  49(B13) 1f 42  7  0  -2568.8  4092006.7  0.1  2 0 1278 1893  936
[25]  45(B09)  7 39  7  0    721.2  4091998.0  0.0  2 0 1249 1766  783
[26]  46(B10)  7 43  7  0  -1469.1  4092003.8  0.0  2 0 1705 2647  937
[27]  52(B16)  7 36  7  0    452.4  4091998.7  0.1  2 0  761 1223  523
[28]  63(B27)  7 44  7  0   1151.7  4091996.9  0.0  2 0 1929 3095 1362
[29]  65(B29)  7 41  7  0  -3882.7  4092010.1  0.0  2 0  971 1506  761
[30]  66(B30)  7 44  7  0  -1702.7  4092004.3 -0.0  2 0 2675 3036 1307
[32]  78(N-3)  f 47  7  0     44.9  1021999.9  0.0  2 0  1684 2877 1601
[33]  79(N-2)  f 43 23  0  -3694.4  1022002.3 -0.0  2 0   624 1395  989
[34]  82(N01)  f 43  7  0   1326.5  1021999.1  0.0  2 0   723 1235  916
[35]  83(N02)  f 43  7  0  -2200.4  1022001.4  0.1  2 0   872 1263  659
[36]  84(N03)  f 39  7  0   3082.2  1021998.0  0.1  2 0   561  964  439
[49]  38(B02)  7 16 10  0  -1714.8 20460028.3  0.0  2 0  410  265  536
[50]  39(B03)  1 22 21  1   -881.2 20460021.0  0.0  1 0  534  677 1066
[51]  40(B04)  1 22 21  1   -817.5 20460021.0  0.1  1 0   90  163  415
[52]  41(B05)  1 26 24  1  -1032.2 20460012.5 -0.0  1 0  469  432  663
[53]  49(B13)  1  7  7  0  -1580.7 20460042.0 -0.2  1 0  149  326  313
calculate DOP row 0,[  0.08  -0.83  -0.55   1.00]
calculate DOP row 1,[  0.42  -0.29  -0.86   1.00]
calculate DOP row 2,[  0.74  -0.65  -0.18   1.00]
calculate DOP row 3,[ -0.37  -0.83   0.42   1.00]
calculate DOP row 4,[ -0.38  -0.48  -0.79   1.00]
calculate DOP row 5,[  0.36  -0.93   0.08   0.00]
calculate DOP row 6,[  0.56  -0.79   0.24   1.00]
calculate DOP row 7,[  0.38  -0.90  -0.20   1.00]
calculate DOP row 8,[  0.21  -0.89   0.40   0.00]
calculate DOP row 9,[  0.81  -0.58   0.06   0.00]
calculate DOP row 10,[ -0.16  -0.98   0.11   0.00]
calculate DOP row 11,[  0.97  -0.23   0.07   0.00]
calculate DOP row 12,[ -0.78  -0.34  -0.52   1.00]
calculate DOP row 13,[ -0.60  -0.79   0.11   0.00]
calculate DOP row 14,[  0.04  -0.62   0.78   1.00]
DOP:  0.25   0.29   0.42   0.27
Refix G01: 2, 282617.927590, -3889
Refix G07: 2, 282617.932604, -1761
Refix G08: 2, 282617.928715, 1150
Refix G09: 2, 282617.922295, 1598
Refix G11: 2, 282617.931271, -2485
Refix G18: 2, 282617.930242, -2403
Refix G23: 2, 282617.917975, 1938
Refix G27: 2, 282617.920420, 2175
Refix G28: 2, 282617.920682, -2781
Refix G30: 2, 282617.927492, -3580
$GNGGA,063000.000,2944.9061,N,10633.0901,E,1,15,0.7,326.8,M,,,,0000*12
$GNRMC,063000.000,A,2944.9061,N,10633.0901,E,0.18,0.00,240419,,*11
$GPGSA,A,3,01,07,08,09,11,18,23,28,30,,,,1.0,0.7,0.6*34
$BDGSA,A,3,01,02,03,04,05,13,,,,,,,1.0,0.7,0.6*20
$GLGSA,A,3,,,,,,,,,,,,,1.0,0.7,0.6*2E
$GPGSV,3,1,12,17,00,000,36,01,42,155,42,04,00,000,42,07,79,293,45*79
$GPGSV,3,2,12,08,50,030,44,09,22,219,43,11,71,160,43,18,54,115,44*7A
$GPGSV,3,3,12,23,07,187,36,28,20,295,38,30,44,315,43,27,18,043,00*72
$BDGSV,3,1,12,01,40,125,40,02,46,218,39,03,55,171,43,04,23,109,39*6B
$BDGSV,3,2,12,05,26,244,36,13,36,183,42,09,19,205,39,10,64,351,43*68
$BDGSV,3,3,12,16,09,188,36,27,45,040,44,29,21,223,41,30,76,232,44*6E
$B3CN0,0,16,0,0,0,0,0,0,0,0,0,0,0,0*7B
---00000018--- Acq_st=3 0  2019-4-24 6:30:0 
[00]  16(G17)  f 37  7  0  -3905.8  2046005.0  0.6  2 0 1125 1035  318
[01]  00(G01)  f 42  7  0  -3894.9  2046005.0  0.0  2 0 1450 2312 1216
[02]  03(G04)  f 42 12  0   1024.2  2045998.6  0.1  2 0 1447 2539 1306
[03]  06(G07)  f 46  7  0  -1767.7  2046002.2 -0.0  2 0 2948 4059 2124
[04]  07(G08)  f 44  7  0   1146.7  2045998.5  0.1  2 0 2078 3421 1858
[05]  08(G09)  f 43  7  0   1593.5  2045997.8  0.0  2 0 1614 2308 1020
[06]  10(G11)  f 42  7  0  -2492.5  2046003.2 -0.0  2 0 2133 3306 1303
[08]  17(G18)  f 44  7  0  -2410.1  2046003.1  0.0  2 0 2054 2888 1137
[09]  22(G23)  f 35  7  0   1938.2  2045997.4  0.2  2 0   58  861 1138
[10]  27(G28)  f 38  7  0  -2781.5  2046003.5 -0.0  2 0 1174 1314  369
[11]  29(G30)  f 43  7  0  -3586.7  2046004.6 -0.0  2 0 2288 3011 1197
[16]  37(B01) 1f 40 16  0  -1062.6  4092002.6  0.6  2 0 1175 1551  722
[17]  38(B02) 1f 40 27  0  -1084.8  4092002.6 -0.3  2 0 1531 1508  252
[18]  39(B03) 1f 43 31  0  -1074.8  4092002.6  0.1  2 0 1339 1746  483
[19]  40(B04) 1f 40 24  0  -1072.9  4092002.7  0.2  2 0 1191 1159  392
[20]  41(B05) 1f 37 14  0  -1087.4  4092002.8  0.8  2 0  986  853  691
[21]  49(B13) 1f 42  7  0  -2567.1  4092006.6  0.0  2 0 1407 1958  698
[25]  45(B09)  7 39  7  0    717.6  4091998.0  0.1  2 0 1154 1546  477
[26]  46(B10)  7 43  8  0  -1473.4  4092003.8 -0.0  2 0 1435 1902  691
[27]  52(B16)  7 36  7  0    451.4  4091998.8  0.2  2 0  778 1705 1064
[28]  63(B27)  7 44  9  0   1148.5  4091996.9  0.0  2 0 2342 3562 1623
[29]  65(B29)  7 41  7  0  -3887.8  4092010.1  0.1  2 0 1530 2234 1098
[30]  66(B30)  7 44  7  0  -1703.0  4092004.3 -0.0  2 0 2882 3401 1088
[32]  78(N-3)  f 47  7  0     45.4  1021999.9 -0.1  2 0  1748 3227 1408
[33]  79(N-2)  f 42 22  0  -3694.9  1022002.3  0.0  2 0  1073 1502  686
[34]  82(N01)  f 43  7  0   1325.0  1021999.2 -0.0  2 0   651 1283  560
[35]  83(N02)  f 43  7  0  -2201.2  1022001.4 -0.0  2 0   374 1388  732
[36]  84(N03)  f 39  7  0   3079.1  1021998.1 -0.4  2 0   392  878  573
[48]  37(B01)  1 10 10  0  -1198.5 20460025.5 -0.1  1 0   39  452  458
[49]  38(B02)  7 20 22  0  -1983.0 20460033.5  0.0  2 0  307  210  444
[50]  39(B03)  1 13 10  0   -694.7 20460020.7  0.1  1 0  406  347  403
[51]  40(B04)  1 22 16  0   -537.5 20460022.9  0.0  1 0  223  126  345
[52]  41(B05)  1 24 20  0  -1478.2 20460016.4  0.1  1 0  520  290  410
[53]  49(B13)  1  8  7  0  -1777.4 20460041.3  0.0  1 0  427  155  401
ch22 satid=43 freq=-1500 acq ok!
ch24 satid=44 freq=-2500 acq ok!
calculate DOP row 0,[  0.08  -0.83  -0.55   1.00]
calculate DOP row 1,[  0.42  -0.29  -0.86   1.00]
calculate DOP row 2,[ -0.37  -0.83   0.42   1.00]
calculate DOP row 3,[  0.74  -0.65  -0.18   1.00]
calculate DOP row 4,[ -0.38  -0.48  -0.79   1.00]
calculate DOP row 5,[  0.56  -0.79   0.24   1.00]
calculate DOP row 6,[  0.38  -0.90  -0.20   1.00]
calculate DOP row 7,[  0.36  -0.93   0.08   0.00]
calculate DOP row 8,[  0.21  -0.89   0.40   0.00]
calculate DOP row 9,[ -0.16  -0.98   0.11   0.00]
calculate DOP row 10,[  0.81  -0.58   0.06   0.00]
calculate DOP row 11,[  0.97  -0.23   0.07   0.00]
calculate DOP row 12,[ -0.78  -0.34  -0.52   1.00]
calculate DOP row 13,[ -0.60  -0.79   0.11   0.00]
calculate DOP row 14,[  0.04  -0.62   0.78   1.00]
DOP:  0.25   0.29   0.42   0.27
Refix G01: 2, 282618.927592, -3901
Refix G07: 2, 282618.932605, -1774
Refix G08: 2, 282618.928715, 1139
Refix G09: 2, 282618.922294, 1587
Refix G11: 2, 282618.931273, -2498
Refix G18: 2, 282618.930244, -2414
Refix G23: 2, 282618.917974, 1928
Refix G27: 2, 282618.920419, 2167
Refix G28: 2, 282618.920684, -2791
Refix G30: 2, 282618.927494, -3592
$GNGGA,063001.000,2944.9061,N,10633.0903,E,1,15,0.7,326.4,M,,,,0000*1D
$GNRMC,063001.000,A,2944.9061,N,10633.0903,E,0.18,0.00,240419,,*12
$GPGSA,A,3,01,07,08,09,11,18,23,28,30,,,,1.0,0.7,0.6*34
$BDGSA,A,3,01,02,03,04,05,13,,,,,,,1.0,0.7,0.6*20
$GLGSA,A,3,,,,,,,,,,,,,1.0,0.7,0.6*2E
$GPGSV,3,1,12,17,00,000,37,01,42,155,42,04,00,000,42,07,79,293,46*7B
$GPGSV,3,2,12,08,50,030,44,09,22,219,43,11,71,160,42,18,54,115,44*7B
$GPGSV,3,3,12,23,07,187,35,28,20,295,38,30,44,315,43,27,18,043,00*71
$BDGSV,3,1,12,01,40,125,40,02,46,218,40,03,55,171,43,04,23,109,40*6B
$BDGSV,3,2,12,05,26,244,37,13,36,183,42,09,19,205,39,10,64,351,43*69
$BDGSV,3,3,12,16,09,188,36,27,45,040,44,29,21,223,41,30,76,232,44*6E
$B3CN0,0,19,0,0,0,0,0,0,0,0,0,0,0,0*74
---00000019--- Acq_st=3 0  2019-4-24 6:30:1 
[00]  16(G17)  f 37  7  0  -3922.5  2046005.0 -0.6  2 0  564  834  545
[01]  00(G01)  f 42  7  0  -3905.5  2046005.0  0.0  2 0 1299 2413 1043
[02]  03(G04)  f 43 11  0   1011.3  2045998.6 -0.0  2 0 1747 2273  730
[03]  06(G07)  f 45  7  0  -1776.8  2046002.3  0.0  2 0 3026 4630 3012
[04]  07(G08)  f 45 11  0   1136.5  2045998.5  0.0  2 0 2823 4237 1762
[05]  08(G09)  f 44  7  0   1582.8  2045997.9  0.0  2 0 1949 2539 1205
[06]  10(G11)  f 43  7  0  -2501.4  2046003.2  0.1  2 0 1690 2311 1072
[08]  17(G18)  f 44  7  0  -2419.1  2046003.1 -0.0  2 0 2300 3326 1503
[09]  22(G23)  f 36  7  0   1927.0  2045997.4  0.4  2 0  771 1286  993
[10]  27(G28)  f 38  7  0  -2796.6  2046003.5 -0.0  2 0  957 1367  615
[11]  29(G30)  f 44  7  0  -3595.5  2046004.6 -0.0  2 0 1722 2964 1686
[16]  37(B01) 1f 40 19  0  -1076.5  4092002.7 -0.2  2 0 1568 1654  602
[17]  38(B02) 1f 41 24  0  -1096.3  4092002.7 -0.3  2 0 1809 2075  890
[18]  39(B03) 1f 42 30  0  -1088.8  4092002.7  0.3  2 0 1182 1767  907
[19]  40(B04) 1f 41 10  0  -1081.6  4092002.7  0.5  2 0 1192 1705  736
[20]  41(B05) 1f 37 23  0  -1104.7  4092002.7  0.3  2 0  582  868  412
[21]  49(B13) 1f 42  7  0  -2578.0  4092006.6  0.0  2 0 1877 2528 1048
[22]  43(B07)  1  7  7  0  -1349.7  4092004.3  0.2  1 0 1677 2671 1017
[24]  44(B08)  1  7  7  0  -2338.8  4092006.6  0.2  1 0 1147 2142 1421
[25]  45(B09)  7 39  7  0    709.2  4091998.0  0.2  2 0 1406 1303  472
[26]  46(B10)  7 43  7  0  -1480.1  4092003.8  0.1  2 0 1300 1999 1042
[27]  52(B16)  7 36  7  0    448.2  4091998.8 -0.1  2 0  612  773  578
[28]  63(B27)  7 44  7  0   1138.1  4091996.9 -0.0  2 0 1705 2844 1433
[29]  65(B29)  7 41  7  0  -3896.9  4092010.1  0.0  2 0 1780 1900  541
[30]  66(B30)  7 44  7  0  -1713.4  4092004.4  0.1  2 0 2724 3459 1412
[32]  78(N-3)  f 47  7  0     34.7  1021999.9 -0.0  2 0  1774 3254 1592
[33]  79(N-2)  f 43 23  0  -3704.8  1022002.3 -0.1  2 0   714 1040  148
[34]  82(N01)  f 42  7  0   1312.9  1021999.1 -0.0  2 0   569 1181  797
[35]  83(N02)  f 42  7  0  -2211.4  1022001.4 -0.0  2 0   943 1584  683
[36]  84(N03)  f 39  7  0   3071.0  1021998.0 -0.3  2 0   607 1148  528
[48]  37(B01)  1 10 16  0  -1491.4 20460022.3 -0.1  1 0  179  317  608
[50]  39(B03)  1 20 14  1   -694.2 20460019.7 -0.0  1 0  519  419  445
[51]  40(B04)  1 21 24  0   -303.5 20460020.0  0.1  1 0  431  345  562
[52]  41(B05)  1 24 24  0  -1628.6 20460022.7 -0.0  1 0  364  819  499
[53]  49(B13)  1  7  7  0  -2347.5 20460041.4 -0.2  1 0  473  330  366
calculate DOP row 0,[  0.08  -0.83  -0.55   1.00]
calculate DOP row 1,[  0.42  -0.29  -0.86   1.00]
calculate DOP row 2,[ -0.37  -0.83   0.42   1.00]
calculate DOP row 3,[  0.74  -0.65  -0.18   1.00]
calculate DOP row 4,[ -0.38  -0.48  -0.79   1.00]
calculate DOP row 5,[  0.38  -0.90  -0.20   1.00]
calculate DOP row 6,[  0.36  -0.93   0.08   0.00]
calculate DOP row 7,[  0.56  -0.79   0.24   1.00]
calculate DOP row 8,[  0.21  -0.89   0.40   0.00]
calculate DOP row 9,[  0.81  -0.58   0.06   0.00]
calculate DOP row 10,[  0.97  -0.23   0.07   0.00]
calculate DOP row 11,[ -0.60  -0.79   0.11   0.00]
calculate DOP row 12,[ -0.16  -0.98   0.11   0.00]
calculate DOP row 13,[ -0.78  -0.34  -0.52   1.00]
calculate DOP row 14,[  0.04  -0.62   0.78   1.00]
DOP:  0.25   0.29   0.42   0.27
Refix G01: 2, 282619.927595, -3905
Refix G07: 2, 282619.932606, -1779
Refix G08: 2, 282619.928714, 1134
Refix G09: 2, 282619.922293, 1582
Refix G11: 2, 282619.931275, -2503
Refix G18: 2, 282619.930245, -2418
Refix G23: 2, 282619.917972, 1923
Refix G27: 2, 282619.920418, 2163
Refix G28: 2, 282619.920685, -2796
Refix G30: 2, 282619.927497, -3597
$GNGGA,063002.000,2944.9060,N,10633.0904,E,1,15,0.7,326.6,M,,,,0000*1A
$GNRMC,063002.000,A,2944.9060,N,10633.0904,E,0.43,0.00,240419,,*19
$GPGSA,A,3,01,07,08,09,11,18,23,28,30,,,,1.0,0.7,0.6*34
$BDGSA,A,3,01,02,03,04,05,13,,,,,,,1.0,0.7,0.6*20
$GLGSA,A,3,,,,,,,,,,,,,1.0,0.7,0.6*2E
$GPGSV,3,1,12,17,00,000,37,01,42,155,42,04,00,000,43,07,79,293,45*79
$GPGSV,3,2,12,08,50,030,45,09,22,219,44,11,71,160,43,18,54,115,44*7C
$GPGSV,3,3,12,23,07,187,36,28,20,295,38,30,44,315,44,27,18,043,00*75
$BDGSV,3,1,12,01,40,125,40,02,46,218,41,03,55,171,42,04,23,109,41*6A
$BDGSV,3,2,12,05,26,244,37,13,36,183,42,09,19,205,39,10,64,351,43*69
$BDGSV,3,3,12,16,09,188,36,27,45,040,44,29,21,223,41,30,76,232,44*6E
$B3CN0,0,0,0,0,0,0,0,0,0,0,0,0,0,0*4C
---00000020--- Acq_st=3 0  2019-4-24 6:30:2 
[00]  16(G17)  f 36  7  0  -3923.5  2046005.0  0.7  2 0 1003 1156  433
[01]  00(G01)  f 42  7  0  -3909.1  2046005.0 -0.0  2 0 1545 2519 1064
[02]  03(G04)  f 42 16  0   1007.0  2045998.6 -0.0  2 0 1892 2643  845
[03]  06(G07)  f 45  7  0  -1780.0  2046002.3  0.0  2 0 3308 4702 2035
[04]  07(G08)  f 45  7  0   1130.7  2045998.5 -0.0  2 0 1515 3438 1257
[05]  08(G09)  f 44  7  0   1580.1  2045997.9  0.0  2 0 2076 2991 1147
[06]  10(G11)  f 43  7  0  -2504.5  2046003.2  0.0  2 0 2539 3118 1598
[08]  17(G18)  f 44  7  0  -2422.4  2046003.1 -0.0  2 0 1642 2785 1594
[09]  22(G23)  f 36  7  0   1922.6  2045997.4 -0.2  2 0  758 1133  816
[10]  27(G28)  f 38  7  0  -2799.1  2046003.5 -0.1  2 0  563  504  291
[11]  29(G30)  f 44 10  0  -3601.0  2046004.6  0.0  2 0 1377 2618 1415
[16]  37(B01) 1f 40 10  0  -1075.9  4092002.7 -0.1  2 0 1053 1279  863
[17]  38(B02) 1f 41 23  0  -1102.3  4092002.8 -0.5  2 0  895 1232  657
[18]  39(B03) 1f 42 30  0  -1092.4  4092002.7  0.1  2 0 1686 2065  948
[19]  40(B04) 1f 40 17  0  -1083.3  4092002.7  0.0  2 0  742 1134  470
[20]  41(B05) 1f 38 22  0  -1108.4  4092002.8 -0.5  2 0  870 1077  516
[21]  49(B13) 1f 42  7  0  -2583.1  4092006.7  0.0  2 0 1433 2069  969
[22]  43(B07)  7 26  7  0  -1352.0  4092003.4  0.3 10 0 1668 2455 1359
[24]  44(B08)  7 24  7  0  -2342.1  4092006.1  0.3 10 0 1557 2359  934
[25]  45(B09)  7 39  7  0    704.4  4091998.0 -0.1  2 0 1071 1218  492
[26]  46(B10)  7 43 10  0  -1486.0  4092003.8  0.0  2 0 1468 2185  949
[27]  52(B16)  7 35  7  0    428.7  4091998.8 -0.1  2 0  721  749  203
[28]  63(B27)  7 43  7  0   1135.7  4091996.9  0.0  2 0 2410 3176 1573
[29]  65(B29)  7 41  7  0  -3898.1  4092010.1  0.0  2 0 1592 1964 1244
[30]  66(B30)  7 44  7  0  -1717.2  4092004.4 -0.1  2 0 2741 3330 1388
[32]  78(N-3) 8f 48  7  0     31.8  1022000.0 -0.0  2 0  1808 3002 1377
[33]  79(N-2) 8f 43 22  0  -3708.7  1022002.3  0.1  2 0   874 1488  598
[34]  82(N01) 8f 42  7  0   1310.1  1021999.1  0.0  2 0  1024 1594  607
[35]  83(N02) 8f 43  7  0  -2215.8  1022001.4 -0.0  2 0   966 1648  784
[36]  84(N03) 8f 40  9  0   3066.4  1021998.0 -0.0  2 0   469  766  298
[48]  37(B01)  1 10 10  1  -1601.4 20460015.4  0.1  1 0  321  279  496
[49]  38(B02)  1 18 18  0   -611.1 20460022.5 -0.0  1 0  216  201  274
calculate DOP row 0,[  0.08  -0.83  -0.55   1.00]
calculate DOP row 1,[  0.42  -0.29  -0.86   1.00]
calculate DOP row 2,[  0.74  -0.65  -0.18   1.00]
calculate DOP row 3,[ -0.38  -0.48  -0.79   1.00]
calculate DOP row 4,[  0.56  -0.79   0.24   1.00]
calculate DOP row 5,[ -0.37  -0.83   0.42   1.00]
calculate DOP row 6,[  0.38  -0.90  -0.20   1.00]
calculate DOP row 7,[  0.36  -0.93   0.08   0.00]
calculate DOP row 8,[  0.21  -0.89   0.40   0.00]
calculate DOP row 9,[  0.81  -0.58   0.06   0.00]
calculate DOP row 10,[ -0.16  -0.98   0.11   0.00]
calculate DOP row 11,[  0.97  -0.23   0.07   0.00]
calculate DOP row 12,[ -0.78  -0.34  -0.52   1.00]
calculate DOP row 13,[ -0.60  -0.79   0.11   0.00]
calculate DOP row 14,[  0.04  -0.62   0.78   1.00]
DOP:  0.25   0.29   0.42   0.27
Refix G01: 2, 282620.927597, -3893
Refix G07: 2, 282620.932607, -1765
Refix G08: 2, 282620.928713, 1146
Refix G09: 2, 282620.922292, 1594
Refix G11: 2, 282620.931276, -2489
Refix G18: 2, 282620.930247, -2406
Refix G23: 2, 282620.917971, 1933
Refix G27: 2, 282620.920416, 2171
Refix G28: 2, 282620.920687, -2785
Refix G30: 2, 282620.927499, -3584
$GNGGA,063003.000,2944.9058,N,10633.0905,E,1,15,0.7,327.3,M,,,,0000*15
$GNRMC,063003.000,A,2944.9058,N,10633.0905,E,0.22,0.00,240419,,*15
$GPGSA,A,3,01,07,08,09,11,18,23,28,30,,,,1.0,0.7,0.6*34
$BDGSA,A,3,01,02,03,04,05,13,,,,,,,1.0,0.7,0.6*20
$GLGSA,A,3,,,,,,,,,,,,,1.0,0.7,0.6*2E
$GPGSV,3,1,12,17,00,000,36,01,42,155,42,04,00,000,42,07,79,293,45*79
$GPGSV,3,2,12,08,50,030,45,09,22,219,44,11,71,160,43,18,54,115,44*7C
