SD initialized success
Create debug.log Failed! 3
bbram_blkflag = 1
rtcflag = 128
BBRAM Block OK: 01 EPHflag: 00000000 09c236df, rtc 80
Start Channel by LuYu
$GNGGA,000000.000,,,,,0,00,,,M,,,,0000*2B
$GNRMC,000000.000,A,,,,,,,060180,,*29
$GPGSA,A,1,,,,,,,,,,,,,,,*1E
$BDGSA,A,1,,,,,,,,,,,,,,,*0F
$GLGSA,A,1,,,,,,,,,,,,,,,*02
$B3CN0,0,0,0,0,0,0,0,0,0,0,0,0,0,0*4C
---00000001--- Acq_st=3 0  2000-1-1 0:1:45 
[00]  02(G03)  1 25  7  0   -277.3  2046002.4  0.2  1 0  430 1402 1043
$GNGGA,000000.000,,,,,0,00,,,M,,,,0000*2B
$GNRMC,000000.000,A,,,,,,,060180,,*29
$GPGSA,A,1,,,,,,,,,,,,,,,*1E
$BDGSA,A,1,,,,,,,,,,,,,,,*0F
$GLGSA,A,1,,,,,,,,,,,,,,,*02
$B3CN0,0,0,0,0,0,0,0,0,0,0,0,0,0,0*4C
---00000002--- Acq_st=3 0  2000-1-1 0:1:46 
[00]  02(G03)  7 20  7  0   -268.9  2046000.2  0.9 10 0 1237  841  335
[01]  13(G14)  1 26  7  0    956.1  2045999.1  0.5  1 0 1752 2467 1180
[02]  15(G16)  1 24  7  0  -2432.2  2046003.8  0.2  1 0 1913 2823 1064
[03]  21(G22)  1  7  7  0    500.0  2046002.5  0.0  1 0  287  959 1689
[04]  22(G23)  1  7  7  0  -4250.0  2046006.7 -0.0  1 0  186  475  799
[05]  25(G26)  1  7  7  0   -250.0  2046002.2  0.0  1 0  448 1301 4119
$GNGGA,000000.000,,,,,0,00,,,M,,,,0000*2B
$GNRMC,000000.000,A,,,,,,,060180,,*29
$GPGSA,A,1,,,,,,,,,,,,,,,*1E
$BDGSA,A,1,,,,,,,,,,,,,,,*0F
$GLGSA,A,1,,,,,,,,,,,,,,,*02
$GPGSV,1,1,01,03,00,000,20*49
$B3CN0,0,0,0,0,0,0,0,0,0,0,0,0,0,0*4C
---00000003--- Acq_st=3 0  2000-1-1 0:1:47 
[00]  02(G03)  7 40  7  0   -270.2  2046000.2  0.0  2 0  698 1179  512
[01]  13(G14)  7 24  7  0    954.6  2045998.7  0.7 10 0 1827 2212  957
[02]  15(G16)  7 20  7  0  -2429.2  2046003.1  0.7 10 0 2611 3226  605
[03]  21(G22)  1 29  7  0    549.1  2045999.0  0.7  1 0 1707 1843  248
[04]  22(G23)  1 27  7  0  -4329.9  2046006.2  0.7  1 0  782 1127  679
[05]  25(G26)  1 30  7  0   -251.9  2046000.7  0.5  1 0 3266 4551 2116
[06]  26(G27)  1 28  7  0  -4730.8  2046007.2  0.5  1 0  947 1750  791
[08]  30(G31)  1 20  7  0    335.7  2045999.9  0.0  1 0 2407 3854 1931
[09]  31(G32)  1 12  7  0   1898.1  2045999.4 -0.1  1 0  447 1995 1662
[16]  37(B01)  1 10 36  1  -1000.0  4092003.1  0.0  1 0  376  121   45
[17]  38(B02)  1 10 24  1  -1000.0  4092001.3  0.1  1 0  306  637  663
[18]  39(B03)  1 21 14  1  -1250.0  4092003.5  0.0  1 0  496  436 1226
$GNGGA,000000.000,,,,,0,00,,,M,,,,0000*2B
$GNRMC,000000.000,A,,,,,,,060180,,*29
$GPGSA,A,1,,,,,,,,,,,,,,,*1E
$BDGSA,A,1,,,,,,,,,,,,,,,*0F
$GLGSA,A,1,,,,,,,,,,,,,,,*02
$GPGSV,1,1,03,03,00,000,40,14,00,000,24,16,00,000,20*4B
$B3CN0,0,0,0,0,0,0,0,0,0,0,0,0,0,0*4C
---00000004--- Acq_st=3 0  2000-1-1 0:1:48 
[00]  02(G03)  7 39  7  0   -262.9  2046000.3  0.1  2 0 1234  993  424
[01]  13(G14)  7 43  7  0    954.7  2045998.7  0.0  2 0 1291 1863  574
[02]  15(G16)  7 44  7  0  -2428.7  2046003.1  0.0  2 0 2240 3315 1555
[03]  21(G22)  7 33  7  0    554.2  2045999.1  0.3  5 0 2166 2253  186
[04]  22(G23)  7 31  7  0  -4329.8  2046005.5  0.3  5 0 1085 1244  330
[05]  25(G26)  7 27  7  0   -247.8  2046000.2  0.6 10 0 3083 4174 1839
[06]  26(G27)  7 25  7  0  -4728.4  2046006.0  0.7 10 0  751 1348  942
[08]  30(G31)  7 13  7  0    340.3  2045999.5  1.0 10 0 1935 3565 1713
[09]  31(G32)  1 33  7  0   1905.3  2045997.4  1.0  1 0  910 1191  471
[16]  37(B01)  1 10 10  1  -1033.2  4092003.4 -0.1  1 0  506  426  594
[17]  38(B02)  1 10 26  1  -1218.5  4092003.3 -0.1  1 0  334  691 1160
[18]  39(B03)  9 42 28  0  -1142.8  4092003.9  1.0  1 0 1867 2221 1169
[19]  40(B04)  1 36 10  0  -1461.9  4092001.6 -0.1  1 0  534  293  248
[20]  41(B05)  1 10 22  0   -814.2  4092002.1 -0.1  1 0  521   85  517
[21]  42(B06)  1  7  7  0   -603.3  4092002.4  0.1  1 0 1160 2653 1543
[22]  43(B07)  1  7  7  0   -671.8  4092003.8 -0.0  1 0  802  901 1764
[24]  45(B09)  1  7  7  0  -1250.0  4092005.8 -0.1  1 0  603 1844 2482
[25]  46(B10)  1  7  7  0  -1250.0  4092005.5  0.1  1 0  705 1813 2458
$GNGGA,000000.000,,,,,0,00,,,M,,,,0000*2B
$GNRMC,000000.000,A,,,,,,,060180,,*29
$GPGSA,A,1,,,,,,,,,,,,,,,*1E
$BDGSA,A,1,,,,,,,,,,,,,,,*0F
$GLGSA,A,1,,,,,,,,,,,,,,,*02
$GPGSV,2,1,07,03,00,000,39,14,00,000,43,16,00,000,44,22,00,000,32*70
$GPGSV,2,2,07,23,00,000,30,26,00,000,27,27,00,000,25*4F
$B3CN0,0,0,0,0,0,0,0,0,0,0,0,0,0,0*4C
---00000005--- Acq_st=3 0  2000-1-1 0:1:49 
[00]  02(G03)  7 39  8  0   -268.2  2046000.3  0.1  2 0 1084 1926  791
[01]  13(G14)  7 43  7  0    959.8  2045998.7  0.0  2 0 1718 2755 1296
[02]  15(G16)  7 44  7  0  -2425.4  2046003.1  0.0  2 0 2855 3965 1870
[03]  21(G22)  7 42  7  0    556.3  2045999.2 -0.1  2 0 1085 1775 1290
[04]  22(G23)  7 40  7  0  -4324.7  2046005.5  0.1  2 0  956 1464  597
[05]  25(G26)  7 46  7  0   -245.3  2046000.2  0.1  2 0 3346 4469 2168
[06]  26(G27)  7 38  7  0  -4729.0  2046006.1  0.2  2 0 1224 1512  881
[08]  30(G31)  7 45  9  0    341.5  2045999.5 -0.0  2 0 2930 4263 2056
[09]  31(G32)  7 39  7  0   1907.3  2045997.4  0.1  2 0 1691 1682  614
[16]  37(B01)  1 36 20  0   -979.6  4092003.4 -0.2  1 0  390  434  861
[17]  38(B02)  f 40 27  0  -1090.0  4092003.0  0.4  2 0  378 1121 1079
[18]  39(B03) 1f 41 29  0  -1139.0  4092002.8  0.2  2 0 2010 1384  450
[19]  40(B04)  1 10 10  1  -1286.7  4092003.9  0.0  1 0  208  386  571
[20]  41(B05)  1 16 10  0   -498.1  4092002.7  0.0  1 0  902  262  627
[21]  42(B06)  7 10  7  0   -599.9  4092001.5  0.5 10 0 1124 1526  579
[22]  43(B07)  1  7  7  0   -864.1  4092003.0  0.4  1 0 1884 2792 1262
[24]  45(B09)  1  7  7  0  -1171.4  4092002.9  0.1  1 0 1425 1847  358
[25]  46(B10)  1 33  7  0  -1123.5  4092002.7  0.6  1 0 1309 2687 1250
[26]  52(B16)  1  7  7  0   -500.0  4092002.9  0.0  1 0  391  183 1546
[27]  54(B18)  1  7  7  0  -1000.0  4092004.3  0.0  1 0  201  403 2000
[28]  55(B19)  1  7  7  0   1750.0  4091997.7 -0.0  1 0  954 2577 2682
$GNGGA,000000.000,,,,,0,00,,,M,,,,0000*2B
$GNRMC,000000.000,A,,,,,,,060180,,*29
$GPGSA,A,1,,,,,,,,,,,,,,,*1E
$BDGSA,A,1,,,,,,,,,,,,,,,*0F
$GLGSA,A,1,,,,,,,,,,,,,,,*02
$GPGSV,3,1,09,03,00,000,39,14,00,000,43,16,00,000,44,22,00,000,42*78
$GPGSV,3,2,09,23,00,000,40,26,00,000,46,27,00,000,38,31,00,000,45*7F
$GPGSV,3,3,09,32,00,000,38*4A
$BDGSV,1,1,02,02,00,000,40,03,00,000,41*6A
$B3CN0,0,0,0,0,0,0,0,0,0,0,0,0,0,0*4C
---00000006--- Acq_st=3 0  2000-1-1 0:1:50 
[00]  02(G03)  7 40  7  0   -260.6  2046000.2 -0.1  2 0  650 1555 1217
[01]  13(G14)  7 43  7  0    964.0  2045998.7  0.0  2 0 1417 2439 1321
[02]  15(G16)  7 44  7  0  -2423.3  2046003.1  0.0  2 0 2228 3044 1402
[03]  21(G22)  7 42  7  0    560.5  2045999.2  0.0  2 0 1944 2646  515
[04]  22(G23)  7 40  7  0  -4321.9  2046005.6  0.1  2 0 1011 1832 1323
[05]  25(G26)  7 45  7  0   -242.8  2046000.2 -0.0  2 0 2356 4210 1904
[06]  26(G27)  7 38  7  0  -4721.4  2046006.1  0.2  2 0  753 1185  392
[08]  30(G31)  7 44 13  0    344.5  2045999.5 -0.0  2 0 2669 3489 1209
[09]  31(G32)  7 41  7  0   1909.4  2045997.4  0.3  2 0  996 1461  634
[16]  37(B01)  1 10 36  1   -644.2  4092004.2  0.0  1 0  230  558  430
[17]  38(B02)  f 41 14  0  -1087.6  4092002.9  0.2  2 0  223  917  252
[18]  39(B03) 1f 41 29  0  -1132.8  4092002.7 -0.0  2 0 1397 1180  213
[19]  40(B04)  1 10 24  1  -2074.8  4092003.3 -0.0  1 0  353  487  324
[20]  41(B05)  1 19 25  1   -832.2  4092004.1 -0.0  1 0  442  465  444
[21]  42(B06)  7 42  8  0   -598.0  4092001.5  0.0  2 0 1254 1895  598
[22]  43(B07)  7 43  7  0   -857.1  4092002.1  0.1  2 0 1478 2447 1120
[24]  45(B09)  7 33  7  0  -1169.1  4092002.9  0.2  5 0 1414 2241  814
[25]  46(B10)  7 32  7  0  -1118.9  4092002.8  0.3  5 0 1844 2609 1195
[26]  52(B16)  1  7  7  0   -639.2  4092002.6 -0.0  1 0 1299 2267 1217
[27]  54(B18)  1  7  7  0   -971.9  4092003.0  0.2  1 0 2437 3271 1626
[28]  55(B19)  1  7  9  0   1733.6  4091995.3  0.1  1 0 1440 2201 1133
[29]  57(B21)  1  7  7  0  -3295.7  4092010.4  0.0  1 0  856 2025 1233
[30]  58(B22)  1  7  7  0   -741.8  4092004.7 -0.0  1 0  923 2684 3124
[49]  38(B02)  1 13 16  1   -975.2 20460024.0 -0.1  1 0  252   71  272
[50]  39(B03)  1 23 24  1   -912.7 20460017.2  0.2  1 0  223  497  380
$GNGGA,000000.000,,,,,0,00,,,M,,,,0000*2B
$GNRMC,000000.000,A,,,,,,,060180,,*29
$GPGSA,A,1,,,,,,,,,,,,,,,*1E
$BDGSA,A,1,,,,,,,,,,,,,,,*0F
$GLGSA,A,1,,,,,,,,,,,,,,,*02
$GPGSV,3,1,09,03,00,000,40,14,00,000,43,16,00,000,44,22,00,000,42*76
$GPGSV,3,2,09,23,00,000,40,26,00,000,45,27,00,000,38,31,00,000,44*7D
$GPGSV,3,3,09,32,00,000,41*44
$BDGSV,2,1,06,02,00,000,41,03,00,000,41,06,00,000,42,07,00,000,41*6E
$BDGSV,2,2,06,09,00,000,32,10,00,000,32*66
$B3CN0,0,0,0,0,0,0,0,0,0,0,0,0,0,0*4C
---00000007--- Acq_st=3 0  2000-1-1 0:1:51 
[00]  02(G03)  7 41  7  0   -263.6  2046000.3 -0.0  2 0  758 1636 1026
[01]  13(G14)  7 43 12  0    961.7  2045998.7 -0.1  2 0 1806 3397 1608
[02]  15(G16)  7 44  7  0  -2423.8  2046003.1 -0.0  2 0 2203 2931 1181
[03]  21(G22)  7 43  7  0    557.3  2045999.2 -0.0  2 0  962 2151 1096
[04]  22(G23)  7 40  7  0  -4325.8  2046005.6 -0.0  2 0 1317 1800  718
[05]  25(G26)  7 45  7  0   -244.3  2046000.2  0.0  2 0 2976 4182 1627
[06]  26(G27)  7 39  7  0  -4723.5  2046006.0 -0.0  2 0 1032 1465  578
[08]  30(G31)  7 45 14  0    343.7  2045999.5  0.0  2 0 2120 3743 1588
[09]  31(G32)  7 41  7  0   1904.5  2045997.4  0.0  2 0 1537 1750  541
[16]  37(B01)  1 21 10  0   -807.2  4092004.5 -0.1  1 0  933  456  470
[17]  38(B02)  f 40 27  0  -1089.5  4092002.9 -0.4  2 0  998 1993 1388
[18]  39(B03) 1f 41 27  0  -1141.0  4092002.8  0.1  2 0 1521 1693  769
[19]  40(B04)  1 10 10  1  -1635.4  4092005.6 -0.0  1 0 1049 1327  683
[20]  41(B05)  1 10 10  1   -537.0  4092003.8 -0.0  1 0  226  243  444
[21]  42(B06)  7 42  7  0   -598.1  4092001.5 -0.0  2 0 1508 2197 1042
[22]  43(B07)  7 44  7  0   -860.8  4092002.1  0.0  2 0 2364 2920 1250
[24]  45(B09)  7 43  7  0  -1168.3  4092002.9 -0.0  2 0 2124 2185  637
[25]  46(B10)  7 43  7  0  -1123.8  4092002.8  0.1  2 0 2018 2542  789
[26]  52(B16)  7 33  7  0   -636.4  4092001.5 -0.0  5 0 1603 2177 1169
[27]  54(B18)  7 29  7  0   -973.5  4092002.4  0.3 10 0 2361 3107 1329
[28]  55(B19)  7 27  7  0   1737.2  4091995.4  0.1 10 0 1841 2842 1340
[29]  57(B21)  1  7  7  0  -3299.0  4092008.2  0.6  1 0 1144 1849  644
[30]  58(B22)  7 17  7  0   -740.2  4092001.8  0.1 10 0 2511 2848 1103
[49]  38(B02)  7 18 18  1   -606.4 20460010.9  0.1  2 0  545   77  336
[50]  39(B03)  1 19 22  0  -1047.0 20460017.7  0.1  1 0  886  896  581
$GNGGA,000000.000,,,,,0,00,,,M,,,,0000*2B
$GNRMC,000000.000,A,,,,,,,060180,,*29
$GPGSA,A,1,,,,,,,,,,,,,,,*1E
$BDGSA,A,1,,,,,,,,,,,,,,,*0F
$GLGSA,A,1,,,,,,,,,,,,,,,*02
$GPGSV,3,1,09,03,00,000,41,14,00,000,43,16,00,000,44,22,00,000,43*76
$GPGSV,3,2,09,23,00,000,40,26,00,000,45,27,00,000,39,31,00,000,45*7D
$GPGSV,3,3,09,32,00,000,41*44
$BDGSV,3,1,09,02,00,000,40,03,00,000,41,06,00,000,42,07,00,000,44*64
$BDGSV,3,2,09,09,00,000,43,10,00,000,43,16,00,000,33,18,00,000,29*6D
$BDGSV,3,3,09,19,00,000,27*5C
$B3CN0,0,0,0,0,0,0,0,0,0,0,0,0,0,0*4C
---00000008--- Acq_st=3 0  2000-1-1 0:1:52 
[00]  02(G03)  7 41  7  0   -263.9  2046000.3  0.0  2 0  591 1791 1401
[01]  13(G14)  7 42  7  0    962.3  2045998.7 -0.0  2 0 1650 2603 1252
[02]  15(G16)  7 44  7  0  -2424.8  2046003.1  0.0  2 0 2519 3908 1527
[03]  21(G22)  7 42  7  0    561.1  2045999.2  0.0  2 0 2097 2775 1024
[04]  22(G23)  7 40  7  0  -4318.0  2046005.5 -0.2  2 0 1067 1263  472
[05]  25(G26)  7 45  7  0   -243.5  2046000.3  0.0  2 0 2790 4179 2445
[06]  26(G27)  7 38  7  0  -4724.1  2046006.1  0.0  2 0 1377 1828  805
[08]  30(G31)  7 44 17  0    343.7  2045999.5 -0.0  2 0 3005 4087 1724
[09]  31(G32)  7 40  7  0   1906.6  2045997.4  0.0  2 0 1792 2302  825
[17]  38(B02) 1f 40 25  0  -1089.5  4092002.9 -0.0  2 0  793 1472  946
[18]  39(B03) 1f 41 29  0  -1137.9  4092002.8 -0.1  2 0 1873 2178  723
[21]  42(B06)  7 41  7  0   -600.5  4092001.5  0.0  2 0 1840 2122  919
[22]  43(B07)  7 43  7  0   -859.6  4092002.1 -0.0  2 0 1703 2597 1488
[24]  45(B09)  7 43  7  0  -1168.8  4092002.9 -0.0  2 0 1793 2564 1352
[25]  46(B10)  7 43  7  0  -1122.8  4092002.8 -0.0  2 0 1915 2728 1218
[26]  52(B16)  7 42  7  0   -634.6  4092001.5 -0.0  2 0 2003 2408 1214
[27]  54(B18)  7 44  7  0   -971.1  4092002.4 -0.0  2 0 2324 3170 1367
[28]  55(B19)  7 44  8  0   1739.8  4091995.3  0.1  2 0 1861 2539  604
[29]  57(B21)  7 21  7  0  -3294.1  4092008.6  0.4 10 0 1880 2779 1154
[30]  58(B22)  7 45 11  0   -738.3  4092001.8 -0.0  2 0 1985 2196  307
[32]  75(N-6)  1 24  8  0  -4806.4  1022003.5  0.5  1 0  1042 1490  613
[33]  76(N-5)  1 33  7  0  -1754.9  1022001.8  0.6  1 0  2042 3074 1275
[34]  78(N-3)  1 23  7  0  -3974.0  1022003.3 -0.1  1 0    46  434  445
[35]  82(N01)  1 26  9  0   1500.0  1022001.0  0.0  1 0   289 1020  754
[36]  83(N02)  1 24  7  0   -750.0  1022002.8 -0.0  1 0   581 1798 2388
[37]  84(N03)  1  7  7  0  -1839.3  1022001.7 -0.0  1 0   431  414  547
[38]  85(N04)  1  7  7  0 -87493.2  1022001.0  0.0  1 0   302  333 1429
[49]  38(B02)  7 10 10  0   -647.9 20460011.6  0.1  2 0  286  326  700
[50]  39(B03)  1 10 23  0   -811.9 20460018.9 -0.0  1 0  190  252  108
$GNGGA,020013.643,,,,,0,00,,,M,,,,0000*2A
$GNRMC,020013.643,A,,,,,,,070180,,*29
$GPGSA,A,1,,,,,,,,,,,,,,,*1E
$BDGSA,A,1,,,,,,,,,,,,,,,*0F
$GLGSA,A,1,,,,,,,,,,,,,,,*02
$GPGSV,3,1,09,03,00,000,41,14,00,000,42,16,00,000,44,22,00,000,42*76
$GPGSV,3,2,09,23,00,000,40,26,00,000,45,27,00,000,38,31,00,000,44*7D
$GPGSV,3,3,09,32,00,000,40*45
$BDGSV,3,1,11,02,00,000,40,03,00,000,41,06,00,000,41,07,00,000,43*69
$BDGSV,3,2,11,09,00,000,43,10,00,000,43,16,00,000,42,18,00,000,44*69
$BDGSV,3,3,11,19,00,000,44,21,00,000,21,22,00,000,45*51
$B3CN0,0,0,0,0,0,0,0,0,0,0,0,0,0,0*4C
---00000009--- Acq_st=7 0  2000-1-1 0:1:53 
[00]  02(G03)  f 40  7  0   -263.9  2046000.2 -0.0  2 0 1395 1858  829
[01]  13(G14)  f 43  9  0    966.2  2045998.7  0.0  2 0 2016 2497 1299
[02]  15(G16)  f 43  7  0  -2423.6  2046003.1  0.0  2 0 2679 3445 1455
[03]  21(G22)  f 42  7  0    560.1  2045999.2  0.1  2 0 1459 2583 1154
[04]  22(G23)  f 40  7  0  -4328.7  2046005.5  0.0  2 0 1540 1879  667
[05]  25(G26)  f 45  7  0   -241.3  2046000.2 -0.0  2 0 2813 4576 2216
[06]  26(G27)  f 39  7  0  -4726.6  2046006.1 -0.1  2 0  571 1209  791
[08]  30(G31)  f 44 17  0    344.8  2045999.5  0.0  2 0 2095 3688 1624
[09]  31(G32)  f 40  7  0   1909.0  2045997.4  0.0  2 0 1032 1493  787
[17]  38(B02) 1f 40 24  0  -1087.9  4092002.8 -0.2  2 0 1145 1439  717
[18]  39(B03) 1f 41 29  0  -1139.0  4092002.8  0.1  2 0 1543 1417  297
[21]  42(B06)  7 41  7  0   -599.3  4092001.5 -0.0  2 0 1330 1638  862
[22]  43(B07)  7 44  7  0   -859.9  4092002.1 -0.1  2 0 2096 2456 1514
[24]  45(B09)  7 43  7  0  -1165.3  4092002.9  0.0  2 0 1615 2931 1495
[25]  46(B10)  7 43  7  0  -1117.9  4092002.8  0.0  2 0 2326 2457  873
[26]  52(B16)  7 43  7  0   -632.9  4092001.5 -0.0  2 0 1888 2439  667
[27]  54(B18)  7 44  7  0   -970.1  4092002.4 -0.0  2 0 2497 2984 1200
[28]  55(B19)  7 43 13  0   1739.7  4091995.4  0.0  2 0 2037 2583 1216
[29]  57(B21)  7 43  7  0  -3294.0  4092008.6  0.1  2 0 1012 1816  635
[30]  58(B22)  7 44 10  0   -735.9  4092001.8  0.0  2 0 2057 2893 1645
[32]  75(N-6)  1 23  7  0  -4804.8  1022003.0  0.8  1 0   835 1266  411
[33]  76(N-5)  1 33  7  0  -1752.7  1022000.9  1.0  1 0  1728 2692 1224
[34]  78(N-3)  7  7  7  0  -4056.9  1022002.6 -0.1 10 0   180  194  447
[35]  82(N01)  1 40 21  0   1472.2  1021998.9  1.0  1 0  1022 1058  336
[36]  83(N02)  1 49 21  0   -717.1  1022000.6  1.0  1 0  2106 3094 1329
[37]  84(N03)  1 25  7  0  -1642.9  1022001.5  0.9  1 0   593  444  288
[38]  85(N04)  1 22  7  0   2183.9  1021998.8  0.1  1 0  1228 1331  374
[40]  86(N05)  1 18 22  0  -4630.8  1022004.8 -0.2  1 0   166  123  111
[49]  38(B02)  7 16 36  1  -1011.3 20460017.0  0.1  2 0  630  477  498
[50]  39(B03)  1 18 19  0  -1357.9 20460025.7  0.1  1 0  265  370  509
---00000010--- Acq_st=7 0  2000-1-1 0:1:54 
[00]  02(G03)  f 40  7  0   -259.7  2046000.3  0.0  2 0  639 2014  916
[01]  13(G14)  f 43  7  0    963.9  2045998.7 -0.0  2 0 2094 3041 1509
[02]  15(G16)  f 43  7  0  -2421.4  2046003.1 -0.0  2 0 2923 4038 2002
[03]  21(G22)  f 42  7  0    561.9  2045999.2  0.0  2 0 1815 2764 1471
[04]  22(G23)  f 40  7  0  -4325.8  2046005.5  0.0  2 0 1126 1661  768
[05]  25(G26)  f 44  7  0   -240.0  2046000.3 -0.0  2 0 3480 5205 2127
[06]  26(G27)  f 39  7  0  -4724.3  2046006.1 -0.1  2 0  731  776  363
[08]  30(G31)  f 44 17  0    345.9  2045999.5 -0.0  2 0 2221 3779 1753
[09]  31(G32)  f 41  7  0   1910.1  2045997.5 -0.1  2 0  952 1543  310
[17]  38(B02) 1f 40 27  0  -1087.4  4092002.8  0.4  2 0  903 1698  935
[18]  39(B03) 1f 42 27  0  -1134.5  4092002.8 -0.0  2 0 1484 1900 1009
[21]  42(B06)  7 42  9  0   -595.6  4092001.5  0.0  2 0 1668 2100  711
[22]  43(B07)  7 44  7  0   -858.1  4092002.1  0.0  2 0 1936 2631  796
[24]  45(B09)  7 43  7  0  -1167.6  4092002.9  0.0  2 0 1679 2214 1254
[25]  46(B10)  7 43  7  0  -1118.1  4092002.8  0.0  2 0 1629 2279  950
[26]  52(B16)  7 43  7  0   -632.1  4092001.5 -0.0  2 0 1959 2622  953
[27]  54(B18)  7 44  7  0   -970.7  4092002.4 -0.0  2 0 2526 3102 1088
[28]  55(B19)  7 43 12  0   1740.7  4091995.3  0.0  2 0 1941 2478 1120
[29]  57(B21)  7 42  7  0  -3294.4  4092008.5  0.0  2 0 1483 2245  877
[30]  58(B22)  7 44 13  0   -736.5  4092001.8  0.0  2 0 2316 3142 1170
[32]  75(N-6)  7 29  7  0  -4803.4  1022003.0  0.9  5 0   578 1325  703
[33]  76(N-5)  f 22  7  0  -1749.9  1022001.1  0.9 10 0  1743 2991 1569
[34]  78(N-3)  7 32 25  0  -4053.5  1022002.4 -0.0  5 0   394  318   64
[35]  82(N01)  7 40 20  0   1472.7  1021999.0 -0.4  2 0   907 1346  772
[36]  83(N02)  7 48 21  0   -713.2  1022000.4 -0.0  2 0  1834 2808 1132
[37]  84(N03)  1 25  7  0  -1639.9  1022001.0  0.7  1 0   127  734  220
[38]  85(N04)  7 35  7  0   2185.6  1021998.5  0.0  5 0  1052 1321  744
[40]  86(N05)  7  7 14  0  -4460.0  1022003.0  0.1 10 0   209  664  296
[49]  38(B02)  7 22 10  0  -1033.7 20460018.4  0.2  2 0  645  529  420
$GNGGA,020014.643,,,,,0,00,,,M,,,,0000*2D
$GNRMC,020014.643,A,,,,,,,070180,,*2E
$GPGSA,A,1,,,,,,,,,,,,,,,*1E
$BDGSA,A,1,,,,,,,,,,,,,,,*0F
$GLGSA,A,1,,,,,,,,,,,,,,,*02
$GPGSV,3,1,09,03,00,000,40,14,00,000,43,16,00,000,43,22,00,000,42*71
$GPGSV,3,2,09,23,00,000,40,26,00,000,44,27,00,000,39,31,00,000,44*7D
$GPGSV,3,3,09,32,00,000,41*44
$BDGSV,3,1,11,02,00,000,40,03,00,000,42,06,00,000,42,07,00,000,44*6E
$BDGSV,3,2,11,09,00,000,43,10,00,000,43,16,00,000,43,18,00,000,44*68
$BDGSV,3,3,11,19,00,000,43,21,00,000,42,22,00,000,44*52
$B3CN0,0,22,0,0,0,0,0,0,0,0,0,0,0,0*7C
---00000011--- Acq_st=3 0  2000-1-1 0:1:55 
[00]  02(G03)  f 40  9  0   -259.8  2046000.3  0.1  2 0 1195 1926 1010
[01]  13(G14)  f 43  7  0    963.7  2045998.7  0.0  2 0 2104 2356  836
[02]  15(G16)  f 44  7  0  -2419.8  2046003.1 -0.1  2 0 1763 2931 1535
[03]  21(G22)  f 41  7  0    563.6  2045999.2  0.0  2 0 1417 2490 1202
[04]  22(G23)  f 40  7  0  -4317.0  2046005.6 -0.1  2 0  568  896  154
[05]  25(G26)  f 45  7  0   -239.3  2046000.3  0.0  2 0 3187 4903 2166
[06]  26(G27)  f 39  7  0  -4725.2  2046006.0 -0.1  2 0  446 1697 1225
[08]  30(G31)  f 44 12  0    344.2  2045999.5  0.0  2 0 2825 4367 2056
[09]  31(G32)  f 40  9  0   1908.9  2045997.5  0.2  2 0 1137 1657  245
[17]  38(B02) 1f 40 22  0  -1084.2  4092002.7  0.5  2 0  672 1209  775
[18]  39(B03) 1f 42 29  0  -1135.2  4092002.8  0.1  2 0 1403 1983  765
[21]  42(B06) 1f 41  7  0   -599.3  4092001.4  0.0  2 0 1288 1684 1005
[22]  43(B07) 1f 43  7  0   -858.5  4092002.1  0.0  2 0 2590 2926  748
[24]  45(B09) 1f 43  7  0  -1167.2  4092002.9 -0.0  2 0 1722 2558 1357
[25]  46(B10) 1f 43  7  0  -1118.3  4092002.8 -0.0  2 0 1987 2244  885
[26]  52(B16) 1f 43  7  0   -633.6  4092001.5 -0.0  2 0 1495 1689  540
[27]  54(B18) 1f 44  7  0   -971.3  4092002.4 -0.0  2 0 2337 3104 1426
[28]  55(B19) 1f 43  7  0   1741.0  4091995.3 -0.0  2 0 1475 2194  966
[29]  57(B21) 1f 42  7  0  -3290.1  4092008.5 -0.0  2 0 1490 2035 1176
[30]  58(B22) 1f 44  8  0   -733.5  4092001.8  0.0  2 0 2076 3083 1077
[32]  75(N-6)  7 41  7  0  -4803.7  1022003.0  0.7  2 0   789 1026  341
[33]  76(N-5)  f 49  7  0  -1750.2  1022001.1  0.1  2 0  1576 3037 1882
[34]  78(N-3)  7 33 26  0  -4051.2  1022002.6 -0.0  5 0   459  387  321
[35]  82(N01)  7 41 21  0   1471.4  1021999.0  0.2  2 0   839 1147  533
[36]  83(N02)  7 48 22  0   -713.8  1022000.4 -0.1  2 0  1941 2924 1274
[37]  84(N03)  1 25  7  0  -1641.9  1022001.4  0.9  1 0   267  556  295
[38]  85(N04)  7 44  7  0   2186.6  1021998.5 -0.3  2 0  1271 1543  939
[40]  86(N05)  7 24 10  0  -4526.6  1022003.1  0.0 10 0   507  777  412
[50]  39(B03)  1 19 25  1   -585.6 20460014.9  0.1  1 0   51  612  285
$GNGGA,020015.643,,,,,0,00,,,M,,,,0000*2C
$GNRMC,020015.643,A,,,,,,,070180,,*2F
$GPGSA,A,1,,,,,,,,,,,,,,,*1E
$BDGSA,A,1,,,,,,,,,,,,,,,*0F
$GLGSA,A,1,,,,,,,,,,,,,,,*02
$GPGSV,3,1,09,03,00,000,40,14,00,000,43,16,00,000,44,22,00,000,41*75
$GPGSV,3,2,09,23,00,000,40,26,00,000,45,27,00,000,39,31,00,000,44*7C
$GPGSV,3,3,09,32,00,000,40*45
$BDGSV,3,1,11,02,00,000,40,03,00,000,42,06,00,000,41,07,00,000,43*6A
$BDGSV,3,2,11,09,00,000,43,10,00,000,43,16,00,000,43,18,00,000,44*68
$BDGSV,3,3,11,19,00,000,43,21,00,000,42,22,00,000,44*52
$B3CN0,0,0,0,0,0,0,0,0,0,0,0,0,0,0*4C
---00000012--- Acq_st=3 0  2000-1-1 0:1:56 
[00]  02(G03)  f 40  7  0   -262.6  2046000.3 -0.0  2 0 1363 1930 1014
[01]  13(G14)  f 42  7  0    963.5  2045998.7 -0.0  2 0 1712 2354  805
[02]  15(G16)  f 44  7  0  -2423.9  2046003.1  0.0  2 0 1828 3118 1537
[03]  21(G22)  f 42  7  0    560.9  2045999.2 -0.1  2 0 1593 2450 1554
[04]  22(G23)  f 40  7  0  -4323.5  2046005.6  0.1  2 0 1383 2111  947
[05]  25(G26)  f 45  7  0   -242.5  2046000.3  0.0  2 0 3257 5163 2622
[06]  26(G27)  f 39  7  0  -4727.9  2046006.0  0.0  2 0  615  898  180
[08]  30(G31)  f 44 14  0    341.7  2045999.5 -0.0  2 0 2146 4064 2337
[09]  31(G32)  f 41  7  0   1910.5  2045997.4 -0.0  2 0 1569 1454  326
[17]  38(B02) 1f 40 25  0  -1093.3  4092002.8  0.2  2 0 1060 1132   72
[18]  39(B03) 1f 43 27  0  -1134.3  4092002.8  0.3  2 0 1850 2131  734
[21]  42(B06) 1f 42  7  0   -598.9  4092001.5 -0.0  2 0 1634 2207 1237
[22]  43(B07) 1f 44  7  0   -862.6  4092002.1  0.0  2 0 2177 2637  848
[24]  45(B09) 1f 43  7  0  -1165.9  4092002.9 -0.1  2 0 1937 2840 1776
[25]  46(B10) 1f 43  7  0  -1120.1  4092002.8  0.0  2 0 1308 2171  630
[26]  52(B16) 1f 43  7  0   -634.6  4092001.5  0.0  2 0 1337 2131  899
[27]  54(B18) 1f 44  7  0   -974.7  4092002.4 -0.0  2 0 2270 2739 1312
[28]  55(B19) 1f 43 12  0   1737.5  4091995.3  0.0  2 0 2366 2796  950
[29]  57(B21) 1f 42  7  0  -3292.8  4092008.6 -0.0  2 0 1495 1921  924
[30]  58(B22) 1f 44  7  0   -736.4  4092001.8  0.0  2 0 1692 2237 1112
[32]  75(N-6)  7 42  7  0  -4805.6  1022003.0 -0.7  2 0   711 1120  748
[33]  76(N-5)  f 33  7  0  -1751.5  1022001.1 -0.1  2 0  1389 2811 1569
[34]  78(N-3)  f 28 17  0  -4054.1  1022002.6  0.0 10 0   215  483  108
[35]  82(N01)  7 41 23  0   1469.7  1021999.1  0.1  2 0   457 1475  650
[36]  83(N02)  7 48 21  0   -715.7  1022000.4 -0.0  2 0  1763 2979 1436
[37]  84(N03)  7 35  7  0  -1644.3  1022000.9  0.3  5 0   696 1087  626
[38]  85(N04)  7 44 13  0   2184.6  1021998.6  0.2  2 0   735 1190  737
[40]  86(N05)  7 28 14  0  -4580.0  1022002.8 -0.0 10 0   348  227  272
[49]  38(B02)  1 10 18  1  -1053.3 20460020.3 -0.0  1 0  880 1017  928
[50]  39(B03)  1 14 21  1   -665.4 20460022.6  0.1  1 0  160  402 1170
[53]  42(B06)  1  7  7  0   -547.1 20460008.8  0.0  1 0  566  247  236
[54]  43(B07)  1  7  7  0   -701.7 20460011.6  0.3  1 0  220  590  343
[56]  45(B09)  1  7  7  0   -949.3 20460015.5 -0.1  1 0  211  307  336
[57]  46(B10)  1  7  7  0  -1248.9 20460017.5 -0.1  1 0  459  396  423
[58]  52(B16)  1  7 10  0   -867.8 20460009.5 -0.0  1 0  199  151  350
[59]  54(B18)  1  7  7  0  -1014.0 20460014.8 -0.1  1 0  669  782  594
[60]  55(B19)  1  7  7  0   1159.2 20459972.9  0.0  1 0  155  669  372
[61]  57(B21)  1  7  7  0  -2480.3 20460053.2  0.0  1 0  575  310  798
[62]  58(B22)  1  7  7  0   -756.1 20460010.5  0.1  1 0  231  325  709
$GNGGA,020016.643,,,,,0,00,,,M,,,,0000*2F
$GNRMC,020016.643,A,,,,,,,070180,,*2C
$GPGSA,A,1,,,,,,,,,,,,,,,*1E
$BDGSA,A,1,,,,,,,,,,,,,,,*0F
$GLGSA,A,1,,,,,,,,,,,,,,,*02
$GPGSV,3,1,09,03,00,000,40,14,00,000,42,16,00,000,44,22,00,000,42*77
$GPGSV,3,2,09,23,00,000,40,26,00,000,45,27,00,000,39,31,00,000,44*7C
$GPGSV,3,3,09,32,00,000,41*44
$BDGSV,3,1,11,02,00,000,40,03,00,000,43,06,00,000,42,07,00,000,44*6F
$BDGSV,3,2,11,09,00,000,43,10,00,000,43,16,00,000,43,18,00,000,44*68
$BDGSV,3,3,11,19,00,000,43,21,00,000,42,22,00,000,44*52
$B3CN0,0,0,0,0,0,0,0,0,0,0,0,0,0,0*4C
---00000013--- Acq_st=3 0  2000-1-1 0:1:57 
[00]  02(G03)  f 40 11  0   -256.4  2046000.3 -0.0  2 0 1525 2055  907
[01]  13(G14)  f 43  7  0    961.4  2045998.7 -0.0  2 0 1238 2181  914
[02]  15(G16)  f 44  7  0  -2422.8  2046003.1  0.0  2 0 1676 2822 1435
[03]  21(G22)  f 42  7  0    563.0  2045999.2 -0.0  2 0 1796 2323  975
[04]  22(G23)  f 40  8  0  -4321.9  2046005.5 -0.1  2 0 1287 1294  670
[05]  25(G26)  f 46  7  0   -239.9  2046000.3 -0.0  2 0 2940 4720 2039
[06]  26(G27)  f 39  7  0  -4724.8  2046006.1  0.0  2 0 1037 1260  482
[08]  30(G31)  f 45 13  0    342.3  2045999.5  0.1  2 0 2250 3938 1867
[09]  31(G32)  f 40  7  0   1912.0  2045997.5 -0.1  2 0  652 2105 1373
[16]  37(B01)  1 10 14  0  -1152.8  4092003.6  0.5  1 0 1411 1497  704
[17]  38(B02) 1f 40 17  0  -1087.9  4092002.7 -0.3  2 0 1337 1240  641
[18]  39(B03) 1f 43 31  0  -1139.0  4092002.8 -0.0  2 0 2018 2503  656
[19]  40(B04)  1 10 21  0  -1130.9  4092002.6  0.4  1 0 1062 1538  743
[20]  41(B05)  1 10 10  0  -1092.9  4092003.4 -0.2  1 0  924 1460  723
[21]  42(B06) 1f 41  7  0   -599.7  4092001.5 -0.0  2 0 1436 1467  320
[22]  43(B07) 1f 44  7  0   -861.5  4092002.1 -0.0  2 0 2274 2535  914
[24]  45(B09) 1f 43  7  0  -1167.6  4092002.9  0.1  2 0 1747 2299 1072
[25]  46(B10) 1f 43  7  0  -1118.2  4092002.8  0.0  2 0 1724 2035  670
[26]  52(B16) 1f 42  7  0   -633.0  4092001.5 -0.0  2 0 1614 1781  739
[27]  54(B18) 1f 44  7  0   -970.6  4092002.4 -0.0  2 0 1891 2901 1387
[28]  55(B19) 1f 43  7  0   1740.4  4091995.3  0.0  2 0 2060 2643 1086
[29]  57(B21) 1f 42  7  0  -3291.7  4092008.5 -0.1  2 0 1324 1947 1138
[30]  58(B22) 1f 44  7  0   -737.4  4092001.8 -0.0  2 0 1859 2708 1064
[32]  75(N-6)  7 42  7  0  -4803.5  1022003.0  0.3  2 0   644 1239  795
[33]  76(N-5)  f 48  7  0  -1748.7  1022001.1 -0.1  2 0  1821 3174 1331
[34]  78(N-3)  f 32 15  0  -4050.9  1022002.6 -0.1  5 0   286  221  117
[35]  82(N01)  7 41 22  0   1470.6  1021999.1  0.1  2 0   753  904  387
[36]  83(N02)  7 48 24  0   -713.9  1022000.4  0.1  2 0  2034 2994 1408
[37]  84(N03)  7 37  7  0  -1647.7  1022001.0 -0.0  2 0   590  778  532
[38]  85(N04)  7 44  7  0   2186.8  1021998.6 -0.2  2 0  1255 1737  529
[40]  86(N05)  7 29 14  0  -4578.5  1022002.8  0.1  5 0   313  495  382
[49]  38(B02)  1 10 10  0  -1001.0 20460019.5 -0.0  1 0  292  226  317
[50]  39(B03)  1 20 10  1   -551.8 20460020.7 -0.0  1 0  393  300  694
[53]  42(B06)  1  7 11  0   -261.3 20460008.1  0.1  1 0  432  143  452
[54]  43(B07)  1 10  7  0   -407.7 20460010.5 -0.0  1 0  364  470  869
[56]  45(B09)  1  7  7  0  -1098.9 20460016.3 -0.1  1 0  713  386  239
[57]  46(B10)  1  7  7  0  -1291.5 20460019.1 -0.1  1 0  740  502  288
[58]  52(B16)  1  7  7  0   -471.5 20460009.8  0.2  1 0  627  306  282
[59]  54(B18)  1  7  7  0   -631.2 20460014.7 -0.1  1 0  565  620  504
[60]  55(B19)  1  9  7  0    796.1 20459973.9  0.0  1 0  217  484  551
[61]  57(B21)  1  7  7  0  -2783.2 20460053.9 -0.0  1 0  291   62  409
[62]  58(B22)  1  7  7  0   -836.1 20460011.3 -0.1  1 0  507  567  334
$GNGGA,020017.643,,,,,0,00,,,M,,,,0000*2E
$GNRMC,020017.643,A,,,,,,,070180,,*2D
$GPGSA,A,1,,,,,,,,,,,,,,,*1E
$BDGSA,A,1,,,,,,,,,,,,,,,*0F
$GLGSA,A,1,,,,,,,,,,,,,,,*02
$GPGSV,3,1,09,03,00,000,40,14,00,000,43,16,00,000,44,22,00,000,42*76
$GPGSV,3,2,09,23,00,000,40,26,00,000,46,27,00,000,39,31,00,000,45*7E
$GPGSV,3,3,09,32,00,000,40*45
$BDGSV,3,1,11,02,00,000,40,03,00,000,43,06,00,000,41,07,00,000,44*6C
$BDGSV,3,2,11,09,00,000,43,10,00,000,43,16,00,000,42,18,00,000,44*69
$BDGSV,3,3,11,19,00,000,43,21,00,000,42,22,00,000,44*52
$B3CN0,0,0,0,0,0,0,0,0,0,0,0,0,0,0*4C
---00000014--- Acq_st=3 0  2000-1-1 0:1:58 
[00]  02(G03)  f 40  7  0   -261.0  2046000.3 -0.0  2 0 1650 1902  884
[01]  13(G14)  f 43 10  0    968.1  2045998.7 -0.0  2 0 1863 3002 1264
[02]  15(G16)  f 44  7  0  -2417.0  2046003.1 -0.1  2 0 1457 2653 1723
[03]  21(G22)  f 42  7  0    561.3  2045999.2 -0.1  2 0 1690 3155 1318
[04]  22(G23)  f 40  7  0  -4327.4  2046005.6  0.0  2 0 1158 1932 1074
[05]  25(G26)  f 46  8  0   -239.5  2046000.3 -0.0  2 0 3229 4606 1818
[06]  26(G27)  f 39  7  0  -4721.8  2046006.1  0.0  2 0 1031 1769  656
[08]  30(G31)  f 45 14  0    343.2  2045999.5 -0.0  2 0 1990 3765 1864
[09]  31(G32)  f 40  7  0   1907.2  2045997.4  0.0  2 0 1118 1749  586
[16]  37(B01)  7 39 10  0  -1146.0  4092002.7 -0.5  2 0 1679 1364  393
[17]  38(B02) 1f 41 24  0  -1091.2  4092002.5 -0.3  2 0 1156 1360  455
[18]  39(B03) 1f 42 27  0  -1133.7  4092002.9 -0.2  2 0 1337 1864  859
[19]  40(B04)  7 40 21  0  -1126.7  4092002.8 -0.3  2 0 1104 1598  584
[20]  41(B05)  1 10 23  1  -1090.7  4092003.5  0.3  1 0 1014  703  469
[21]  42(B06) 1f 42  7  0   -596.5  4092001.4 -0.0  2 0 1464 1928  848
[22]  43(B07) 1f 44  7  0   -860.3  4092002.1 -0.0  2 0 1977 2731 1408
[24]  45(B09) 1f 43  7  0  -1169.0  4092002.9 -0.1  2 0 1827 2247  812
[25]  46(B10) 1f 43  7  0  -1115.4  4092002.8 -0.0  2 0 1332 2490 1167
[26]  52(B16) 1f 43  7  0   -632.1  4092001.5 -0.0  2 0 1816 2388  933
[27]  54(B18) 1f 43  8  0   -971.7  4092002.4 -0.0  2 0 2166 3463 1650
[28]  55(B19) 1f 43 11  0   1741.1  4091995.3 -0.0  2 0 1863 2897 1517
[29]  57(B21) 1f 42  7  0  -3291.6  4092008.5 -0.0  2 0 1613 1995  969
[30]  58(B22) 1f 44 11  0   -734.2  4092001.8  0.0  2 0 2922 3262 1077
[32]  75(N-6)  f 32  7  0  -4803.6  1022003.0  0.4  5 0   483 1281  869
[33]  76(N-5)  f 33  7  0  -1748.6  1022001.1  0.3  2 0  1944 3218 1708
[34]  78(N-3)  f 31 18  0  -4049.2  1022002.5  0.0  5 0   340  262   62
[35]  82(N01)  f 32 12  0   1471.1  1021999.0  0.2  5 0   573 1033  326
[36]  83(N02)  f 33 18  0   -715.2  1022000.4  0.1  5 0  1662 2924 1721
[37]  84(N03)  7 36  7  0  -1644.9  1022001.1 -0.1  2 0   449  729  237
[38]  85(N04)  f 33  7  0   2187.0  1021998.5  0.1  5 0   786 1583 1160
[40]  86(N05)  7 28 13  0  -4583.4  1022003.1  0.0  5 0   210  345  357
[49]  38(B02)  1 10 10  0   -958.9 20460023.1  0.1  1 0  301  265  208
[50]  39(B03)  1 10 10  1   -828.2 20460020.7 -0.0  1 0  311  633  438
[53]  42(B06)  1  7  7  0   -809.9 20460005.7  0.0  1 0  202   83  250
[54]  43(B07)  1  7  7  0   -655.6 20460012.1  0.2  1 0  440  752  428
[56]  45(B09)  1  7  7  0  -1033.3 20460018.0 -0.1  1 0  383  530  255
[57]  46(B10)  1  7  7  0   -938.4 20460018.1 -0.1  1 0  283  235  173
[58]  52(B16)  1  7  7  0   -749.4 20460009.6  0.1  1 0  104   85   66
[59]  54(B18)  1  7  8  0   -486.4 20460015.7  0.1  1 0  753  981 1002
[60]  55(B19)  1  7  7  0    781.4 20459972.0 -0.1  1 0  112  100  306
[61]  57(B21)  1  7  7  0  -3012.4 20460055.2  0.1  1 0  541  688  334
[62]  58(B22)  1  7  7  0   -735.3 20460013.7  0.0  1 0  585  323  667
$GNGGA,020018.643,,,,,0,00,,,M,,,,0000*21
$GNRMC,020018.643,A,,,,,,,220419,,*20
$GPGSA,A,1,,,,,,,,,,,,,,,*1E
$BDGSA,A,1,,,,,,,,,,,,,,,*0F
$GLGSA,A,1,,,,,,,,,,,,,,,*02
$GPGSV,3,1,09,03,00,000,40,14,00,000,43,16,00,000,44,22,00,000,42*76
$GPGSV,3,2,09,23,00,000,40,26,00,000,46,27,00,000,39,31,00,000,45*7E
$GPGSV,3,3,09,32,00,000,40*45
$BDGSV,3,1,12,01,00,000,39,02,00,000,41,03,00,000,42,04,00,000,40*60
$BDGSV,3,2,12,06,00,000,42,07,00,000,44,09,00,000,43,10,00,000,43*65
$BDGSV,3,3,12,16,00,000,43,18,00,000,43,19,00,000,43,21,00,000,42*6F
$B3CN0,0,0,0,0,0,0,0,0,0,0,0,0,0,0*4C
---00000015--- Acq_st=3 0  2000-1-1 0:1:59 
[00]  02(G03)  f 41  7  0   -257.4  2046000.3  0.0  2 0  886 1445  984
[01]  13(G14)  f 43  8  0    964.3  2045998.7 -0.0  2 0 1495 2830 1389
[02]  15(G16)  f 44  7  0  -2419.1  2046003.1  0.0  2 0 1979 2775 1033
[03]  21(G22)  f 43  7  0    562.4  2045999.2  0.0  2 0  757 2337 1491
[04]  22(G23)  f 39  7  0  -4325.4  2046005.6 -0.1  2 0  916 2156 1279
[05]  25(G26)  f 45  7  0   -240.8  2046000.3 -0.0  2 0 2570 4582 1360
[06]  26(G27)  f 39  7  0  -4726.7  2046006.1 -0.1  2 0 1323 1418  780
[08]  30(G31)  f 45 15  0    342.5  2045999.5  0.0  2 0 2359 3929 1856
[09]  31(G32)  f 40  7  0   1912.5  2045997.5  0.0  2 0  960 2112 1251
[16]  37(B01)  f 38 10  0  -1148.2  4092002.8 -0.7  2 0 1759 1639  476
[17]  38(B02) 1f 40 26  0  -1091.0  4092002.8  0.3  2 0  473 1183 1064
[18]  39(B03) 1f 43 30  0  -1136.8  4092002.9 -0.5  2 0 1595 1942  861
[19]  40(B04)  7 41 22  0  -1133.2  4092002.9  0.3  2 0 1335 1699  866
[20]  41(B05)  7 37 21  0  -1094.6  4092002.6  0.7  2 0 1406 1179  557
[21]  42(B06) 1f 41 10  0   -599.9  4092001.4  0.1  2 0 1446 1771  756
[22]  43(B07) 1f 44  7  0   -860.1  4092002.2 -0.0  2 0 1949 2538 1001
[24]  45(B09) 1f 43  7  0  -1171.2  4092002.9  0.0  2 0 2115 2372  706
[25]  46(B10) 1f 43  7  0  -1117.7  4092002.8  0.0  2 0 1831 2558 1015
[26]  52(B16) 1f 43  7  0   -634.1  4092001.5 -0.0  2 0 1703 2511 1169
[27]  54(B18) 1f 44  7  0   -971.2  4092002.4 -0.0  2 0 2270 2956  782
[28]  55(B19) 1f 44 12  0   1738.0  4091995.3 -0.0  2 0 2277 2779  987
[29]  57(B21) 1f 42  7  0  -3291.6  4092008.5 -0.0  2 0 1747 2826 1675
[30]  58(B22) 1f 44 11  0   -732.7  4092001.8  0.0  2 0 2352 2718  909
[32]  75(N-6)  f 41  7  0  -4804.2  1022003.0 -0.2  2 0   692 1388  641
[33]  76(N-5)  f 49  7  0  -1747.9  1022001.1 -0.1  2 0  1670 3004 1273
[34]  78(N-3)  f 31 16  0  -4050.0  1022002.5 -0.1  5 0   362  461  503
[35]  82(N01)  f 41 12  0   1472.2  1021999.0 -0.1  2 0   614 1210  630
[36]  83(N02)  f 47 19  0   -713.8  1022000.4 -0.1  2 0  1687 2896 1210
[37]  84(N03)  7 36  7  0  -1640.8  1022001.1 -0.2  2 0   345  518  165
[38]  85(N04)  f 44  7  0   2187.0  1021998.5 -0.2  2 0   825 1448  950
[40]  86(N05)  7 16 13  0  -4698.1  1022002.7  0.1 10 0   553  155   79
[49]  38(B02)  1 10 16  1  -1360.4 20460026.2 -0.1  1 0  301  267  637
[53]  42(B06)  1  7  7  0  -1175.1 20460007.9 -0.0  1 0  368  320  371
[54]  43(B07)  1  7  7  0  -1172.1 20460012.8  0.0  1 0  534  797  613
[56]  45(B09)  1  7  7  0   -747.5 20460017.8 -0.0  1 0  342  469  493
[57]  46(B10)  1  7  7  0  -1090.0 20460017.9 -0.1  1 0  100   80   39
[58]  52(B16)  1  7  7  0     19.5 20460012.7 -0.1  1 0  417  560  840
[59]  54(B18)  1  8  7  0   -602.1 20460015.8 -0.1  1 0  917  381  158
[60]  55(B19)  1  7  7  0   1723.3 20459974.9  0.1  1 0  254  324  526
[61]  57(B21)  1  7  7  0  -3009.3 20460052.6  0.1  1 0  186  191  247
[62]  58(B22)  1  7  7  0   -651.1 20460013.5  0.1  1 0  528  725  408
$GNGGA,020019.643,,,,,0,00,,,M,,,,0000*20
$GNRMC,020019.643,A,,,,,,,220419,,*21
$GPGSA,A,1,,,,,,,,,,,,,,,*1E
$BDGSA,A,1,,,,,,,,,,,,,,,*0F
$GLGSA,A,1,,,,,,,,,,,,,,,*02
$GPGSV,3,1,09,03,00,000,41,14,00,000,43,16,00,000,44,22,00,000,43*76
$GPGSV,3,2,09,23,00,000,39,26,00,000,45,27,00,000,39,31,00,000,45*73
$GPGSV,3,3,09,32,00,000,40*45
$BDGSV,3,1,12,01,00,000,38,02,00,000,40,03,00,000,43,04,00,000,41*60
$BDGSV,3,2,12,05,00,000,37,06,00,000,41,07,00,000,44,09,00,000,43*61
$BDGSV,3,3,12,10,00,000,43,16,00,000,43,18,00,000,44,19,00,000,44*6C
$B3CN0,0,0,0,0,0,0,0,0,0,0,0,0,0,0*4C
---00000016--- Acq_st=3 0  2000-1-1 0:2:0 
[00]  02(G03)  f 41  7  0   -259.3  2046000.3  0.1  2 0 1645 2038  589
[01]  13(G14)  f 42  7  0    967.3  2045998.7  0.0  2 0 1667 2410 1169
[02]  15(G16)  f 44  7  0  -2416.3  2046003.1  0.0  2 0 2523 3400 1490
[03]  21(G22)  f 42  7  0    562.1  2045999.2 -0.0  2 0 1655 2792 1405
[04]  22(G23)  f 40  7  0  -4326.9  2046005.6  0.1  2 0 1122 1652  507
[05]  25(G26)  f 46  7  0   -238.4  2046000.3 -0.0  2 0 2791 4361 1809
[06]  26(G27)  f 38  7  0  -4722.0  2046006.1  0.0  2 0 1140 1553  715
[08]  30(G31)  f 45 13  0    345.2  2045999.5 -0.0  2 0 2011 3780 1602
[09]  31(G32)  f 41  7  0   1910.3  2045997.5 -0.1  2 0 1199 2071 1024
[16]  37(B01)  f 40 10  0  -1148.7  4092002.8  0.3  2 0 1228  728  341
[17]  38(B02) 1f 39 24  0  -1091.2  4092002.7  0.0  2 0 1041 1296  168
[18]  39(B03) 1f 45 28  0  -1136.5  4092002.8  0.3  2 0 1356 1599  197
[19]  40(B04)  f 40 24  0  -1130.7  4092002.9  0.1  2 0  834 1331  497
[20]  41(B05)  f 37 25  0  -1088.8  4092002.5 -0.4  2 0  713  631  214
[21]  42(B06) 1f 42  9  0   -597.8  4092001.5  0.1  2 0 1513 1659  240
[22]  43(B07) 1f 44  7  0   -860.7  4092002.1  0.0  2 0 2453 3004 1170
[24]  45(B09) 1f 43  8  0  -1164.8  4092002.9  0.0  2 0 1341 1800 1172
[25]  46(B10) 1f 43  7  0  -1120.1  4092002.8 -0.0  2 0 1848 2369  399
[26]  52(B16) 1f 43  7  0   -630.9  4092001.5  0.0  2 0 1441 2614 1552
[27]  54(B18) 1f 44  7  0   -970.2  4092002.4  0.0  2 0 2363 3055 1402
[28]  55(B19) 1f 44  8  0   1740.6  4091995.3  0.0  2 0 2477 2635 1151
[29]  57(B21) 1f 42  7  0  -3289.8  4092008.5  0.0  2 0 1203 2034 1047
[30]  58(B22) 1f 44  7  0   -735.8  4092001.8 -0.0  2 0 2535 3313 1049
[32]  75(N-6)  f 42  7  0  -4801.7  1022003.1 -0.3  2 0   769 1134  679
[33]  76(N-5)  f 33  7  0  -1745.7  1022001.1  0.0  2 0  1958 3108 1294
[34]  78(N-3)  f 32 17  0  -4048.0  1022002.6  0.1  5 0   194  319  294
[35]  82(N01)  f 41 16  0   1470.3  1021999.0  0.1  2 0   648 1187  509
[36]  83(N02)  f 46 19  0   -712.6  1022000.4 -0.0  2 0  2056 3213 1369
[37]  84(N03)  f 31  7  0  -1639.7  1022001.0 -0.3  5 0   501  556  291
[38]  85(N04)  f 43  7  0   2188.9  1021998.5  0.0  2 0  1077 1709  916
[40]  86(N05)  7 14 25  0  -4806.8  1022003.1 -0.1 10 0    73   30  221
[48]  37(B01)  1 14 13  1   -519.8 20460017.0 -0.2  1 0  514  515  385
[50]  39(B03)  1 10 10  1  -1076.5 20460016.0 -0.0  1 0  428  625  133
$GNGGA,020020.643,,,,,0,00,,,M,,,,0000*2A
$GNRMC,020020.643,A,,,,,,,220419,,*2B
$GPGSA,A,1,,,,,,,,,,,,,,,*1E
$BDGSA,A,1,,,,,,,,,,,,,,,*0F
$GLGSA,A,1,,,,,,,,,,,,,,,*02
$GPGSV,3,1,09,03,00,000,41,14,00,000,42,16,00,000,44,22,00,000,42*76
$GPGSV,3,2,09,23,00,000,40,26,00,000,46,27,00,000,38,31,00,000,45*7F
$GPGSV,3,3,09,32,00,000,41*44
$BDGSV,3,1,12,01,00,000,40,02,00,000,39,03,00,000,45,04,00,000,40*66
$BDGSV,3,2,12,05,00,000,37,06,00,000,42,07,00,000,44,09,00,000,43*62
$BDGSV,3,3,12,10,00,000,43,16,00,000,43,18,00,000,44,19,00,000,44*6C
$B3CN0,0,0,0,0,0,0,0,0,0,0,0,0,0,0*4C
---00000017--- Acq_st=7 0  2000-1-1 0:2:1 
[00]  02(G03)  f 41 10  0   -257.2  2046000.3  0.0  2 0 1097 1722  593
[01]  13(G14)  f 42  7  0    965.1  2045998.7  0.0  2 0 1544 2704 1800
[02]  15(G16)  f 43  8  0  -2418.6  2046003.1  0.0  2 0 1927 3059 1705
[03]  21(G22)  f 42  7  0    559.6  2045999.2 -0.0  2 0 1507 2047  975
[04]  22(G23)  f 40  7  0  -4328.4  2046005.6  0.2  2 0 1316 1730  838
[05]  25(G26)  f 45  8  0   -240.0  2046000.2  0.1  2 0 3214 4833 2222
[06]  26(G27)  f 39 10  0  -4728.1  2046006.0 -0.1  2 0  929 1478  664
[08]  30(G31)  f 45 15  0    345.3  2045999.5 -0.0  2 0 2403 3035 1217
[09]  31(G32)  f 41  8  0   1906.8  2045997.5  0.0  2 0 1304 2246 1207
[16]  37(B01) 1f 40 19  0  -1148.3  4092002.9  0.5  2 0 1169 1004  301
[17]  38(B02) 1f 41 26  0  -1089.1  4092002.9  0.5  2 0  852 1275  644
[18]  39(B03) 1f 43 30  0  -1135.4  4092002.9  0.2  2 0 1394 2045  880
[19]  40(B04) 1f 41 18  0  -1123.6  4092002.9  0.2  2 0  652  977  508
[20]  41(B05) 1f 37 18  0  -1089.7  4092002.7 -0.0  2 0  513  724  207
[21]  42(B06) 1f 42  7  0   -600.1  4092001.4 -0.1  2 0 1276 1762  927
[22]  43(B07) 1f 44  7  0   -859.9  4092002.1  0.0  2 0 1916 2134  865
[24]  45(B09) 1f 43  7  0  -1167.0  4092002.9  0.1  2 0 1352 2098  719
[25]  46(B10) 1f 44  7  0  -1120.0  4092002.8  0.0  2 0 2400 3479 1662
[26]  52(B16) 1f 43  7  0   -636.4  4092001.5  0.0  2 0 2251 2725 1199
[27]  54(B18) 1f 44  7  0   -972.2  4092002.4  0.0  2 0 2025 3004 1109
[28]  55(B19) 1f 44 12  0   1737.7  4091995.3  0.0  2 0 1494 2382 1418
[29]  57(B21) 1f 42  7  0  -3291.6  4092008.5 -0.0  2 0 1625 2200  871
[30]  58(B22) 1f 43  7  0   -734.6  4092001.8  0.0  2 0 1866 2701 1313
[32]  75(N-6)  f 41  7  0  -4804.9  1022003.0 -0.3  2 0   770 1166  592
[33]  76(N-5)  f 48  7  0  -1745.6  1022001.1 -0.0  2 0  1924 3085 1407
[34]  78(N-3)  f 31 18  0  -4050.4  1022002.6 -0.0  5 0   296  587  502
[35]  82(N01)  f 41 16  0   1470.3  1021999.0 -0.2  2 0   627 1081  490
[36]  83(N02)  f 46 21  0   -713.4  1022000.4  0.0  2 0  1401 2521 1399
[37]  84(N03)  f 37  7  0  -1640.9  1022001.1  0.2  2 0   322  658   47
[38]  85(N04)  f 44  7  0   2187.8  1021998.6 -0.1  2 0   998 1508  779
[40]  86(N05)  7 17 31  1  -4839.2  1022003.0 -0.0 10 0   226   97  343
[48]  37(B01)  1 10 10  1   -318.5 20460019.7  0.1  1 0  591  711  228
[49]  38(B02)  1 21 10  1   -886.0 20460019.4 -0.1  1 0   33  299  407
[50]  39(B03)  1 18 20  0   -750.0 20460019.7  0.2  1 0   86  490  500
[51]  40(B04)  1 18 23  1   -917.0 20460019.5 -0.0  1 0  694  925  238
[52]  41(B05)  1 22 26  0   -886.0 20460013.9  0.1  1 0  926  643  314
[53]  42(B06)  1  7  7  0   -484.0 20460008.5  0.0  1 0  584  810  899
[54]  43(B07)  1  7  7  0   -698.0 20460013.7 -0.1  1 0  534  421  794
[56]  45(B09)  1  7  7  0   -945.0 20460018.0  0.0  1 0  802  363  384
[57]  46(B10)  1  7  7  0   -909.0 20460019.7 -0.0  1 0  246  318  217
[58]  52(B16)  1  7  7  0   -511.0 20460010.4  0.0  1 0  269  249  210
[59]  54(B18)  1  7  7  0   -787.0 20460016.1  0.0  1 0  747  222  210
[60]  55(B19)  1  7  7  0   1415.0 20459971.5  0.1  1 0  289  772  395
[61]  57(B21)  1  7  7  0  -2671.0 20460053.0 -0.1  1 0  678  491  496
[62]  58(B22)  1  7  7  0   -597.0 20460010.7  0.1  1 0  314  243  270
$GNGGA,020021.643,,,,,0,00,,,M,,,,0000*2B
$GNRMC,020021.643,A,,,,,,,220419,,*2A
$GPGSA,A,1,,,,,,,,,,,,,,,*1E
$BDGSA,A,1,,,,,,,,,,,,,,,*0F
$GLGSA,A,1,,,,,,,,,,,,,,,*02
$GPGSV,3,1,09,03,00,000,41,14,00,000,42,16,00,000,43,22,00,000,42*71
$GPGSV,3,2,09,23,00,000,40,26,00,000,45,27,00,000,39,31,00,000,45*7D
$GPGSV,3,3,09,32,00,000,41*44
$BDGSV,3,1,12,01,00,000,40,02,00,000,41,03,00,000,43,04,00,000,41*6E
$BDGSV,3,2,12,05,00,000,37,06,00,000,42,07,00,000,44,09,00,000,43*62
$BDGSV,3,3,12,10,00,000,44,16,00,000,43,18,00,000,44,19,00,000,44*6B
$B3CN0,0,0,0,0,0,0,0,0,0,0,0,0,0,0*4C
---00000018--- Acq_st=7 0  2000-1-1 0:2:2 
[00]  02(G03)  f 41  7  0   -256.9  2046000.3 -0.0  2 0 1656 1637  552
[01]  13(G14)  f 43  7  0    966.6  2045998.7 -0.0  2 0 1697 2665 1357
[02]  15(G16)  f 44  7  0  -2416.5  2046003.1  0.0  2 0 2204 3142 1449
[03]  21(G22)  f 43  7  0    564.8  2045999.2  0.1  2 0 1277 2164 1063
[04]  22(G23)  f 41  7  0  -4321.2  2046005.5 -0.1  2 0  877 1760 1030
[05]  25(G26)  f 46  7  0   -237.7  2046000.2 -0.0  2 0 2870 3914 1371
[06]  26(G27)  f 39  7  0  -4727.4  2046006.0  0.1  2 0  629  862  597
[08]  30(G31)  f 45  7  0    345.4  2045999.5 -0.0  2 0 2411 3899 1699
[09]  31(G32)  f 41  7  0   1910.9  2045997.5  0.1  2 0 1202 1793  863
[16]  37(B01) 1f 41 10  0  -1139.9  4092002.9  0.1  2 0 1587 1792  677
[17]  38(B02) 1f 40 20  0  -1088.2  4092002.7 -0.1  2 0  972 1321  700
[18]  39(B03) 1f 43 28  0  -1136.9  4092002.9  0.4  2 0 1377 1927  928
[19]  40(B04) 1f 40 22  0  -1124.1  4092002.9  0.6  2 0 1807 1836  803
[20]  41(B05) 1f 37 24  0  -1088.1  4092002.6  0.6  2 0 1109 1060  212
[21]  42(B06) 1f 41  7  0   -597.4  4092001.4 -0.1  2 0 1614 1647  581
[22]  43(B07) 1f 44  7  0   -861.1  4092002.1 -0.0  2 0 1958 3008 1184
[24]  45(B09) 1f 43  7  0  -1166.5  4092002.9 -0.0  2 0 1720 2658 1058
[25]  46(B10) 1f 43  7  0  -1117.3  4092002.8 -0.0  2 0 1842 2646  861
[26]  52(B16) 1f 43  7  0   -632.9  4092001.5  0.0  2 0 2021 2549 1400
[27]  54(B18) 1f 44  7  0   -972.3  4092002.4 -0.0  2 0 2209 2864 1415
[28]  55(B19) 1f 44 13  0   1741.7  4091995.3  0.0  2 0 1973 2816  993
[29]  57(B21) 1f 42  7  0  -3292.5  4092008.5  0.1  2 0 1529 2460 1535
[30]  58(B22) 1f 44  8  0   -731.3  4092001.8 -0.0  2 0 2594 3114 1650
[32]  75(N-6)  f 41  7  0  -4801.5  1022003.0 -0.2  2 0   716 1484  915
[33]  76(N-5)  f 33  7  0  -1744.3  1022001.1 -0.1  2 0  1665 2704 1111
[34]  78(N-3)  f 32 17  0  -4048.7  1022002.5 -0.1  5 0   241  416  212
[35]  82(N01)  f 41 17  0   1470.5  1021999.0  0.0  2 0   844 1482  795
[36]  83(N02)  f 46 20  0   -712.1  1022000.4 -0.0  2 0  1684 2955 1574
[37]  84(N03)  f 37  7  0  -1637.0  1022001.0 -0.0  2 0   518  976  607
[38]  85(N04)  f 44  7  0   2190.4  1021998.5  0.1  2 0  1321 1960  866
[40]  86(N05)  7 18 33  1  -4838.9  1022003.1  0.1 10 0   295  449  418
[48]  37(B01)  1 19 10  0   -512.5 20460017.0 -0.0  1 0  680  731   10
[49]  38(B02)  1 10 21  0   -513.1 20460024.4 -0.1  1 0  565  130  681
[50]  39(B03)  1 17 22  0   -939.8 20460013.5  0.2  1 0  453   21  162
[51]  40(B04)  1 23 26  1   -814.0 20460017.3  0.1  1 0  146  337  386
[52]  41(B05)  1 22 22  0   -627.0 20460022.2 -0.0  1 0  262  668 1231
[53]  42(B06)  1  8  7  0   -400.6 20460008.0  0.0  1 0  656 1074  567
[54]  43(B07)  1 10  7  0   -597.3 20460013.0 -0.1  1 0  414  262  179
[56]  45(B09)  1  7  9  0  -1388.8 20460018.9  0.0  1 0  743  632  241
[57]  46(B10)  1  7  7  0  -1164.0 20460018.9 -0.0  1 0   33  103  742
[58]  52(B16)  1  7  7  0   -555.7 20460009.4 -0.0  1 0  923  741  272
[59]  54(B18)  1  7  8  0   -608.1 20460016.6 -0.2  1 0  297  707  546
[60]  55(B19)  1 10 11  0   1600.3 20459971.1  0.0  1 0  359  417  348
[61]  57(B21)  1  7  7  0  -2417.9 20460052.3 -0.0  1 0  495  246   70
[62]  58(B22)  1  7  7  0   -736.8 20460012.6  0.1  1 0  592  640  544
$GNGGA,020022.643,,,,,0,00,,,M,,,,0000*28
$GNRMC,020022.643,A,,,,,,,220419,,*29
$GPGSA,A,1,,,,,,,,,,,,,,,*1E
$BDGSA,A,1,,,,,,,,,,,,,,,*0F
$GLGSA,A,1,,,,,,,,,,,,,,,*02
$GPGSV,3,1,09,03,00,000,41,14,00,000,43,16,00,000,44,22,00,000,43*76
$GPGSV,3,2,09,23,00,000,41,26,00,000,46,27,00,000,39,31,00,000,45*7F
$GPGSV,3,3,09,32,00,000,41*44
$BDGSV,3,1,12,01,00,000,41,02,00,000,40,03,00,000,43,04,00,000,40*6F
$BDGSV,3,2,12,05,00,000,37,06,00,000,41,07,00,000,44,09,00,000,43*61
$BDGSV,3,3,12,10,00,000,43,16,00,000,43,18,00,000,44,19,00,000,44*6C
$B3CN0,0,0,0,0,0,0,0,0,0,0,0,0,0,0*4C
---00000019--- Acq_st=7 0  2000-1-1 0:2:3 
[00]  02(G03)  f 40  7  0   -259.6  2046000.3 -0.0  2 0 1001 1866  649
[01]  13(G14)  f 43  7  0    969.8  2045998.7 -0.0  2 0 1580 2877 1654
[02]  15(G16)  f 44  7  0  -2416.3  2046003.1  0.0  2 0 2622 3466 1058
[03]  21(G22)  f 43  7  0    562.5  2045999.2 -0.0  2 0 1179 2327 1895
[04]  22(G23)  f 41  7  0  -4323.8  2046005.5  0.1  2 0 1128 1753 1233
[05]  25(G26)  f 45  7  0   -238.6  2046000.3  0.0  2 0 3122 4747 2575
[06]  26(G27)  f 40  7  0  -4726.9  2046006.0  0.0  2 0 1362 1626  827
[08]  30(G31)  f 45 13  0    344.6  2045999.5 -0.0  2 0 2334 3582 1362
[09]  31(G32)  f 40  7  0   1915.2  2045997.4  0.1  2 0 1400 1509  348
[16]  37(B01) 1f 41 10  0  -1141.9  4092002.9 -0.4  2 0 1459 1551  648
[17]  38(B02) 1f 40 27  0  -1096.3  4092002.7 -0.2  2 0 1136 1503  757
[18]  39(B03) 1f 43 27  0  -1138.7  4092002.8 -0.4  2 0 1167 1409  690
[19]  40(B04) 1f 39 13  0  -1126.1  4092002.9 -0.1  2 0 1174 1509  798
[20]  41(B05) 1f 36 27  0  -1086.3  4092002.7 -0.1  2 0 1122 1135  581
[21]  42(B06) 1f 41  7  0   -594.4  4092001.4 -0.0  2 0 1093 1761 1090
[22]  43(B07) 1f 44  7  0   -857.2  4092002.1 -0.0  2 0 1869 2773 1194
[24]  45(B09) 1f 43  7  0  -1164.6  4092002.9  0.1  2 0 1404 2020 1064
[25]  46(B10) 1f 43  7  0  -1121.1  4092002.8  0.1  2 0 1524 2413 1390
[26]  52(B16) 1f 43  7  0   -632.8  4092001.5 -0.0  2 0 1557 2344 1286
[27]  54(B18) 1f 44  7  0   -969.2  4092002.4 -0.0  2 0 2001 2721 1208
[28]  55(B19) 1f 43  9  0   1740.2  4091995.3  0.0  2 0 2038 2570  988
[29]  57(B21) 1f 43  7  0  -3287.8  4092008.5  0.0  2 0 1415 1560  568
[30]  58(B22) 1f 44  7  0   -731.5  4092001.8 -0.0  2 0 1947 2674  955
[32]  75(N-6)  f 41  7  0  -4801.8  1022003.0  0.1  2 0   368 1086  378
[33]  76(N-5)  f 48  7  0  -1742.6  1022001.1 -0.0  2 0  1477 3183 1462
[34]  78(N-3)  f 31 19  0  -4048.6  1022002.4 -0.0  5 0   264  220  157
[35]  82(N01)  f 41 18  0   1472.4  1021999.1 -0.1  2 0   510 1145  577
[36]  83(N02)  f 47 20  0   -712.3  1022000.4  0.0  2 0  2058 3184 1470
[37]  84(N03)  f 36  7  0  -1638.9  1022001.0 -0.1  2 0   307  421  119
[38]  85(N04)  f 44  7  0   2189.2  1021998.5 -0.1  2 0   831 1472  767
[40]  86(N05)  7 16 33  1  -4838.3  1022003.2 -0.2 10 0   225  522  221
[48]  37(B01)  1 13 10  1   -618.6 20460014.5  0.2  1 0  451  575  329
[49]  38(B02)  1 16 10  1    -48.1 20460021.7  0.1  1 0  138  276  242
[50]  39(B03)  1 19 22  1   -748.7 20460021.1  0.1  1 0  198  231  377
[51]  40(B04)  1 24 18  0   -589.5 20460020.7  0.0  1 0  560  639  562
[52]  41(B05)  1 20 22  0   -831.9 20460019.1  0.0  1 0  437  261  571
[53]  42(B06)  1 10  7  0   -160.5 20460009.8 -0.0  1 0  560  529  555
[54]  43(B07)  1  7  7  0   -350.3 20460012.4 -0.0  1 0  165  436   95
[56]  45(B09)  1  7  7  0  -1062.1 20460017.7 -0.0  1 0  329  409  162
[57]  46(B10)  1  7  7  0   -910.7 20460017.6 -0.0  1 0  947  931  740
[58]  52(B16)  1  7  7  0   -514.8 20460010.0 -0.1  1 0  337  693  552
[59]  54(B18)  1  7  8  0   -716.5 20460014.1 -0.2  1 0  441 1074  532
[60]  55(B19)  1 10 11  0   1481.5 20459972.1 -0.1  1 0  366  669  857
[61]  57(B21)  1  7  7  0  -2034.5 20460054.1  0.1  1 0  485  378  351
[62]  58(B22)  1  7  7  0   -955.4 20460011.8 -0.1  1 0   68  218  157
$GNGGA,020023.643,,,,,0,00,,,M,,,,0000*29
$GNRMC,020023.643,A,,,,,,,220419,,*28
$GPGSA,A,1,,,,,,,,,,,,,,,*1E
$BDGSA,A,1,,,,,,,,,,,,,,,*0F
$GLGSA,A,1,,,,,,,,,,,,,,,*02
$GPGSV,3,1,09,03,00,000,40,14,00,000,43,16,00,000,44,22,00,000,43*77
$GPGSV,3,2,09,23,00,000,41,26,00,000,45,27,00,000,40,31,00,000,45*72
$GPGSV,3,3,09,32,00,000,40*45
$BDGSV,3,1,12,01,00,000,41,02,00,000,40,03,00,000,43,04,00,000,39*61
$BDGSV,3,2,12,05,00,000,36,06,00,000,41,07,00,000,44,09,00,000,43*60
$BDGSV,3,3,12,10,00,000,43,16,00,000,43,18,00,000,44,19,00,000,43*6B
$B3CN0,0,0,0,0,0,0,0,0,0,0,0,0,0,0*4C
---00000020--- Acq_st=3 0  2000-1-1 0:2:4 
[00]  02(G03)  f 40  7  0   -259.4  2046000.2 -0.0  2 0  822 1572  589
[01]  13(G14)  f 43  7  0    967.5  2045998.7 -0.0  2 0 1417 2557 1539
[02]  15(G16)  f 44 13  0  -2413.0  2046003.1  0.0  2 0 1531 2445 1623
[03]  21(G22)  f 43  7  0    562.8  2045999.2 -0.0  2 0 1321 2444  867
[04]  22(G23)  f 40  7  0  -4324.3  2046005.6  0.1  2 0  905 1716  732
[05]  25(G26)  f 45  7  0   -236.5  2046000.3 -0.1  2 0 2604 4257 2353
[06]  26(G27)  f 39  7  0  -4726.1  2046006.1  0.1  2 0  855 1654  989
[08]  30(G31)  f 44 14  0    344.4  2045999.5  0.1  2 0 2469 4015 2300
[09]  31(G32)  f 41  7  0   1910.2  2045997.5 -0.1  2 0 1204 2337 1707
[16]  37(B01) 1f 41 19  0  -1146.1  4092002.9  0.3  2 0  820 1342  723
[17]  38(B02) 1f 39 26  0  -1092.8  4092002.8 -0.5  2 0  669 1360  660
[18]  39(B03) 1f 42 28  0  -1140.1  4092002.8  0.1  2 0 1708 1869 1036
[19]  40(B04) 1f 39 22  0  -1124.9  4092002.8 -0.5  2 0 1965 1486  608
[20]  41(B05) 1f 39 21  0  -1096.5  4092002.5 -0.1  2 0  704  990  603
[21]  42(B06) 1f 41  7  0   -597.2  4092001.5 -0.1  2 0 1451 1579  577
[22]  43(B07) 1f 44  7  0   -858.0  4092002.1  0.0  2 0 1814 2766 1206
[24]  45(B09) 1f 43  7  0  -1168.6  4092002.9  0.0  2 0 1951 2399  825
[25]  46(B10) 1f 43  7  0  -1117.6  4092002.8 -0.0  2 0 1877 2377 1026
[26]  52(B16) 1f 43  7  0   -632.7  4092001.5  0.0  2 0 1379 2069  441
[27]  54(B18) 1f 44  7  0   -969.8  4092002.4  0.1  2 0 2034 2956 1166
[28]  55(B19) 1f 44 15  0   1740.1  4091995.3 -0.0  2 0 1878 2769 1158
[29]  57(B21) 1f 42  7  0  -3288.0  4092008.5 -0.1  2 0 1904 2527 1451
[30]  58(B22) 1f 44  7  0   -732.1  4092001.8  0.0  2 0 2065 2959 1501
[32]  75(N-6)  f 42  7  0  -4799.3  1022003.0  0.1  2 0   344 1026  707
[33]  76(N-5)  f 33  7  0  -1741.8  1022001.1 -0.2  2 0  1595 2938 1671
[34]  78(N-3)  f 31 19  0  -4048.5  1022002.6  0.0  5 0   315  367  234
[35]  82(N01)  f 40 16  0   1468.7  1021999.0 -0.2  2 0   535 1038  906
[36]  83(N02)  f 46 19  0   -712.4  1022000.4 -0.0  2 0  1317 3039 1733
[37]  84(N03)  f 36  7  0  -1639.4  1022001.1 -0.1  2 0   425  398  187
[38]  85(N04)  f 44  7  0   2192.2  1021998.6 -0.0  2 0   651 1374  709
[40]  86(N05)  7 18 34  1  -4838.4  1022003.2 -0.1 10 0   579  186  402
[48]  37(B01)  7 10 22  0   -698.2 20460011.7  0.2  2 0  263  179  582
[49]  38(B02)  7 10 19  1    -60.2 20460002.3  0.1  2 0  411  204  314
[50]  39(B03)  1 23 10  1   -400.7 20460016.9  0.1  1 0  181   96  177
[51]  40(B04)  1 18 23  0   -535.2 20460014.3  0.1  1 0  538  336  610
[52]  41(B05)  1 25 20  0   -600.3 20460017.2 -0.1  1 0  481  513   81
[53]  42(B06)  1  7  7  0   -303.4 20460009.8 -0.1  1 0   95  206  502
[54]  43(B07)  1  7  7  0   -624.6 20460012.5 -0.0  1 0  489  253   99
[56]  45(B09)  1  7  7  0  -1628.3 20460017.3  0.0  1 0  407  334  237
[57]  46(B10)  1  7  7  0   -468.0 20460018.0  0.1  1 0  206  352  528
[58]  52(B16)  1  7  8  0   -559.5 20460011.9 -0.0  1 0  217  582  641
[59]  54(B18)  1  9  7  0   -781.1 20460016.1  0.0  1 0  539  501  885
[60]  55(B19)  1  8  8  0   1233.0 20459972.9  0.1  1 0  240  130  321
[61]  57(B21)  1  7  7  0  -2175.7 20460052.5  0.0  1 0  697  615  573
[62]  58(B22)  1  7  7  0   -911.8 20460012.5 -0.0  1 0  361  819 1190
$GNGGA,020024.643,,,,,0,00,,,M,,,,0000*2E
$GNRMC,020024.643,A,,,,,,,220419,,*2F
$GPGSA,A,1,,,,,,,,,,,,,,,*1E
$BDGSA,A,1,,,,,,,,,,,,,,,*0F
$GLGSA,A,1,,,,,,,,,,,,,,,*02
$GPGSV,3,1,09,03,00,000,40,14,00,000,43,16,00,000,44,22,00,000,43*77
$GPGSV,3,2,09,23,00,000,40,26,00,000,45,27,00,000,39,31,00,000,44*7C
$GPGSV,3,3,09,32,00,000,41*44
$BDGSV,3,1,12,01,00,000,41,02,00,000,39,03,00,000,42,04,00,000,40*60
$BDGSV,3,2,12,05,00,000,39,06,00,000,41,07,00,000,44,09,00,000,43*6F
$BDGSV,3,3,12,10,00,000,43,16,00,000,43,18,00,000,44,19,00,000,44*6C
$B3CN0,0,0,0,0,0,0,0,0,0,0,0,0,0,0*4C
---00000021--- Acq_st=3 0  2000-1-1 0:2:5 
[00]  02(G03)  f 41  7  0   -254.0  2046000.3 -0.1  2 0  806 2031 1077
[01]  13(G14)  f 43  7  0    964.4  2045998.7  0.0  2 0 1400 2077 1181
[02]  15(G16)  f 44  7  0  -2413.9  2046003.1 -0.0  2 0 2634 3280 1005
[03]  21(G22)  f 42  7  0    562.2  2045999.2 -0.0  2 0 1343 2089  391
[04]  22(G23)  f 41  7  0  -4323.6  2046005.6  0.1  2 0 1362 1925  884
[05]  25(G26)  f 45  7  0   -239.0  2046000.3 -0.0  2 0 2159 4396 2088
[06]  26(G27)  f 38  7  0  -4730.4  2046006.1 -0.0  2 0 1330 1527  900
[08]  30(G31)  f 44 15  0    343.7  2045999.5 -0.0  2 0 2206 3359 1784
[09]  31(G32)  f 41  7  0   1909.8  2045997.4  0.2  2 0 1239 2364 1221
[16]  37(B01) 1f 40 13  0  -1146.4  4092003.0  0.5  2 0 1257 1598  939
[17]  38(B02) 1f 40 24  0  -1091.5  4092002.7  0.5  2 0 1123 1382  659
[18]  39(B03) 1f 43 29  0  -1138.7  4092002.8  0.4  2 0 1477 1394  428
[19]  40(B04) 1f 39 16  0  -1129.1  4092002.8  0.5  2 0  965 1349  593
[20]  41(B05) 1f 36 25  0  -1093.9  4092002.7  0.2  2 0  707  900  455
[21]  42(B06) 1f 41  7  0   -598.0  4092001.4  0.0  2 0 1385 1635  482
[22]  43(B07) 1f 43  7  0   -863.5  4092002.2 -0.0  2 0 2524 3533 1879
[24]  45(B09) 1f 43  7  0  -1167.1  4092002.9 -0.0  2 0 2002 2595 1342
[25]  46(B10) 1f 43  7  0  -1117.7  4092002.8 -0.0  2 0 1588 2006  867
[26]  52(B16) 1f 43  7  0   -633.2  4092001.6  0.0  2 0 1821 2402  738
[27]  54(B18) 1f 44  7  0   -973.1  4092002.4 -0.0  2 0 2654 3497 1631
[28]  55(B19) 1f 43  8  0   1739.3  4091995.3  0.0  2 0 1539 2489 1261
[29]  57(B21) 1f 42  7  0  -3289.6  4092008.5 -0.0  2 0 1467 2055  763
[30]  58(B22) 1f 44  7  0   -731.5  4092001.8 -0.0  2 0 2107 3025 1478
[32]  75(N-6)  f 41  7  0  -4802.4  1022003.0  0.6  2 0  1003 1624  921
[33]  76(N-5)  f 48  7  0  -1742.6  1022001.1 -0.1  2 0  1737 3178 1442
[34]  78(N-3)  f 31 18  0  -4050.3  1022002.6  0.1  5 0   295  391  406
[35]  82(N01)  f 40 13  0   1469.8  1021999.0  0.1  2 0  1112 1390  801
[36]  83(N02)  f 47 19  0   -713.5  1022000.4 -0.0  2 0  1682 3131 1719
[37]  84(N03)  f 36  7  0  -1638.3  1022001.0  0.1  2 0   704  863  220
[38]  85(N04)  f 44  7  0   2190.2  1021998.6  0.0  2 0  1083 1573  737
[40]  86(N05)  7 13 32  1  -4839.0  1022003.0  0.1 10 0   247  255  114
[48]  37(B01)  7 10 18  0  -1038.7 20460015.3  0.1  2 0  551  564  213
[49]  38(B02)  7 10 19  1   -219.3 20460003.8  0.0  2 0  202  425  142
[50]  39(B03)  1 10 26  1   -949.0 20460020.6 -0.1  1 0  274  190  533
[51]  40(B04)  1 19 22  1   -958.2 20460016.2  0.1  1 0  469  901  570
[52]  41(B05)  1 23 26  1   -597.3 20460018.2 -0.1  1 0  517  189  109
[53]  42(B06)  1  7  7  0   -191.7 20460010.0 -0.1  1 0  714  841  511
[54]  43(B07)  1  7  7  0   -840.8 20460013.6  0.1  1 0  818  348  286
[56]  45(B09)  1  7  7  0  -2350.1 20460016.7  0.1  1 0  303  350  290
[57]  46(B10)  1  7  7  0   -552.0 20460017.4  0.0  1 0  321  283  783
[58]  52(B16)  1  7  8  0   -646.5 20460011.5  0.0  1 0  291   80  345
[59]  54(B18)  1  8  7  0   -805.8 20460014.1 -0.0  1 0  697  979  853
[60]  55(B19)  1  9 10  0   1279.9 20459972.0  0.1  1 0  612  135  258
[61]  57(B21)  1  7  7  0  -1854.4 20460052.5 -0.0  1 0  410  536  419
[62]  58(B22)  1  7  7  0  -1051.5 20460013.2  0.2  1 0  659  476  553
$GNGGA,020025.643,,,,,0,00,,,M,,,,0000*2F
$GNRMC,020025.643,A,,,,,,,220419,,*2E
$GPGSA,A,1,,,,,,,,,,,,,,,*1E
$BDGSA,A,1,,,,,,,,,,,,,,,*0F
$GLGSA,A,1,,,,,,,,,,,,,,,*02
$GPGSV,3,1,09,03,00,000,41,14,00,000,43,16,00,000,44,22,00,000,42*77
$GPGSV,3,2,09,23,00,000,41,26,00,000,45,27,00,000,38,31,00,000,44*7C
$GPGSV,3,3,09,32,00,000,41*44
$BDGSV,3,1,12,01,00,000,40,02,00,000,40,03,00,000,43,04,00,000,39*60
$BDGSV,3,2,12,05,00,000,36,06,00,000,41,07,00,000,43,09,00,000,43*67
$BDGSV,3,3,12,10,00,000,43,16,00,000,43,18,00,000,44,19,00,000,43*6B
$B3CN0,0,0,0,0,0,0,0,0,0,0,0,0,0,0*4C
---00000022--- Acq_st=3 0  2000-1-1 0:2:6 
[00]  02(G03)  f 41  7  0   -258.1  2046000.3  0.0  2 0  952 1599 1082
[01]  13(G14)  f 42  7  0    966.9  2045998.7 -0.0  2 0 1935 2427  476
[02]  15(G16)  f 44  7  0  -2416.7  2046003.1  0.0  2 0 1509 2832 1414
[03]  21(G22)  f 43  7  0    561.1  2045999.2  0.0  2 0 1252 2281 1180
[04]  22(G23)  f 40  7  0  -4321.5  2046005.6 -0.0  2 0 1088 1909 1042
[05]  25(G26)  f 45  7  0   -238.0  2046000.2  0.0  2 0 3117 5168 2065
[06]  26(G27)  f 38  7  0  -4725.8  2046006.1 -0.2  2 0 1056 1664  666
[08]  30(G31)  f 44 19  0    343.1  2045999.5 -0.0  2 0 2038 3694 1463
[09]  31(G32)  f 41  7  0   1907.4  2045997.4  0.0  2 0  940 1580  684
[16]  37(B01) 1f 40 10  0  -1143.6  4092002.8  0.5  2 0 1519 1316  726
[17]  38(B02) 1f 39 25  0  -1092.2  4092002.7 -0.5  2 0 1628 1900  935
[18]  39(B03) 1f 43 28  0  -1136.3  4092002.8 -0.0  2 0 1567 1844  902
[19]  40(B04) 1f 40 36  0  -1129.1  4092002.9 -0.2  2 0 1075 1687  690
[20]  41(B05) 1f 37 16  0  -1087.0  4092002.7 -0.5  2 0 1286 1524  685
[21]  42(B06) 1f 42  7  0   -595.8  4092001.4  0.0  2 0 1632 1804  508
[22]  43(B07) 1f 44  7  0   -861.7  4092002.1 -0.0  2 0 2160 2791 1106
[24]  45(B09) 1f 43  7  0  -1165.0  4092002.9  0.0  2 0 1658 2069  478
[25]  46(B10) 1f 43  7  0  -1119.1  4092002.8 -0.0  2 0 2108 2476  390
[26]  52(B16) 1f 43  7  0   -635.2  4092001.6 -0.0  2 0 2424 2843 1335
[27]  54(B18) 1f 44  7  0   -972.8  4092002.4 -0.0  2 0 1943 3085 1449
[28]  55(B19) 1f 44  9  0   1739.0  4091995.3 -0.1  2 0 2460 2812 1094
[29]  57(B21) 1f 42  7  0  -3291.3  4092008.5 -0.0  2 0 1529 1707  659
[30]  58(B22) 1f 44 11  0   -731.4  4092001.8  0.0  2 0 2569 2875 1344
[32]  75(N-6)  f 41  7  0  -4800.3  1022003.0  0.4  2 0  1027 1156  504
[33]  76(N-5)  f 33  7  0  -1741.9  1022001.1 -0.0  2 0  2047 3029 1186
[34]  78(N-3)  f 31 17  0  -4048.6  1022002.6 -0.0  5 0   346  520  284
[35]  82(N01)  f 41 13  0   1469.8  1021999.0  0.0  2 0   672 1095  509
[36]  83(N02)  f 47 19  0   -714.6  1022000.4 -0.0  2 0  1723 2834 1485
[37]  84(N03)  f 36  7  0  -1636.7  1022001.0  0.0  2 0   511  772   59
[38]  85(N04)  f 43  7  0   2191.1  1021998.5 -0.0  2 0   492 1591  538
[40]  86(N05)  7 17 33  1  -4839.3  1022002.9  0.2 10 0   336  198  120
[48]  37(B01)  7 18 10  0  -1092.0 20460016.3 -0.1  2 0  113   63  613
[49]  38(B02)  7 36 36  0    -32.5 20459999.6  0.1  2 0  458  427  423
[50]  39(B03)  1 10 10  0  -1040.5 20460021.8  0.1  1 0  202  285  609
[51]  40(B04)  1 20 22  1  -1270.8 20460017.4  0.2  1 0  393  655  446
[52]  41(B05)  1 19 24  0   -796.1 20460025.6  0.0  1 0  567  593  120
[53]  42(B06)  1  7  7  0     37.8 20460008.9  0.1  1 0  342  654  214
