SD initialized success
Create debug.log Failed! 3
bbram_blkflag = 1
rtcflag = 0
BBRAM Block OK: 01 EPHflag: 00000000 0036837f, rtc 00
Hot-start nowtime:day = 22,minute = 2,seconds = 23.00
Start Channel by LuYu
$GNGGA,000000.000,,,,,0,00,,,M,,,,0000*2B
$GNRMC,000000.000,A,,,,,,,060180,,*29
$GPGSA,A,1,,,,,,,,,,,,,,,*1E
$BDGSA,A,1,,,,,,,,,,,,,,,*0F
$GLGSA,A,1,,,,,,,,,,,,,,,*02
$B3CN0,0,0,0,0,0,0,0,0,0,0,0,0,0,0*4C
---00000001--- Acq_st=3 0  2019-4-22 2:2:24 
[00]  02(G03)  1 21  7  0   -202.5  2046003.0  0.1  1 0  418 1238 1461
$GNGGA,000000.000,,,,,0,00,,,M,,,,0000*2B
$GNRMC,000000.000,A,,,,,,,060180,,*29
$GPGSA,A,1,,,,,,,,,,,,,,,*1E
$BDGSA,A,1,,,,,,,,,,,,,,,*0F
$GLGSA,A,1,,,,,,,,,,,,,,,*02
$B3CN0,0,0,0,0,0,0,0,0,0,0,0,0,0,0*4C
---00000002--- Acq_st=5 0  2019-4-22 2:2:25 
[00]  02(G03)  7 19  7  0   -199.9  2046000.1  0.9 10 0 1391 1254  411
[01]  13(G14)  1 30  7  0   1012.9  2045998.8  0.4  1 0 1421 2987 1546
[02]  15(G16)  1  7  7  0  -2210.7  2046003.8 -0.0  1 0  272  495  721
[03]  21(G22)  1  7  7  0    750.0  2046001.4 -0.1  1 0  841 1904 1243
[04]  22(G23)  1  7  7  0  -4250.0  2046007.0 -0.1  1 0  409  810 1942
$GNGGA,000000.000,,,,,0,00,,,M,,,,0000*2B
$GNRMC,000000.000,A,,,,,,,060180,,*29
$GPGSA,A,1,,,,,,,,,,,,,,,*1E
$BDGSA,A,1,,,,,,,,,,,,,,,*0F
$GLGSA,A,1,,,,,,,,,,,,,,,*02
$GPGSV,1,1,01,03,00,000,19*43
$B3CN0,0,0,0,0,0,0,0,0,0,0,0,0,0,0*4C
---00000003--- Acq_st=3 0  2019-4-22 2:2:26 
[00]  02(G03)  7 39  7  0   -194.9  2046000.1  0.1  2 0 1045 1935  891
[01]  13(G14)  7 23  7  0   1018.1  2045998.6  0.8 10 0 1938 2903 1396
[02]  15(G16)  1  7  8  0  -1852.3  2046006.1  0.0  1 0  858 1488 2377
[03]  21(G22)  1 30  7  0    602.7  2045998.9  0.8  1 0 1686 1843  381
[04]  22(G23)  1 29  7  0  -4316.9  2046005.8  0.5  1 0 1001 1785  902
[05]  25(G26)  1 27  7  0   -184.3  2046000.7  0.4  1 0 2572 4142 1720
[06]  26(G27)  1 28  7  0  -4721.8  2046006.7  0.3  1 0 1516 1985 1016
[08]  30(G31)  1 10  7  0    352.2  2046000.3 -0.0  1 0 1821 3252 1628
[09]  31(G32)  1  7  7  0   1939.8  2045999.7  0.0  1 0 1044 2164 1621
[16]  37(B01)  1 10 17  0  -1000.0  4092004.0 -0.0  1 0  174  221  423
[17]  38(B02)  1 10 14  1  -1250.0  4092003.6 -0.1  1 0  335  962 1475
[18]  39(B03)  1 10 32  1  -1000.0  4092002.2 -0.1  1 0  277  641 1713
$GNGGA,000000.000,,,,,0,00,,,M,,,,0000*2B
$GNRMC,000000.000,A,,,,,,,060180,,*29
$GPGSA,A,1,,,,,,,,,,,,,,,*1E
$BDGSA,A,1,,,,,,,,,,,,,,,*0F
$GLGSA,A,1,,,,,,,,,,,,,,,*02
$GPGSV,1,1,02,03,00,000,39,14,00,000,23*76
$B3CN0,0,0,0,0,0,0,0,0,0,0,0,0,0,0*4C
---00000004--- Acq_st=3 0  2019-4-22 2:2:27 
[00]  02(G03)  7 39  7  0   -181.2  2046000.2 -0.2  2 0  976 1412  481
[01]  13(G14)  7 43  7  0   1022.7  2045998.6 -0.0  2 0 2029 2862 1181
[02]  15(G16)  1  7  7  0  -1846.2  2046002.9  0.1  1 0 1825 1611  832
[03]  21(G22)  7 30  7  0    607.4  2045999.1  0.3  5 0  903 1252  195
[04]  22(G23)  7 29  7  0  -4306.2  2046005.6  0.4  5 0  327 1261  911
[05]  25(G26)  7 26  7  0   -177.1  2046000.1  0.6 10 0 2980 4299 1490
[06]  26(G27)  7 23  7  0  -4718.3  2046006.1  0.9 10 0 1165 1433  313
[08]  30(G31)  1 32 18  0    356.7  2045999.3  1.0  1 0 2402 3899 1406
[09]  31(G32)  1 33  7  0   1941.7  2045997.2  1.0  1 0 1189 1632  692
[16]  37(B01)  1 21 10  1  -1075.3  4092003.5  0.0  1 0  240  425  524
[17]  38(B02)  1 10 25  1  -1087.6  4092003.3  0.5  1 0  984 1706  756
[18]  39(B03)  1 10 10  0   -618.7  4092003.5 -0.0  1 0  107  306  560
[19]  40(B04)  1 10 22  1  -1127.4  4092004.7  0.4  1 0  630 1361 1544
[20]  41(B05)  1 10 10  1   -741.8  4092002.8  0.1  1 0  613  379  580
[21]  42(B06)  1  7  7  0   -574.6  4092004.5  0.0  1 0  390  808 2087
[22]  43(B07)  1 17  7  0   -852.7  4092004.2  0.0  1 0 1372 2685 2050
[24]  45(B09)  1  7  7  0  -1000.0  4092005.1  0.2  1 0  219  916 2474
[25]  46(B10)  1  7  7  0  -1250.0  4092005.6  0.0  1 0  328 1338 2125
$GNGGA,000000.000,,,,,0,00,,,M,,,,0000*2B
$GNRMC,000000.000,A,,,,,,,060180,,*29
$GPGSA,A,1,,,,,,,,,,,,,,,*1E
$BDGSA,A,1,,,,,,,,,,,,,,,*0F
$GLGSA,A,1,,,,,,,,,,,,,,,*02
$GPGSV,2,1,06,03,00,000,39,14,00,000,43,22,00,000,30,23,00,000,29*7E
$GPGSV,2,2,06,26,00,000,25,27,00,000,23*78
$B3CN0,0,0,0,0,0,0,0,0,0,0,0,0,0,0*4C
---00000005--- Acq_st=3 0  2019-4-22 2:2:28 
[00]  02(G03)  7 39  7  0   -186.0  2046000.1 -0.0  2 0  927 1614 1029
[01]  13(G14)  7 42  7  0   1020.2  2045998.6  0.0  2 0 1756 3096 1413
[02]  15(G16)  1  7  7  0  -1845.8  2046002.6  0.3  1 0 1171 1574  217
[03]  21(G22)  7 41  7  0    605.3  2045999.1  0.0  2 0 1086 1879 1098
[04]  22(G23)  7 41  7  0  -4308.6  2046005.5  0.0  2 0  958 1720  833
[05]  25(G26)  7 46  7  0   -178.6  2046000.1  0.0  2 0 3336 4729 2168
[06]  26(G27)  7 39  7  0  -4724.4  2046006.0 -0.1  2 0 1466 1750  428
[08]  30(G31)  7 41 13  0    354.5  2045999.5  0.1  2 0 2850 4015 1929
[09]  31(G32)  7 37  7  0   1946.5  2045997.4  0.1  2 0 1849 2135  994
[16]  37(B01)  1 10 10  0  -1718.2  4092004.6 -0.1  1 0  479  553  855
[17]  38(B02)  7 39 24  0  -1093.9  4092002.7  0.5  2 0 1495 1295  442
[18]  39(B03)  1 10 10  0   -637.6  4092004.2  0.4  1 0  882 1569 1124
[19]  40(B04)  7 39 22  0  -1129.7  4092002.8  0.4  2 0 1084 1695  876
[20]  41(B05)  1 10 10  0  -1513.6  4092003.4  0.1  1 0  110  213  148
[21]  42(B06)  7 16  7  0   -579.6  4092001.3  0.0 10 0 1478 1638  951
[22]  43(B07)  7  7  7  0   -855.8  4092002.1  1.0  5 0 2053 2758 1117
[24]  45(B09)  1  7  7  0  -1157.5  4092003.0  0.5  1 0 1788 2536 1037
[25]  46(B10)  1  7  7  0  -1115.9  4092002.7  0.3  1 0 1800 2323 1069
[26]  52(B16)  1  7  7  0   -500.0  4092003.7 -0.1  1 0  309 1346 2589
[27]  54(B18)  1  7  7  0  -1000.0  4092003.9 -0.0  1 0  658 1970 2190
[28]  55(B19)  1  7  7  0   1750.0  4091997.8  0.0  1 0  489 2098 2839
$GNGGA,000000.000,,,,,0,00,,,M,,,,0000*2B
$GNRMC,000000.000,A,,,,,,,060180,,*29
$GPGSA,A,1,,,,,,,,,,,,,,,*1E
$BDGSA,A,1,,,,,,,,,,,,,,,*0F
$GLGSA,A,1,,,,,,,,,,,,,,,*02
$GPGSV,2,1,08,03,00,000,39,14,00,000,42,22,00,000,41,23,00,000,41*79
$GPGSV,2,2,08,26,00,000,46,27,00,000,39,31,00,000,41,32,00,000,37*7A
$BDGSV,1,1,02,02,00,000,39,04,00,000,39*6C
$B3CN0,0,0,0,0,0,0,0,0,0,0,0,0,0,0*4C
---00000006--- Acq_st=3 0  2019-4-22 2:2:29 
[00]  02(G03)  7 39  7  0   -200.0  2046000.2  0.0  2 0  955 1373  874
[01]  13(G14)  7 43  8  0   1014.2  2045998.6 -0.0  2 0 2018 2935  797
[03]  21(G22)  7 41  7  0    599.0  2045999.2  0.0  2 0  763 1319  219
[04]  22(G23)  7 41  7  0  -4321.0  2046005.5 -0.0  2 0 1242 1978 1153
[05]  25(G26)  7 45  7  0   -184.9  2046000.2 -0.0  2 0 3213 4467 1925
[06]  26(G27)  7 39  7  0  -4724.1  2046006.1  0.2  2 0  591 1430  694
[08]  30(G31)  7 45 17  0    346.8  2045999.5  0.0  2 0 2685 3850 1543
[09]  31(G32)  7 41  7  0   1942.5  2045997.3 -0.1  2 0 1623 1888  914
[16]  37(B01)  1 25 10  1  -1656.5  4092005.3  0.5  1 0 1381 1013  153
[17]  38(B02)  f 39 27  0  -1095.7  4092002.7 -0.5  2 0 1271 1472  885
[18]  39(B03)  1 25 10  0   -649.9  4092003.3  0.6  1 0 1205 1393  657
[19]  40(B04)  f 40 10  0  -1128.4  4092002.8  0.1  2 0  876 1414  375
[20]  41(B05)  1 10 10  0  -1418.9  4092005.5  0.1  1 0   23  130  450
[21]  42(B06)  7 42  7  0   -585.0  4092001.4  0.0  2 0 1666 2043  781
[22]  43(B07)  7 44  7  0   -863.0  4092002.1 -0.0  2 0 2122 2437  977
[24]  45(B09)  7 34  7  0  -1159.3  4092002.9  0.1  5 0 1326 1815  616
[25]  46(B10)  7 32  7  0  -1119.9  4092002.8  0.3  5 0 1909 2706 1169
[26]  52(B16)  1  7  7  0   -625.2  4092001.7  0.4  1 0 2082 2472  833
[27]  54(B18)  1  7  7  0   -981.0  4092002.6  0.1  1 0 2456 3454 1313
[28]  55(B19)  1  7 15  0   1755.5  4091995.2  0.1  1 0 1978 2735  977
[29]  57(B21)  1  7  7  0  -2727.2  4092007.3 -0.0  1 0   97  210  358
[30]  58(B22)  1  7  7  0   -674.7  4092003.1  0.2  1 0 1217 2923 2330
$GNGGA,000000.000,,,,,0,00,,,M,,,,0000*2B
$GNRMC,000000.000,A,,,,,,,060180,,*29
$GPGSA,A,1,,,,,,,,,,,,,,,*1E
$BDGSA,A,1,,,,,,,,,,,,,,,*0F
$GLGSA,A,1,,,,,,,,,,,,,,,*02
$GPGSV,2,1,08,03,00,000,39,14,00,000,43,22,00,000,41,23,00,000,41*78
$GPGSV,2,2,08,26,00,000,45,27,00,000,39,31,00,000,45,32,00,000,41*7C
$BDGSV,2,1,06,02,00,000,39,04,00,000,39,06,00,000,42,07,00,000,44*6C
$BDGSV,2,2,06,09,00,000,34,10,00,000,32*60
$B3CN0,0,0,0,0,0,0,0,0,0,0,0,0,0,0*4C
---00000007--- Acq_st=3 0  2019-4-22 2:2:30 
[00]  02(G03)  7 40  7  0   -192.9  2046000.2 -0.0  2 0  650 1199  286
[01]  13(G14)  7 43  7  0   1013.8  2045998.6  0.0  2 0 2121 3098 1659
[03]  21(G22)  7 41  7  0    600.5  2045999.2 -0.1  2 0  805 1671  770
[04]  22(G23)  7 41  7  0  -4315.8  2046005.6  0.0  2 0 1405 1584  862
[05]  25(G26)  7 45  7  0   -184.3  2046000.2 -0.0  2 0 3058 4629 2440
[06]  26(G27)  7 40  7  0  -4726.9  2046006.1  0.0  2 0 1215 1500  456
[08]  30(G31)  7 44 17  0    349.9  2045999.5 -0.0  2 0 2008 3857 2266
[09]  31(G32)  7 41  7  0   1945.2  2045997.4 -0.0  2 0 1503 1702  842
[16]  37(B01)  1 10 10  0  -1487.6  4092004.6  0.2  1 0  524  316  454
[17]  38(B02)  f 39 21  0  -1102.4  4092002.7  0.3  2 0 1165 1343  605
[18]  39(B03)  1 21 10  0   -649.8  4092002.2  0.4  1 0  537 1423 1021
[19]  40(B04)  f 40 23  0  -1134.5  4092002.8 -0.7  2 0 1117 1592  384
[20]  41(B05)  1 21 10  0  -1537.6  4092003.5  0.2  1 0  417  733  339
[21]  42(B06)  7 42  7  0   -583.5  4092001.4 -0.1  2 0 2069 2007  461
[22]  43(B07)  7 43  7  0   -860.2  4092002.1  0.0  2 0 1865 2634  962
[24]  45(B09)  7 43  7  0  -1156.3  4092002.9  0.0  2 0 1394 2209  805
[25]  46(B10)  7 44  7  0  -1115.9  4092002.8 -0.1  2 0 2122 2585 1159
[26]  52(B16)  7 34  7  0   -620.9  4092001.5  0.2  5 0 1749 1979  611
[27]  54(B18)  7 30  7  0   -976.2  4092002.5  0.2  5 0 1827 3040 1092
[28]  55(B19)  7 28  7  0   1762.2  4091995.3  0.3 10 0 1732 2881 1214
[29]  57(B21)  1  7  8  0  -3682.7  4092007.9 -0.1  1 0  594  753  524
[30]  58(B22)  7 11  7  0   -671.3  4092001.7  0.6 10 0 2024 2443 1038
[49]  38(B02)  1 10 23  0   -889.4 20460017.6 -0.2  1 0  530  704  890
[51]  40(B04)  1 10 27  1  -1447.3 20460018.3  0.0  1 0  565 1146  721
$GNGGA,000000.000,,,,,0,00,,,M,,,,0000*2B
$GNRMC,000000.000,A,,,,,,,060180,,*29
$GPGSA,A,1,,,,,,,,,,,,,,,*1E
$BDGSA,A,1,,,,,,,,,,,,,,,*0F
$GLGSA,A,1,,,,,,,,,,,,,,,*02
$GPGSV,2,1,08,03,00,000,40,14,00,000,43,22,00,000,41,23,00,000,41*76
$GPGSV,2,2,08,26,00,000,45,27,00,000,40,31,00,000,44,32,00,000,41*73
$BDGSV,3,1,09,02,00,000,39,04,00,000,41,06,00,000,42,07,00,000,43*6A
$BDGSV,3,2,09,09,00,000,43,10,00,000,44,16,00,000,34,18,00,000,29*6D
$BDGSV,3,3,09,19,00,000,28*53
$B3CN0,0,0,0,0,0,0,0,0,0,0,0,0,0,0*4C
---00000008--- Acq_st=3 0  2019-4-22 2:2:31 
[00]  02(G03)  7 40  7  0   -194.0  2046000.2 -0.1  2 0 1439 1752  652
[01]  13(G14)  7 43  7  0   1020.4  2045998.6  0.0  2 0 1729 2779 1127
[03]  21(G22)  7 41  7  0    607.8  2045999.2 -0.0  2 0 1789 2313  771
[04]  22(G23)  7 40  7  0  -4310.2  2046005.5  0.0  2 0 1417 1829  792
[05]  25(G26)  7 45  7  0   -178.0  2046000.2  0.0  2 0 2895 4503 2139
[06]  26(G27)  7 40  7  0  -4717.8  2046006.0  0.1  2 0  455 1226 1408
[08]  30(G31)  7 44 19  0    356.4  2045999.5  0.0  2 0 2843 3458 1639
[09]  31(G32)  7 41  7  0   1947.5  2045997.4 -0.0  2 0 1606 1698  503
[17]  38(B02) 1f 40 26  0  -1091.1  4092002.5 -0.3  2 0  913  997  518
[19]  40(B04) 1f 39 10  0  -1125.2  4092002.8  0.3  2 0 1510 1587  820
[21]  42(B06)  7 41  7  0   -576.3  4092001.4  0.0  2 0 2055 2212 1573
[22]  43(B07)  7 43  7  0   -855.8  4092002.1 -0.0  2 0 1767 2657 1529
[24]  45(B09)  7 43 11  0  -1146.0  4092002.9  0.0  2 0 1744 2139  717
[25]  46(B10)  7 44  7  0  -1111.0  4092002.8 -0.0  2 0 1755 2922 1519
[26]  52(B16)  7 43  8  0   -613.2  4092001.5 -0.0  2 0 1500 2238  986
[27]  54(B18)  7 45  7  0   -971.2  4092002.5  0.0  2 0 2174 3091 1169
[28]  55(B19)  7 44 13  0   1766.9  4091995.2 -0.0  2 0 1848 2706  969
[29]  57(B21)  1  7  7  0  -3593.4  4092007.5  0.0  1 0  562  728  518
[30]  58(B22)  7 45 11  0   -663.7  4092001.6 -0.0  2 0 2599 3297 1009
[32]  75(N-6)  1 20  7  0  -4748.5  1022004.1 -0.1  1 0  1043 1585  849
[33]  76(N-5)  1 23  7  0  -1630.5  1022001.6  0.5  1 0  1736 3417 1649
[34]  78(N-3)  1 25  7  0  -3985.7  1022002.9 -0.0  1 0   218  152  407
[35]  82(N01)  1 20 19  0   1500.0  1022001.5 -0.1  1 0   163  748  804
[36]  83(N02)  1 18  7  0   -750.1  1022002.4 -0.0  1 0   217 1714 2826
[37]  84(N03)  1  7  7  0  -1599.2  1022001.2  0.0  1 0   517  179  489
[38]  85(N04)  1  7  7  0 -97464.6  1022001.1 -0.0  1 0    22 1095 1992
[49]  38(B02)  1 19 19  1   -581.1 20460019.8  0.0  1 0  322  851  944
[51]  40(B04)  1 21 18  1  -1625.1 20460026.0 -0.1  1 0  328  368   97
---00000009--- Acq_st=7 0  2019-4-22 2:2:32 
[00]  02(G03)  f 40  7  0   -186.3  2046000.2  0.0  2 0  641 1316  623
[01]  13(G14)  f 43  7  0   1024.1  2045998.6 -0.0  2 0 2102 3221 1189
[03]  21(G22)  f 41  9  0    610.2  2045999.1 -0.1  2 0  739 1424  924
[04]  22(G23)  f 40  7  0  -4312.0  2046005.5 -0.1  2 0  976 1824 1059
[05]  25(G26)  f 45  9  0   -176.6  2046000.2 -0.0  2 0 2757 4299 1681
[06]  26(G27)  f 39  8  0  -4718.5  2046006.0 -0.1  2 0 1243 1611 1109
[08]  30(G31)  f 44 17  0    354.5  2045999.5  0.0  2 0 2523 3750 1984
[09]  31(G32)  f 41  8  0   1950.0  2045997.4 -0.0  2 0 1463 1939  935
[17]  38(B02) 1f 40 23  0  -1089.7  4092002.8  0.5  2 0 1203 1416  502
[19]  40(B04) 1f 39 23  0  -1125.0  4092002.8 -0.5  2 0 1161 1707  720
[21]  42(B06)  7 42  7  0   -581.2  4092001.4  0.1  2 0 1457 1565  877
[22]  43(B07)  7 43  7  0   -858.0  4092002.1 -0.0  2 0 2069 2121  691
[24]  45(B09)  7 43  7  0  -1149.7  4092002.9  0.1  2 0 1919 2499 1054
[25]  46(B10)  7 44  7  0  -1110.0  4092002.8  0.1  2 0 2107 3006 1254
[26]  52(B16)  7 43  7  0   -612.3  4092001.5  0.0  2 0 2164 2969 1336
[27]  54(B18)  7 44  7  0   -968.6  4092002.4 -0.0  2 0 2293 3397 1298
[28]  55(B19)  7 43  7  0   1770.8  4091995.3 -0.1  2 0 2267 2635  905
[29]  57(B21)  1  7  7  0  -3511.1  4092007.4  0.0  1 0   72  137  268
[30]  58(B22)  7 44 11  0   -660.3  4092001.6 -0.0  2 0 1918 2945 1558
[32]  75(N-6)  1 22  7  0  -4748.6  1022002.8  0.2  1 0  1067 1139  480
[33]  76(N-5)  1 25  7  0  -1629.4  1022000.9  1.0  1 0  2047 3186 1366
[34]  78(N-3)  1 26  7  0  -3984.6  1022002.9  0.3  1 0   154  286  351
[35]  82(N01)  1 24 19  0   1461.8  1021999.0  1.0  1 0  1160 1141  875
[36]  83(N02)  1 25 25  0   -684.0  1022000.6  1.0  1 0  1702 2734 1459
[37]  84(N03)  1 27 15  0  -1539.4  1022003.1  0.2  1 0   206  523  874
[38]  85(N04)  1 32 13  0   2259.0  1021998.9  1.0  1 0  1042 1037  365
[40]  86(N05)  1 27  7  0  -4606.7  1022004.2  0.3  1 0   149  259  241
[49]  38(B02)  7 10 17  1   -305.2 20460004.7  0.1  2 0  426  296  175
[51]  40(B04)  1 16 26  1  -1175.0 20460019.7 -0.1  1 0  196  655  376
$GNGGA,020231.769,,,,,0,00,,,M,,,,0000*21
$GNRMC,020231.769,A,,,,,,,070180,,*22
$GPGSA,A,1,,,,,,,,,,,,,,,*1E
$BDGSA,A,1,,,,,,,,,,,,,,,*0F
$GLGSA,A,1,,,,,,,,,,,,,,,*02
$GPGSV,2,1,08,03,00,000,40,14,00,000,43,22,00,000,41,23,00,000,40*77
$GPGSV,2,2,08,26,00,000,45,27,00,000,39,31,00,000,44,32,00,000,41*7D
$BDGSV,3,1,10,02,00,000,40,04,00,000,39,06,00,000,42,07,00,000,43*63
$BDGSV,3,2,10,09,00,000,43,10,00,000,44,16,00,000,43,18,00,000,44*6E
$BDGSV,3,3,10,19,00,000,43,22,00,000,44*66
$B3CN0,0,0,0,0,0,0,0,0,0,0,0,0,0,0*4C
---00000010--- Acq_st=7 0  2019-4-22 2:2:33 
[00]  02(G03)  f 39  7  0   -184.4  2046000.2 -0.1  2 0  507  943  490
[01]  13(G14)  f 43  7  0   1021.8  2045998.6  0.0  2 0 1411 2667  974
[03]  21(G22)  f 40  7  0    605.8  2045999.1  0.1  2 0  784 2076  942
[04]  22(G23)  f 40  7  0  -4306.6  2046005.5  0.1  2 0 1327 1797 1012
[05]  25(G26)  f 45  7  0   -177.6  2046000.2 -0.0  2 0 2645 4157 1844
[06]  26(G27)  f 39  8  0  -4718.0  2046006.0  0.1  2 0 1936 2253 1006
[08]  30(G31)  f 44 17  0    353.3  2045999.5  0.0  2 0 2535 3692 2102
[09]  31(G32)  f 41  7  0   1949.5  2045997.4  0.0  2 0 1324 2087 1051
[17]  38(B02) 1f 40 24  0  -1092.2  4092002.6 -0.4  2 0 1116 1598  431
[19]  40(B04) 1f 40 25  0  -1128.4  4092002.8  0.1  2 0  980 1067  136
[21]  42(B06)  7 42  7  0   -580.2  4092001.4 -0.0  2 0 1534 2068 1196
[22]  43(B07)  7 43  7  0   -856.2  4092002.1  0.0  2 0 1804 2378 1084
[24]  45(B09)  7 43  7  0  -1148.8  4092002.9  0.0  2 0 1922 2491 1170
[25]  46(B10)  7 43  7  0  -1109.0  4092002.8  0.0  2 0 1798 2671  561
[26]  52(B16)  7 43 12  0   -612.8  4092001.5 -0.0  2 0 1355 2014  747
[27]  54(B18)  7 44 11  0   -970.5  4092002.4 -0.0  2 0 2463 3406 1351
[28]  55(B19)  7 43  7  0   1771.2  4091995.3 -0.0  2 0 1974 2073  769
[30]  58(B22)  7 44 10  0   -664.6  4092001.6  0.0  2 0 2412 2890 1199
[32]  75(N-6)  7 28  7  0  -4748.2  1022003.0  0.4 10 0   711 1363  378
[33]  76(N-5)  7 26  7  0  -1629.1  1022001.0  0.9 10 0  1569 3078 1580
[34]  78(N-3)  7 33  7  0  -4012.8  1022002.5  0.1  5 0   495  473  254
[35]  82(N01)  7 41 17  0   1460.8  1021998.9 -0.4  2 0   614 1251  598
[36]  83(N02)  7 49 25  0   -681.9  1022000.4 -0.0  2 0  1913 2827 1221
[37]  84(N03)  7 38 19  0  -1544.1  1022000.9 -0.1  2 0   513  860  577
[38]  85(N04)  1 32 10  0   2259.7  1021998.2  1.0  1 0   944 1456  741
[40]  86(N05)  7 28  7  0  -4612.3  1022002.8  0.3 10 0   646 1059  660
[49]  38(B02)  7 10 10  1   -824.8 20460013.0 -0.0  2 0  469  216  235
[51]  40(B04)  1 19 22  1   -924.3 20460024.4  0.0  1 0  476  473  361
$GNGGA,020232.769,,,,,0,00,,,M,,,,0000*22
$GNRMC,020232.769,A,,,,,,,070180,,*21
$GPGSA,A,1,,,,,,,,,,,,,,,*1E
$BDGSA,A,1,,,,,,,,,,,,,,,*0F
$GLGSA,A,1,,,,,,,,,,,,,,,*02
$GPGSV,2,1,08,03,00,000,39,14,00,000,43,22,00,000,40,23,00,000,40*78
$GPGSV,2,2,08,26,00,000,45,27,00,000,39,31,00,000,44,32,00,000,41*7D
$BDGSV,3,1,10,02,00,000,40,04,00,000,40,06,00,000,42,07,00,000,43*6D
$BDGSV,3,2,10,09,00,000,43,10,00,000,43,16,00,000,43,18,00,000,44*69
$BDGSV,3,3,10,19,00,000,43,22,00,000,44*66
$B3CN0,0,0,0,0,0,0,0,0,0,0,0,0,0,0*4C
---00000011--- Acq_st=3 0  2019-4-22 2:2:34 
[00]  02(G03)  f 38  9  0   -183.1  2046000.2 -0.1  2 0 1410 1804  731
[01]  13(G14)  f 43  7  0   1021.7  2045998.6 -0.0  2 0 1540 2775 1317
[03]  21(G22)  f 41  7  0    610.5  2045999.1 -0.0  2 0 1145 2181 1546
[04]  22(G23)  f 40  7  0  -4309.2  2046005.5 -0.1  2 0  720 1658  762
[05]  25(G26)  f 45  7  0   -178.0  2046000.2 -0.0  2 0 2361 4203 1766
[06]  26(G27)  f 39  7  0  -4717.8  2046006.1 -0.1  2 0  824 1521  355
[08]  30(G31)  f 45 18  0    354.6  2045999.5  0.0  2 0 2606 3896 1787
[09]  31(G32)  f 41  7  0   1947.3  2045997.4  0.0  2 0 1530 2023  761
[17]  38(B02) 1f 40 27  0  -1094.3  4092002.8  0.5  2 0 1270 1541  716
[19]  40(B04) 1f 39 20  0  -1133.9  4092002.8 -0.1  2 0 1256 1698  912
[21]  42(B06) 1f 42  7  0   -579.6  4092001.4 -0.0  2 0 1855 2181  702
[22]  43(B07) 1f 43  7  0   -859.8  4092002.1  0.1  2 0 2210 2643 1405
[24]  45(B09) 1f 43  9  0  -1153.9  4092002.9  0.0  2 0 1514 2682 1100
[25]  46(B10) 1f 43  7  0  -1111.1  4092002.8  0.0  2 0 1990 3033 1562
[26]  52(B16) 1f 43  7  0   -613.2  4092001.5 -0.0  2 0 1740 2154  914
[27]  54(B18) 1f 44  7  0   -969.0  4092002.5 -0.0  2 0 1901 2971 1538
[28]  55(B19) 1f 43 12  0   1766.3  4091995.3 -0.0  2 0 2041 2626 1297
[30]  58(B22) 1f 43  7  0   -665.0  4092001.6  0.1  2 0 2209 3029 1367
[32]  75(N-6)  7 44  7  0  -4751.6  1022003.0  0.1  2 0   665 1592  989
[33]  76(N-5)  7 50  7  0  -1628.7  1022001.0  0.1  2 0  1457 3343 1696
[34]  78(N-3)  7 33  7  0  -4014.0  1022002.5 -0.0  5 0   194  293  204
[35]  82(N01)  7 41 21  0   1459.2  1021999.0  0.4  2 0   909 1136  561
[36]  83(N02)  7 48 27  0   -683.4  1022000.4  0.1  2 0  2130 3042 1574
[37]  84(N03)  7 38  7  0  -1545.2  1022000.8 -0.1  2 0   577 1038  482
[38]  85(N04)  7 35  7  0   2259.5  1021998.5  0.4  5 0   687 1518  781
[40]  86(N05)  7 35  7  0  -4615.7  1022002.9  0.0  2 0   651  820  196
[49]  38(B02)  7 19 10  1   -959.9 20460014.7  0.0  2 0  457  239  124
$GNGGA,020233.636,2944.9050,N,10633.0916,E,1,09,1.7,324.8,M,,,,0000*1E
$GNRMC,020233.636,A,2944.9050,N,10633.0916,E,0.44,0.00,070180,,*1E
$GPGSA,A,3,,,,,,,,,,,,,2.9,1.7,2.4*39
$BDGSA,A,3,02,04,06,07,09,10,16,19,22,,,,2.9,1.7,2.4*28
$GLGSA,A,3,,,,,,,,,,,,,2.9,1.7,2.4*25
$GPGSV,2,1,08,03,00,000,38,14,00,000,43,22,00,000,41,23,00,000,40*78
$GPGSV,2,2,08,26,00,000,45,27,00,000,39,31,00,000,45,32,00,000,41*7C
$BDGSV,3,1,10,02,00,000,40,04,00,000,39,06,00,000,42,07,00,000,43*63
$BDGSV,3,2,10,09,00,000,43,10,00,000,43,16,00,000,43,18,00,000,44*69
$BDGSV,3,3,10,19,00,000,43,22,00,000,43*61
$B3CN0,0,19,0,0,0,0,0,0,0,0,0,0,0,0*74
---00000012--- Acq_st=3 0  2000-1-7 2:2:34 
[00]  02(G03)  f 40  7  0   -187.8  2046000.2  0.1  2 0 1076 1410  977
[01]  13(G14)  f 43  7  0   1020.0  2045998.6  0.0  2 0 1911 2745  995
[02]  15(G16)  1 19  7  0  -2343.4  2046004.0  0.2  1 0 1394 3272 1717
[03]  21(G22)  f 41  7  0    606.1  2045999.2  0.0  2 0  748 1470  653
[04]  22(G23)  f 41  7  0  -4311.7  2046005.6  0.1  2 0 1256 2469 1085
[05]  25(G26)  f 45  7  0   -178.5  2046000.2  0.1  2 0 2825 4172 1711
[06]  26(G27)  f 39  7  0  -4726.0  2046006.1  0.1  2 0 1027 1717 1481
[08]  30(G31)  f 44 15  0    352.3  2045999.5 -0.0  2 0 2882 4269 2216
[09]  31(G32)  f 41  7  0   1948.6  2045997.4  0.0  2 0  797 1916  766
[17]  38(B02) 1f 41 19  0  -1092.4  4092002.7  0.3  2 0 1371 1993  709
[19]  40(B04) 1f 40 18  0  -1127.7  4092002.9 -0.7  2 0  281 1154  533
[21]  42(B06) 1f 42  8  0   -578.0  4092001.4  0.1  2 0 1384 1965 1008
[22]  43(B07) 1f 43  7  0   -856.8  4092002.1 -0.0  2 0 1870 2470 1308
[24]  45(B09) 1f 43  7  0  -1149.6  4092002.9  0.0  2 0 2052 2809 1387
[25]  46(B10) 1f 43  7  0  -1107.1  4092002.8  0.0  2 0 2138 3198 1320
[26]  52(B16) 1f 43  7  0   -615.2  4092001.5  0.1  2 0 1921 2625 1241
[27]  54(B18) 1f 44  7  0   -973.5  4092002.4 -0.0  2 0 2518 3231 1178
[28]  55(B19) 1f 43 13  0   1770.9  4091995.2  0.1  2 0 1983 3025 1578
[30]  58(B22) 1f 43 11  0   -661.3  4092001.6 -0.0  2 0 2114 2809 1319
[32]  75(N-6)  7 43 11  0  -4748.0  1022003.0 -0.0  2 0   693 1332  707
[33]  76(N-5)  7 50  7  0  -1626.9  1022001.0 -0.3  2 0  1811 3314 1466
[34]  78(N-3)  f 30  7  0  -4010.7  1022002.7 -0.0  5 0    29  122  424
[35]  82(N01)  7 41 21  0   1459.4  1021999.0  0.1  2 0   841  959  609
[36]  83(N02)  7 48 29  0   -681.8  1022000.4 -0.0  2 0  1733 3032 1858
[37]  84(N03)  7 38 20  0  -1541.7  1022000.9  0.3  2 0   210  801  388
[38]  85(N04)  7 43 13  0   2261.4  1021998.5 -0.2  2 0  1082 1660  885
[40]  86(N05)  7 36  7  0  -4611.5  1022002.8  0.1  2 0   339  710  240
[49]  38(B02)  7 20 14  1  -1529.8 20460025.9 -0.0  2 0  462  477  152
[51]  40(B04)  1 23 20  0  -1010.0 20460021.0  0.1  1 0  698  460  296
[53]  42(B06)  1 20  7  0   -838.9 20460008.6  0.0  1 0  343  590  341
[54]  43(B07)  1 21  7  0   -543.4 20460012.3 -0.0  1 0  496  256  614
[56]  45(B09)  1  7  7  0  -1203.6 20460016.8  0.0  1 0  386  240  437
[57]  46(B10)  1  7  7  0   -755.8 20460014.4  0.1  1 0  364  400  520
[58]  52(B16)  1  7  7  0   -388.2 20460009.5  0.2  1 0  141  182  205
[59]  54(B18)  1  7  7  0   -834.2 20460014.8 -0.0  1 0  586  656  390
[60]  55(B19)  1 10  7  0   1031.1 20459972.3 -0.2  1 0  756  553  290
[62]  58(B22)  1  7  7  0   -550.2 20460009.3  0.1  1 0  308  560  161
$GNGGA,020235.000,2944.9056,N,10633.0916,E,1,09,1.7,325.3,M,,,,0000*17
$GNRMC,020235.000,A,2944.9056,N,10633.0916,E,0.13,0.00,070180,,*1F
$GPGSA,A,3,,,,,,,,,,,,,2.9,1.7,2.4*39
$BDGSA,A,3,02,04,06,07,09,10,16,19,22,,,,2.9,1.7,2.4*28
$GLGSA,A,3,,,,,,,,,,,,,2.9,1.7,2.4*25
$GPGSV,2,1,08,03,00,000,40,14,00,000,43,22,00,000,41,23,00,000,41*76
$GPGSV,2,2,08,26,00,000,45,27,00,000,39,31,00,000,44,32,00,000,42*7E
$BDGSV,3,1,10,02,00,000,41,04,00,000,40,06,00,000,42,07,00,000,43*6C
$BDGSV,3,2,10,09,00,000,43,10,00,000,43,16,00,000,43,18,00,000,44*69
$BDGSV,3,3,10,19,00,000,43,22,00,000,43*61
$B3CN0,0,19,0,0,0,0,0,0,0,0,0,0,0,0*74
---00000013--- Acq_st=3 0  2000-1-7 2:2:35 
[00]  02(G03)  f 40  7  0   -183.2  2046000.2 -0.0  2 0 1248 1578  883
[01]  13(G14)  f 43  7  0   1024.0  2045998.6 -0.0  2 0 1786 2665 1281
[02]  15(G16)  7 23  7  0  -2336.1  2046003.0  0.7 10 0 1628 2349  863
[03]  21(G22)  f 41 11  0    615.5  2045999.1  0.1  2 0 1817 2063  553
[04]  22(G23)  f 41  7  0  -4301.7  2046005.5 -0.0  2 0 1378 2271  873
[05]  25(G26)  f 45  7  0   -171.8  2046000.2  0.0  2 0 2455 4164 1923
[06]  26(G27)  f 40  7  0  -4718.7  2046006.1 -0.0  2 0  614 1350  921
[08]  30(G31)  f 45 16  0    358.1  2045999.5  0.0  2 0 2146 3470 2011
[09]  31(G32)  f 41  7  0   1954.2  2045997.4 -0.0  2 0 1448 1736  171
[16]  37(B01)  1 10 10  1  -1142.5  4092005.6  0.4  1 0  789 1483 1055
[17]  38(B02) 1f 41 24  0  -1085.3  4092002.7 -0.0  2 0  918 1449  414
[18]  39(B03)  1 22 28  1   -938.2  4092001.8  0.1  1 0  367  212  487
[19]  40(B04) 1f 41 10  0  -1127.4  4092002.9 -0.1  2 0 1373 1701  886
[20]  41(B05)  1 10 23  1  -1088.2  4092004.5  0.3  1 0  365  828  688
[21]  42(B06) 1f 42  7  0   -571.4  4092001.4  0.1  2 0 2025 2418 1381
[22]  43(B07) 1f 43  7  0   -854.3  4092002.1  0.0  2 0 2223 3107 1478
[24]  45(B09) 1f 43  7  0  -1146.6  4092002.9 -0.0  2 0 1671 2038  718
[25]  46(B10) 1f 43  7  0  -1105.4  4092002.8 -0.0  2 0 2479 3390 1573
[26]  52(B16) 1f 43  8  0   -609.9  4092001.5 -0.0  2 0 1603 2783 1444
[27]  54(B18) 1f 44  7  0   -966.9  4092002.4  0.0  2 0 2368 3410 1604
[28]  55(B19) 1f 43 13  0   1773.4  4091995.2  0.0  2 0 2199 2884 1583
[30]  58(B22) 1f 43  7  0   -659.6  4092001.6 -0.1  2 0 1934 2423  948
[32]  75(N-6)  7 43  7  0  -4743.9  1022003.0  0.1  2 0   716 1207  996
[33]  76(N-5)  7 50  7  0  -1622.0  1022001.0 -0.2  2 0  1565 3186 1319
[34]  78(N-3)  f 32  7  0  -4005.9  1022002.6 -0.0  5 0    29  588  682
[35]  82(N01)  7 42 22  0   1463.2  1021999.0  0.2  2 0  1063 1336  552
[36]  83(N02)  7 48 26  0   -677.6  1022000.4  0.0  2 0  2028 3300 1539
[37]  84(N03)  7 39 19  0  -1536.9  1022001.0  0.3  2 0   773  945  557
[38]  85(N04)  7 44 13  0   2264.5  1021998.6  0.3  2 0   686 1282  516
[40]  86(N05)  7 37  7  0  -4608.5  1022002.9 -0.3  2 0   366  874  163
[51]  40(B04)  1 25 20  1   -857.2 20460026.5  0.1  1 0  206  206  535
[53]  42(B06)  1  7  7  0  -1061.1 20460010.0  0.0  1 0  468  518  579
[54]  43(B07)  1  7  7  0   -578.8 20460008.5  0.0  1 0  332  101  287
[56]  45(B09)  1  7 10  0  -1580.1 20460016.7 -0.1  1 0  382  438   81
[57]  46(B10)  1  7  7  0   -527.1 20460015.6  0.1  1 0  337  607  312
[58]  52(B16)  1  7  7  0   -725.3 20460009.7 -0.0  1 0  311  567  489
[59]  54(B18)  1  7  7  0   -741.0 20460015.5 -0.0  1 0  184  651 1017
[60]  55(B19)  1  7  7  0    461.9 20459972.7  0.1  1 0  303  376  658
[62]  58(B22)  1  7  9  0   -758.7 20460010.8  0.1  1 0  680  787  442
$GNGGA,020236.000,2944.9055,N,10633.0916,E,1,09,1.7,325.6,M,,,,0000*12
$GNRMC,020236.000,A,2944.9055,N,10633.0916,E,0.23,0.00,070180,,*1C
$GPGSA,A,3,,,,,,,,,,,,,2.9,1.7,2.4*39
$BDGSA,A,3,02,04,06,07,09,10,16,19,22,,,,2.9,1.7,2.4*28
$GLGSA,A,3,,,,,,,,,,,,,2.9,1.7,2.4*25
$GPGSV,3,1,09,03,00,000,40,14,00,000,43,16,00,000,23,22,00,000,41*74
$GPGSV,3,2,09,23,00,000,41,26,00,000,45,27,00,000,40,31,00,000,45*72
$GPGSV,3,3,09,32,00,000,41*44
$BDGSV,3,1,12,02,45,218,41,04,23,110,41,06,58,145,42,07,77,352,43*6D
$BDGSV,3,2,12,09,88,183,43,10,66,263,43,16,66,149,43,18,00,000,44*6A
$BDGSV,3,3,12,19,34,189,43,22,51,264,43,01,40,126,00,03,54,172,00*66
$B3CN0,0,0,0,0,0,0,0,0,0,0,0,0,0,0*4C
---00000014--- Acq_st=3 0  2000-1-7 2:2:36 
[00]  02(G03)  f 39  7  0   -184.2  2046000.2  0.2  2 0 1117 1634 1357
[01]  13(G14)  f 44  8  0   1031.6  2045998.6  0.0  2 0 1636 2582 1206
[02]  15(G16)  7 44  7  0  -2329.7  2046003.0  0.0  2 0 2317 2717 1411
[03]  21(G22)  f 42  7  0    617.2  2045999.1 -0.1  2 0 1369 2437 1084
[04]  22(G23)  f 40  7  0  -4299.4  2046005.5  0.0  2 0  798 1602  804
[05]  25(G26)  f 46  9  0   -169.3  2046000.2  0.0  2 0 2633 4064 1550
[06]  26(G27)  f 39  7  0  -4720.5  2046006.0  0.0  2 0  767 1674 1048
[08]  30(G31)  f 45 14  0    361.5  2045999.5  0.0  2 0 2661 4178 1647
[09]  31(G32)  f 41  7  0   1957.1  2045997.4  0.0  2 0 1349 2035  934
[16]  37(B01)  7 38 10  0  -1135.2  4092002.7 -0.6  2 0 1642 1206  444
[17]  38(B02) 1f 40 23  0  -1089.3  4092002.8 -0.1  2 0 1058 1581  690
[18]  39(B03)  1 10 10  1  -1337.3  4092003.2 -0.1  1 0  156  291  437
[19]  40(B04) 1f 41 36  0  -1127.1  4092002.8 -0.6  2 0 1129  711  421
[20]  41(B05)  7 10 10  1  -1107.8  4092003.0  0.2  2 0 1183  777  471
[21]  42(B06) 1f 42  7  0   -570.0  4092001.4 -0.0  2 0 1165 1871  975
[22]  43(B07) 1f 43  7  0   -849.3  4092002.1 -0.0  2 0 1954 2186 1198
[24]  45(B09) 1f 43  7  0  -1141.9  4092002.8 -0.0  2 0 1913 2132  636
[25]  46(B10) 1f 43  7  0  -1104.7  4092002.8 -0.1  2 0 1961 2506  698
[26]  52(B16) 1f 43  7  0   -608.1  4092001.5  0.0  2 0 1703 2303 1214
[27]  54(B18) 1f 44  7  0   -963.5  4092002.4 -0.0  2 0 2759 3142 1169
[28]  55(B19) 1f 43 12  0   1777.3  4091995.2  0.0  2 0 2254 2593 1091
[29]  57(B21)  1  7  7  0  -3250.0  4092010.4  0.0  1 0  272  959 1785
[30]  58(B22) 1f 43  9  0   -654.7  4092001.6  0.0  2 0 2354 2908 1677
[32]  75(N-6)  f 34  7  0  -4739.6  1022003.0  0.2  5 0  1010 1645  450
[33]  76(N-5)  f 35  7  0  -1618.2  1022001.0 -0.1  5 0  1560 3005 1504
[34]  78(N-3)  f 32  7  0  -4001.5  1022002.4  0.0  5 0   391  556  373
[35]  82(N01)  f 34 18  0   1467.6  1021999.0 -0.1  5 0   913 1181  630
[36]  83(N02)  f 34 16  0   -675.7  1022000.4 -0.1  5 0  1970 3211 1423
[37]  84(N03)  f 33  7  0  -1532.9  1022000.9 -0.1  5 0   537 1147  554
[38]  85(N04)  f 34  7  0   2268.8  1021998.5 -0.1  5 0   703 1326  758
[40]  86(N05)  f 32  7  0  -4603.6  1022002.9 -0.1  5 0   541  702  259
[49]  38(B02)  1 10 10  0  -1402.1 20460009.9  0.1  1 0  637  308  215
[51]  40(B04)  1 19 20  1   -982.8 20460026.5  0.0  1 0  920  451  689
[53]  42(B06)  1  8  7  0  -1125.3 20460008.8 -0.1  1 0  198  228  451
[54]  43(B07)  1  7  7  0   -465.0 20460008.0  0.0  1 0  553  483  471
[56]  45(B09)  1  7  7  0  -1477.4 20460019.0 -0.2  1 0  304  525  535
[57]  46(B10)  1  7  7  0   -848.4 20460015.7 -0.1  1 0  600  873  768
[58]  52(B16)  1  7  7  0   -530.0 20460008.4  0.0  1 0  404  486  441
[59]  54(B18)  1  7  7  0   -796.9 20460013.9 -0.2  1 0  315  597  130
[60]  55(B19)  1  9  7  0    987.9 20459972.7  0.0  1 0  328  326  170
[62]  58(B22)  1  7  7  0   -585.0 20460011.2 -0.0  1 0  316  272  267
$GNGGA,020237.000,2944.9058,N,10633.0917,E,1,09,1.7,324.4,M,,,,0000*1C
$GNRMC,020237.000,A,2944.9058,N,10633.0917,E,0.33,0.00,070180,,*10
$GPGSA,A,3,,,,,,,,,,,,,2.9,1.7,2.4*39
$BDGSA,A,3,02,04,06,07,09,10,16,19,22,,,,2.9,1.7,2.4*28
$GLGSA,A,3,,,,,,,,,,,,,2.9,1.7,2.4*25
$GPGSV,3,1,09,03,00,000,39,14,00,000,44,16,00,000,44,22,00,000,42*7F
$GPGSV,3,2,09,23,00,000,40,26,00,000,46,27,00,000,39,31,00,000,45*7E
$GPGSV,3,3,09,32,00,000,41*44
$BDGSV,3,1,12,01,40,126,38,02,45,218,40,04,23,110,41,06,58,145,42*63
$BDGSV,3,2,12,07,77,352,43,09,88,183,43,10,66,263,43,16,66,149,43*67
$BDGSV,3,3,12,18,00,000,44,19,34,189,43,22,51,264,43,03,54,172,00*6F
$B3CN0,0,0,0,0,0,0,0,0,0,0,0,0,0,0*4C
---00000015--- Acq_st=3 0  2000-1-7 2:2:37 
[00]  02(G03)  f 39  8  0   -189.4  2046000.2 -0.0  2 0  874 2156 1191
[01]  13(G14)  f 44  7  0   1022.2  2045998.6 -0.0  2 0 2066 2746  922
[02]  15(G16)  f 43  7  0  -2337.0  2046003.0 -0.0  2 0 1889 3133 1498
[03]  21(G22)  f 41  7  0    609.9  2045999.2  0.1  2 0 1098 2029 1255
[04]  22(G23)  f 40  7  0  -4306.7  2046005.5 -0.1  2 0 1060 1693 1013
[05]  25(G26)  f 45  8  0   -174.4  2046000.2 -0.1  2 0 2493 4130 1539
[06]  26(G27)  f 39  7  0  -4719.3  2046006.1  0.0  2 0  576 1344  362
[08]  30(G31)  f 45 12  0    353.6  2045999.5 -0.0  2 0 3098 4223 1644
[09]  31(G32)  f 42  7  0   1948.1  2045997.4  0.1  2 0  632 1703 1169
[16]  37(B01)  7 40 22  0  -1149.1  4092002.8 -0.3  2 0 1679 1589  746
[17]  38(B02) 1f 40 25  0  -1091.0  4092002.8 -0.0  2 0 1148 1352  824
[18]  39(B03)  7 42 30  0  -1138.8  4092003.2 -0.5  2 0  756 1779 1576
[19]  40(B04) 1f 40 22  0  -1126.1  4092002.8  0.1  2 0 1313 1290   86
[20]  41(B05)  7 33 26  0  -1082.2  4092002.6  0.2  2 0 1173 1000  389
[21]  42(B06) 1f 42  7  0   -577.5  4092001.4  0.1  2 0 2007 2088  770
[22]  43(B07) 1f 43  7  0   -859.0  4092002.1 -0.0  2 0 1618 2190  950
[24]  45(B09) 1f 43  8  0  -1151.1  4092002.9  0.0  2 0 1742 2168  601
[25]  46(B10) 1f 43  7  0  -1111.9  4092002.8 -0.0  2 0 1919 2714 1101
[26]  52(B16) 1f 43  7  0   -614.3  4092001.5 -0.0  2 0 1843 2686 1401
[27]  54(B18) 1f 44  7  0   -968.5  4092002.4 -0.0  2 0 2575 2902 1139
[28]  55(B19) 1f 44  7  0   1767.9  4091995.2 -0.0  2 0 1704 2369 1115
[29]  57(B21)  1  7 11  0  -3246.5  4092008.4  0.1  1 0 1260 1935  990
[30]  58(B22) 1f 43  7  0   -663.0  4092001.6 -0.1  2 0 2642 3513 1419
[32]  75(N-6)  f 43  7  0  -4747.3  1022003.0 -0.1  2 0   767 1303  330
[33]  76(N-5)  f 49  7  0  -1624.5  1022001.0  0.0  2 0  1745 3128 1551
[34]  78(N-3)  f 32  7  0  -4009.1  1022002.7 -0.0  5 0    72  235  192
[35]  82(N01)  f 41 19  0   1460.2  1021999.1  0.2  2 0   727 1004  340
[36]  83(N02)  f 47 11  0   -682.2  1022000.4  0.0  2 0  1537 3073 1575
[37]  84(N03)  f 38 14  0  -1540.0  1022000.9  0.4  2 0   649 1155  525
[38]  85(N04)  f 43  8  0   2261.1  1021998.5 -0.1  2 0  1011 1716 1013
[40]  86(N05)  f 37  7  0  -4612.8  1022002.9  0.1  2 0   215  649  169
[49]  38(B02)  1 14 18  0  -1255.0 20460015.3 -0.1  1 0  413  518  223
[51]  40(B04)  1 23 22  0  -1464.4 20460020.4  0.2  1 0  113  446   88
[53]  42(B06)  1  7  7  0   -743.7 20460008.5  0.1  1 0  274  185  221
[54]  43(B07)  1 15 10  0   -721.9 20460011.8 -0.0  1 0  508  536  461
[56]  45(B09)  1  7  7  0  -1902.2 20460020.5  0.0  1 0  217  388  188
[57]  46(B10)  1  7  7  0   -727.5 20460016.0 -0.1  1 0  442  456  222
[58]  52(B16)  1  7  7  0    -72.7 20460009.1  0.1  1 0  351  368  266
[59]  54(B18)  1  7  7  0   -202.9 20460016.6 -0.1  1 0  444  179  319
[60]  55(B19)  1  7  7  0   1498.8 20459973.4 -0.0  1 0  584  416  271
[62]  58(B22)  1  7  9  0   -468.7 20460011.9  0.0  1 0  248  116  440
$GNGGA,020238.000,2944.9059,N,10633.0916,E,1,09,1.7,324.1,M,,,,0000*16
$GNRMC,020238.000,A,2944.9059,N,10633.0916,E,0.53,0.00,070180,,*19
$GPGSA,A,3,,,,,,,,,,,,,2.9,1.7,2.4*39
$BDGSA,A,3,02,04,06,07,09,10,16,19,22,,,,2.9,1.7,2.4*28
$GLGSA,A,3,,,,,,,,,,,,,2.9,1.7,2.4*25
$GPGSV,3,1,09,03,00,000,39,14,00,000,44,16,00,000,43,22,00,000,41*7B
$GPGSV,3,2,09,23,00,000,40,26,00,000,45,27,00,000,39,31,00,000,45*7D
$GPGSV,3,3,09,32,00,000,42*47
$BDGSV,3,1,12,01,40,126,40,02,45,218,40,03,54,172,42,04,23,110,40*60
$BDGSV,3,2,12,05,26,244,33,06,58,145,42,07,77,352,43,09,88,183,43*64
$BDGSV,3,3,12,10,66,263,43,16,66,149,43,18,00,000,44,19,34,189,44*60
$B3CN0,0,0,0,0,0,0,0,0,0,0,0,0,0,0*4C
---00000016--- Acq_st=3 0  2000-1-7 2:2:38 
[00]  02(G03)  f 39  7  0   -182.8  2046000.2  0.1  2 0  969 1871  707
[01]  13(G14)  f 43  7  0   1022.8  2045998.6 -0.0  2 0 1883 2799 1012
[02]  15(G16)  f 43  7  0  -2337.8  2046003.0  0.0  2 0 2137 3296 1997
[03]  21(G22)  f 42  7  0    610.8  2045999.2 -0.1  2 0 1001 1774 1115
[04]  22(G23)  f 41  7  0  -4312.7  2046005.5  0.1  2 0 1020 1914  797
[05]  25(G26)  f 45  7  0   -175.3  2046000.2  0.0  2 0 2711 4921 2070
[06]  26(G27)  f 39  7  0  -4722.2  2046006.1 -0.0  2 0  983 1030  602
[08]  30(G31)  f 45 15  0    353.6  2045999.5 -0.0  2 0 2207 3938 2085
[09]  31(G32)  f 41  7  0   1946.9  2045997.4 -0.0  2 0 2103 2632 1183
[16]  37(B01)  f 40 10  0  -1150.0  4092002.8 -0.4  2 0 1384 1342  718
[17]  38(B02) 1f 41 23  0  -1094.6  4092002.7 -0.0  2 0 1203 1831 1028
[18]  39(B03)  f 43 27  0  -1142.5  4092003.1  0.0  2 0 1793 2646 1446
[19]  40(B04) 1f 41 24  0  -1125.9  4092002.8  0.6  2 0 1233 1505  354
[20]  41(B05)  f 33 21  0  -1095.6  4092002.6 -0.3  2 0  929  897  575
[21]  42(B06) 1f 42  7  0   -584.0  4092001.4  0.0  2 0 1696 2046  929
[22]  43(B07) 1f 43  7  0   -857.0  4092002.1 -0.0  2 0 2655 3389 1873
[24]  45(B09) 1f 43  7  0  -1152.7  4092002.9 -0.0  2 0 2088 2800 1378
[25]  46(B10) 1f 44  7  0  -1111.3  4092002.8 -0.0  2 0 1841 2979 1544
[26]  52(B16) 1f 43  7  0   -613.7  4092001.5 -0.0  2 0 2034 2435  634
[27]  54(B18) 1f 45 11  0   -974.8  4092002.4  0.0  2 0 2296 3078 1152
[28]  55(B19) 1f 44 11  0   1768.4  4091995.2 -0.0  2 0 1922 2394 1065
[29]  57(B21)  7 30  9  0  -3241.3  4092008.4  0.1  5 0 1896 2409 1071
[30]  58(B22) 1f 44 10  0   -662.9  4092001.6 -0.0  2 0 2355 3177 1536
[32]  75(N-6)  f 43  7  0  -4749.4  1022003.0  0.0  2 0   937 1280  108
[33]  76(N-5)  f 49  7  0  -1624.2  1022001.0 -0.0  2 0  2119 3138 1425
[34]  78(N-3)  f 32  7  0  -4010.7  1022002.5  0.2  5 0    65  251  322
[35]  82(N01)  f 41 16  0   1459.8  1021999.0 -0.0  2 0  1045 1653  539
[36]  83(N02)  f 46 18  0   -682.1  1022000.4 -0.0  2 0  1738 2912 1297
[37]  84(N03)  f 39 18  0  -1540.1  1022001.0 -0.1  2 0   764  862  446
[38]  85(N04)  f 43  7  0   2261.9  1021998.5  0.1  2 0   959 1593  849
[40]  86(N05)  f 36  7  0  -4613.5  1022002.9  0.1  2 0   299  521   85
[49]  38(B02)  1 17 10  1  -1048.4 20460022.3  0.0  1 0  583  501  261
[54]  43(B07)  f 20  7  0   -707.5 20460011.0  0.1 10 0  596  717  235
$GNGGA,020239.000,2944.9070,N,10633.0916,E,1,11,1.5,321.7,M,,,,0000*14
$GNRMC,020239.000,A,2944.9070,N,10633.0916,E,0.82,0.00,070180,,*1F
$GPGSA,A,3,,,,,,,,,,,,,2.7,1.5,2.3*32
$BDGSA,A,3,01,02,03,04,06,07,09,10,16,19,22,,2.7,1.5,2.3*21
$GLGSA,A,3,,,,,,,,,,,,,2.7,1.5,2.3*2E
$GPGSV,3,1,09,03,00,000,39,14,00,000,43,16,00,000,43,22,00,000,42*7F
$GPGSV,3,2,09,23,00,000,41,26,00,000,45,27,00,000,39,31,00,000,45*7C
$GPGSV,3,3,09,32,00,000,41*44
$BDGSV,3,1,12,01,40,126,40,02,45,218,41,03,54,172,43,04,23,110,41*61
$BDGSV,3,2,12,05,26,244,32,06,58,145,42,07,77,352,43,09,88,183,43*65
$BDGSV,3,3,12,10,66,263,44,16,66,149,43,18,00,000,45,19,34,189,44*66
$B3CN0,0,0,0,0,0,0,20,0,0,0,0,0,0,0*7E
---00000017--- Acq_st=7 0  2000-1-7 2:2:39 
[00]  02(G03)  f 40  7  0   -186.0  2046000.2  0.1  2 0 1589 1754  738
[01]  13(G14)  f 43  9  0   1025.0  2045998.6 -0.0  2 0 1273 2481 1299
[02]  15(G16)  f 43 10  0  -2334.9  2046003.0  0.0  2 0 1903 2897 1001
[03]  21(G22)  f 41  7  0    609.9  2045999.2 -0.0  2 0 1112 2212  808
[04]  22(G23)  f 41  8  0  -4307.3  2046005.5 -0.1  2 0 1243 1430  433
[05]  25(G26)  f 45  7  0   -174.6  2046000.2  0.0  2 0 2783 4615 2156
[06]  26(G27)  f 39  7  0  -4725.0  2046006.1  0.1  2 0  691 1461  802
[08]  30(G31)  f 45 18  0    356.5  2045999.5 -0.0  2 0 2305 4488 2196
[09]  31(G32)  f 42  7  0   1952.2  2045997.4 -0.1  2 0 1495 1798  179
[16]  37(B01) 1f 41 20  0  -1147.6  4092002.9 -0.4  2 0  983 1111  414
[17]  38(B02) 1f 40 23  0  -1094.1  4092002.7  0.1  2 0 1243 1700  965
[18]  39(B03) 1f 43 27  0  -1135.8  4092003.0  0.3  2 0 1004 2455 1521
[19]  40(B04) 1f 39 10  0  -1132.8  4092002.9  0.8  2 0 1138 1563  393
[20]  41(B05)  f 32 22  0  -1099.0  4092002.6  0.2  2 0 1620 1110  212
[21]  42(B06) 1f 42  9  0   -576.1  4092001.4  0.1  2 0 1472 1676  681
[22]  43(B07) 1f 43  7  0   -854.8  4092002.1  0.0  2 0 1444 1925  753
[24]  45(B09) 1f 43  7  0  -1151.2  4092002.9 -0.0  2 0 1412 1888 1004
[25]  46(B10) 1f 44  7  0  -1113.2  4092002.8  0.0  2 0 1816 2908 1409
[26]  52(B16) 1f 44  7  0   -612.6  4092001.5 -0.1  2 0 2244 2942 1344
[27]  54(B18) 1f 44  7  0   -969.5  4092002.4  0.0  2 0 1647 2464  772
[28]  55(B19) 1f 43 12  0   1769.7  4091995.2 -0.0  2 0 1946 2393  920
[29]  57(B21) 1f 41 14  0  -3241.2  4092008.4 -0.0  2 0 1529 2445 1243
[30]  58(B22) 1f 43  9  0   -659.0  4092001.6  0.1  2 0 2213 2859 1302
[32]  75(N-6)  f 43  7  0  -4744.7  1022003.0 -0.0  2 0  1032 1542  577
[33]  76(N-5)  f 48  7  0  -1621.2  1022001.0  0.1  2 0  1916 3409 1806
[34]  78(N-3)  f 32  7  0  -4008.7  1022002.6  0.1  5 0   575  972  643
[35]  82(N01)  f 42 16  0   1461.7  1021999.0 -0.1  2 0   738 1361  871
[36]  83(N02)  f 46 14  0   -680.7  1022000.4 -0.0  2 0  1926 3305 1389
[37]  84(N03)  f 38  7  0  -1537.1  1022000.9 -0.1  2 0   689  792  260
[38]  85(N04)  f 43  7  0   2263.9  1021998.6  0.3  2 0   802 1465  664
[40]  86(N05)  f 35  7  0  -4613.6  1022002.9 -0.1  2 0   196  584  363
[48]  37(B01)  1 19 36  1   -758.8 20460022.5  0.1  1 0  468  562  462
[49]  38(B02)  f 10 16  1  -1354.6 20460024.3 -0.1  2 0  708  415  281
[50]  39(B03)  1 20 20  0   -894.2 20460015.1 -0.0  1 0  137   55  435
[51]  40(B04)  1 24 22  0   -669.3 20460017.7  0.1  1 0  317  375  680
[53]  42(B06)  1  7  7  0   -438.9 20460006.7  0.0  1 0  419  404  533
[54]  43(B07)  f 26  8  0   -706.5 20460010.8  0.1 10 0  513  451  345
[56]  45(B09)  1 23  7  0   -924.8 20460017.4 -0.1  1 0  291  394  551
[57]  46(B10)  1  7  7  0   -527.2 20460016.2  0.0  1 0  625  647  349
[58]  52(B16)  1  7  9  0      5.0 20460009.1  0.0  1 0  414  480  501
[59]  54(B18)  1  7  7  0   -986.7 20460014.5  0.1  1 0  201  120  292
[60]  55(B19)  1  7  7  0   1590.7 20459972.8 -0.0  1 0  355  543  331
[62]  58(B22)  1  8  7  0   -427.2 20460011.2  0.0  1 0  464  250  364
$GNGGA,020240.000,2944.9099,N,10633.0922,E,1,12,1.1,319.2,M,,,,0000*13
$GNRMC,020240.000,A,2944.9099,N,10633.0922,E,0.20,0.00,070180,,*19
$GPGSA,A,3,,,,,,,,,,,,,1.8,1.1,1.4*3E
$BDGSA,A,3,01,02,03,04,06,07,09,10,16,19,21,22,1.8,1.1,1.4*2E
$GLGSA,A,3,,,,,,,,,,,,,1.8,1.1,1.4*22
$GPGSV,3,1,09,03,00,000,40,14,00,000,43,16,00,000,43,22,00,000,41*72
$GPGSV,3,2,09,23,00,000,41,26,00,000,45,27,00,000,39,31,00,000,45*7C
$GPGSV,3,3,09,32,00,000,42*47
$BDGSV,3,1,12,01,40,126,41,02,45,218,40,03,54,172,43,04,23,110,39*6E
$BDGSV,3,2,12,05,26,244,32,06,58,145,42,07,77,352,43,09,88,183,43*65
$BDGSV,3,3,12,10,66,263,44,16,66,149,44,18,00,000,44,19,34,189,43*67
$B3CN0,0,0,0,0,0,0,26,0,0,0,0,0,0,0*78
---00000018--- Acq_st=7 0  2000-1-7 2:2:40 
[00]  02(G03)  f 40  7  0   -178.3  2046000.2  0.1  2 0 1006 1418  570
[01]  13(G14)  f 43  7  0   1036.7  2045998.6 -0.0  2 0 2273 3006 1361
[02]  15(G16)  f 43  7  0  -2327.4  2046003.0  0.0  2 0 1998 3337 2025
[03]  21(G22)  f 40  7  0    621.7  2045999.1  0.1  2 0  564 1424  758
[04]  22(G23)  f 41  7  0  -4300.0  2046005.5  0.0  2 0 1014 1599  479
[05]  25(G26)  f 45  7  0   -162.9  2046000.1 -0.0  2 0 2655 4406 1786
[06]  26(G27)  f 39 10  0  -4707.2  2046006.0  0.1  2 0  782 1401  707
[08]  30(G31)  f 45 16  0    363.7  2045999.5  0.0  2 0 2567 3531 1484
[09]  31(G32)  f 42  9  0   1963.0  2045997.4  0.0  2 0 1096 1927  738
[16]  37(B01) 1f 39 36  0  -1136.1  4092002.9  0.0  2 0 1607 1788  892
[17]  38(B02) 1f 39 25  0  -1082.6  4092002.8  0.3  2 0 1209 1404  660
[18]  39(B03) 1f 43 31  0  -1127.1  4092002.9  0.2  2 0  802 1797  976
[19]  40(B04) 1f 40 18  0  -1116.6  4092002.8  0.6  2 0 1117 1423  644
[20]  41(B05)  f 35 26  0  -1087.5  4092002.7 -0.0  2 0 1090  561  449
[21]  42(B06) 1f 42  7  0   -568.8  4092001.3  0.0  2 0 1670 2021  401
[22]  43(B07) 1f 43  7  0   -846.6  4092002.1 -0.0  2 0 1897 2486 1130
[24]  45(B09) 1f 43  7  0  -1140.2  4092002.9  0.0  2 0 1957 2574 1357
[25]  46(B10) 1f 44  7  0  -1101.5  4092002.7 -0.0  2 0 2055 2666  850
[26]  52(B16) 1f 43 11  0   -602.3  4092001.5  0.1  2 0 2371 2816  805
[27]  54(B18) 1f 44  7  0   -959.3  4092002.4  0.0  2 0 2202 2991 1280
[28]  55(B19) 1f 44 11  0   1779.2  4091995.2 -0.0  2 0 2123 2599 1122
[29]  57(B21) 1f 41 16  0  -3227.2  4092008.3 -0.1  2 0 1482 1844  603
[30]  58(B22) 1f 44 10  0   -651.1  4092001.6 -0.0  2 0 2135 2612 1132
[32]  75(N-6)  f 44  7  0  -4735.2  1022003.0  0.2  2 0  1332 1963  909
[33]  76(N-5)  f 49  7  0  -1611.9  1022001.0 -0.1  2 0  1808 3171 1352
[34]  78(N-3)  f 32  7  0  -3999.5  1022002.5 -0.0  5 0   403  233  272
[35]  82(N01)  f 41 18  0   1470.1  1021999.1 -0.1  2 0   736 1183  493
[36]  83(N02)  f 47  9  0   -671.1  1022000.4 -0.0  2 0  1845 3065 1535
[37]  84(N03)  f 38 11  0  -1526.7  1022001.0  0.1  2 0   531  841  526
[38]  85(N04)  f 43  7  0   2274.1  1021998.5 -0.2  2 0   832 1633  632
[40]  86(N05)  f 34  7  0  -4604.9  1022002.9 -0.1  2 0   450  586  488
[48]  37(B01)  1 19 10  0    296.3 20460018.6  0.2  1 0  354  410  409
[49]  38(B02)  f 18 10  1  -1585.3 20460025.4  0.1  2 0  474  604  172
[50]  39(B03)  1 19 23  0   -668.7 20460013.0  0.1  1 0  488  543   59
[51]  40(B04)  1 23 24  0   -228.1 20460019.3  0.0  1 0  192  370  284
[53]  42(B06)  1  7  7  0    148.1 20460006.9 -0.1  1 0   52  329  400
[54]  43(B07)  f 26  7  0   -692.4 20460010.1 -0.1 10 0  608 1087  534
[56]  45(B09)  1  7  7  0  -1190.2 20460016.2 -0.2  1 0  288  390  167
[57]  46(B10)  1  7  7  0   -266.4 20460016.8  0.1  1 0 1129  657  384
[58]  52(B16)  1  7  7  0    359.0 20460008.9  0.0  1 0  897  971  553
[59]  54(B18)  1  7  7  0  -1673.2 20460014.1  0.0  1 0  233  461  543
[60]  55(B19)  1  7  7  0   2001.6 20459973.9 -0.1  1 0  675  272  421
[61]  57(B21)  1  7  9  0  -3029.6 20460051.5 -0.0  1 0  362  819  287
[62]  58(B22)  1  7 10  0   -873.0 20460010.4  0.0  1 0  568  209  256
$GNGGA,020241.000,2944.9097,N,10633.0922,E,1,12,1.1,319.3,M,,,,0000*1D
$GNRMC,020241.000,A,2944.9097,N,10633.0922,E,0.16,0.00,070180,,*13
$GPGSA,A,3,,,,,,,,,,,,,1.8,1.1,1.4*3E
$BDGSA,A,3,01,02,03,04,06,07,09,10,16,19,21,22,1.8,1.1,1.4*2E
$GLGSA,A,3,,,,,,,,,,,,,1.8,1.1,1.4*22
$GPGSV,3,1,09,03,00,000,40,14,00,000,43,16,00,000,43,22,00,000,40*73
$GPGSV,3,2,09,23,00,000,41,26,00,000,45,27,00,000,39,31,00,000,45*7C
$GPGSV,3,3,09,32,00,000,42*47
$BDGSV,3,1,12,01,40,126,39,02,45,218,39,03,54,172,43,04,23,110,40*61
$BDGSV,3,2,12,05,26,244,35,06,58,145,42,07,77,352,43,09,88,183,43*62
$BDGSV,3,3,12,10,66,263,44,16,66,149,43,18,00,000,44,19,34,189,44*67
$B3CN0,0,18,0,0,0,0,26,0,0,0,0,0,0,0*41
---00000019--- Acq_st=7 0  2000-1-7 2:2:41 
[00]  02(G03)  f 40  7  0   -177.6  2046000.2  0.0  2 0 1213 1968  964
[01]  13(G14)  f 43  7  0   1034.2  2045998.6  0.1  2 0 1596 2812 1396
[02]  15(G16)  f 43  8  0  -2326.3  2046003.0 -0.0  2 0 1981 3429 1484
[03]  21(G22)  f 40  7  0    617.8  2045999.1 -0.0  2 0 1579 1887  927
[04]  22(G23)  f 41  7  0  -4302.6  2046005.5  0.1  2 0 1309 1833  969
[05]  25(G26)  f 46  9  0   -166.5  2046000.2  0.1  2 0 2928 4878 2172
[06]  26(G27)  f 39  7  0  -4708.0  2046006.1  0.0  2 0 1161 1606  644
[08]  30(G31)  f 45 13  0    363.7  2045999.5  0.0  2 0 2221 3733 1678
[09]  31(G32)  f 41  7  0   1960.7  2045997.4  0.0  2 0 1783 1784  150
[16]  37(B01) 1f 41 17  0  -1135.1  4092002.8 -0.2  2 0 1534 1632  708
[17]  38(B02) 1f 41 24  0  -1086.6  4092002.8 -0.7  2 0 1443 1627  937
[18]  39(B03) 1f 43 30  0  -1129.6  4092002.9 -0.2  2 0  701 1691  945
[19]  40(B04) 1f 40 16  0  -1118.2  4092002.9 -0.3  2 0  936 1467  586
[20]  41(B05)  f 35 16  0  -1088.0  4092002.6 -0.1  2 0  843  884  256
[21]  42(B06) 1f 42  7  0   -569.2  4092001.3  0.0  2 0 1557 2156  868
[22]  43(B07) 1f 43  8  0   -849.9  4092002.1  0.0  2 0 2138 2542 1009
[24]  45(B09) 1f 43  7  0  -1142.3  4092002.8  0.0  2 0 1783 2608 1111
[25]  46(B10) 1f 43  7  0  -1103.1  4092002.8 -0.0  2 0 1994 2185  948
[26]  52(B16) 1f 43 11  0   -606.0  4092001.5  0.0  2 0 1980 2184  883
[27]  54(B18) 1f 44 10  0   -964.3  4092002.4 -0.0  2 0 2577 2981 1168
[28]  55(B19) 1f 43  7  0   1780.3  4091995.2 -0.0  2 0 1546 2212 1015
[29]  57(B21) 1f 41 13  0  -3232.8  4092008.4  0.0  2 0 1443 1967 1216
[30]  58(B22) 1f 44  7  0   -650.1  4092001.6 -0.1  2 0 2230 2790  845
[32]  75(N-6)  f 44  7  0  -4736.0  1022003.0 -0.1  2 0   783 1254  764
[33]  76(N-5)  f 49  7  0  -1611.0  1022001.0  0.0  2 0  2192 2986 1406
[34]  78(N-3)  f 32  7  0  -3999.5  1022002.5  0.0  5 0   378  285   45
[35]  82(N01)  f 41 18  0   1469.1  1021999.1 -0.0  2 0   912 1458  694
[36]  83(N02)  f 46  7  0   -671.7  1022000.4  0.0  2 0  1756 2980 1918
[37]  84(N03)  f 39 19  0  -1526.7  1022000.9 -0.4  2 0   420  786  349
[38]  85(N04)  f 43 10  0   2274.1  1021998.5  0.2  2 0   653 1297  666
[40]  86(N05)  f 32  7  0  -4614.3  1022002.7 -0.0  2 0   716  618  291
[48]  37(B01)  1 17 10  1     38.9 20460017.2  0.1  1 0  438  447  336
[49]  38(B02)  f 18 14  1  -1456.5 20460023.6 -0.1  2 0  375  285  383
[50]  39(B03)  1 22 22  1  -1286.7 20460021.3  0.0  1 0  803  816  582
[51]  40(B04)  1 23 36  1    373.9 20460017.0  0.1  1 0  767  888  930
[53]  42(B06)  1  7  7  0   -103.8 20460005.7  0.0  1 0  399  628  548
[54]  43(B07)  f 27  7  0   -704.5 20460009.8  0.0 10 0  166  208  590
[56]  45(B09)  1  7  7  0  -1511.7 20460017.6  0.1  1 0  127  201  412
[57]  46(B10)  1  7  7  0   -685.3 20460016.8 -0.2  1 0  342  370  266
[58]  52(B16)  1  7  7  0    655.8 20460009.9  0.0  1 0  661  126  204
[59]  54(B18)  1  8  7  0  -1578.7 20460013.9  0.1  1 0  895  395  430
[60]  55(B19)  1  7  7  0   1731.4 20459972.3  0.0  1 0  324  833  608
[61]  57(B21)  1  7  7  0  -3383.4 20460052.9 -0.1  1 0  207   43  590
[62]  58(B22)  1  7  7  0  -1018.3 20460010.1 -0.1  1 0  768  481  436
$GNGGA,020242.000,2944.9094,N,10633.0921,E,1,13,1.0,319.3,M,,,,0000*1E
$GNRMC,020242.000,A,2944.9094,N,10633.0921,E,0.45,0.00,070180,,*16
$GPGSA,A,3,,,,,,,,,,,,,1.6,1.0,1.3*36
$BDGSA,A,3,01,02,03,04,05,06,07,09,10,16,19,21,1.6,1.0,1.3*23
$GLGSA,A,3,,,,,,,,,,,,,1.6,1.0,1.3*2A
$GPGSV,3,1,09,03,00,000,40,14,00,000,43,16,00,000,43,22,00,000,40*73
$GPGSV,3,2,09,23,00,000,41,26,00,000,46,27,00,000,39,31,00,000,45*7F
$GPGSV,3,3,09,32,00,000,41*44
$BDGSV,3,1,12,01,40,126,41,02,45,218,41,03,54,172,43,04,23,110,40*61
$BDGSV,3,2,12,05,26,244,35,06,58,145,42,07,77,352,43,09,88,183,43*62
$BDGSV,3,3,12,10,66,263,43,16,66,149,43,18,00,000,44,19,34,189,43*67
$B3CN0,0,19,0,0,0,0,27,0,0,0,0,0,0,0*41
---00000020--- Acq_st=3 0  2000-1-7 2:2:42 
[00]  02(G03)  f 40  7  0   -184.2  2046000.2  0.0  2 0 1366 2043  979
[01]  13(G14)  f 43  7  0   1024.6  2045998.6 -0.0  2 0  872 2531 1426
[02]  15(G16)  f 44  7  0  -2333.9  2046003.0 -0.0  2 0 1850 2385 1189
[03]  21(G22)  f 41  7  0    609.7  2045999.1  0.1  2 0 1489 1992  540
[04]  22(G23)  f 41  7  0  -4312.7  2046005.5 -0.1  2 0 1136 1689  828
[05]  25(G26)  f 45  7  0   -175.3  2046000.2 -0.0  2 0 2742 4933 2143
[06]  26(G27)  f 39  9  0  -4728.4  2046006.1 -0.1  2 0 1679 2052  650
[08]  30(G31)  f 45 13  0    351.1  2045999.5 -0.1  2 0 1981 3610 1516
[09]  31(G32)  f 42  7  0   1951.7  2045997.4 -0.0  2 0 1331 2291 1344
[16]  37(B01) 1f 41 18  0  -1146.5  4092002.9 -0.0  2 0  825 1374  395
[17]  38(B02) 1f 41 20  0  -1094.2  4092002.8  0.4  2 0 1245 1334  344
[18]  39(B03) 1f 45 29  0  -1138.5  4092002.9  0.1  2 0 1619 2652 1422
[19]  40(B04) 1f 41 21  0  -1132.6  4092002.8  0.1  2 0 1115  964  282
[20]  41(B05) 1f 36 23  0  -1091.7  4092002.5 -0.6  2 0  930 1024  115
[21]  42(B06) 1f 42  7  0   -579.4  4092001.4 -0.0  2 0 1237 1897  828
[22]  43(B07) 1f 43  7  0   -857.3  4092002.1 -0.0  2 0 1579 2212  937
[24]  45(B09) 1f 43  7  0  -1152.7  4092002.9  0.0  2 0 2399 3009 1212
[25]  46(B10) 1f 43  7  0  -1109.6  4092002.8 -0.0  2 0 2193 2796  937
[26]  52(B16) 1f 43  7  0   -615.9  4092001.5  0.1  2 0 1684 2432  743
[27]  54(B18) 1f 44  7  0   -973.5  4092002.4  0.0  2 0 2535 2779 1152
[28]  55(B19) 1f 43  7  0   1769.1  4091995.2  0.0  2 0 2205 2788 1144
[29]  57(B21) 1f 41 13  0  -3242.0  4092008.4  0.0  2 0 1159 1189  134
[30]  58(B22) 1f 44 10  0   -663.8  4092001.6  0.0  2 0 1669 2889 1255
[32]  75(N-6)  f 43  7  0  -4746.1  1022003.0 -0.1  2 0   871 1606 1032
[33]  76(N-5)  f 49  7  0  -1621.2  1022001.0  0.1  2 0  1968 3377 1802
[34]  78(N-3)  f 32  7  0  -4009.3  1022002.5  0.0  5 0   227  231  255
[35]  82(N01)  f 41 18  0   1459.1  1021999.1 -0.2  2 0   640 1177  706
[36]  83(N02)  f 46 18  0   -681.7  1022000.4  0.1  2 0  2029 3049 1388
[37]  84(N03)  f 39  7  0  -1536.1  1022001.0  0.2  2 0   441  808  425
[38]  85(N04)  f 43  7  0   2263.2  1021998.5 -0.2  2 0   835 1673  828
[40]  86(N05)  f 33  7  0  -4615.3  1022003.0 -0.0  5 0   382  411  204
[48]  37(B01)  1 10 10  1    654.1 20460027.0 -0.2  1 0  706  628  339
[50]  39(B03)  1 20 16  1  -1114.8 20460021.8 -0.1  1 0  583  598  374
[51]  40(B04)  1 23 24  1    803.0 20460023.3  0.1  1 0  143  133  457
[53]  42(B06)  1  7  7  0   -292.2 20460005.9 -0.0  1 0   46  198  128
[54]  43(B07)  f 26  9  0   -705.2 20460009.8  0.0 10 0  287  428  711
[56]  45(B09)  1  7  7  0  -1932.9 20460017.2 -0.1  1 0  628  194  294
[57]  46(B10)  1  7  7  0   -753.8 20460016.0  0.0  1 0  622  288  247
[58]  52(B16)  1  7  7  0    508.8 20460008.8 -0.0  1 0  632  291   86
[59]  54(B18)  1  7  7  0  -1335.1 20460014.9  0.0  1 0  216  314  128
[60]  55(B19)  1  7  7  0   1502.6 20459972.5 -0.1  1 0  352  654  792
[61]  57(B21)  1  8  7  0  -3365.5 20460053.5  0.0  1 0  405  796  748
[62]  58(B22)  1  7  7  0  -1802.3 20460010.3 -0.1  1 0  920  864  351
$GNGGA,020243.000,2944.9091,N,10633.0921,E,1,13,1.0,319.3,M,,,,0000*1A
$GNRMC,020243.000,A,2944.9091,N,10633.0921,E,0.08,0.00,070180,,*1B
$GPGSA,A,3,,,,,,,,,,,,,1.6,1.0,1.3*36
$BDGSA,A,3,01,02,03,04,05,06,07,09,10,16,19,21,1.6,1.0,1.3*23
$GLGSA,A,3,,,,,,,,,,,,,1.6,1.0,1.3*2A
$GPGSV,3,1,09,03,00,000,40,14,00,000,43,16,00,000,44,22,00,000,41*75
$GPGSV,3,2,09,23,00,000,41,26,00,000,45,27,00,000,39,31,00,000,45*7C
$GPGSV,3,3,09,32,00,000,42*47
$BDGSV,3,1,12,01,40,126,41,02,45,218,41,03,54,172,45,04,23,110,41*66
$BDGSV,3,2,12,05,26,244,36,06,58,145,42,07,77,352,43,09,88,183,43*61
$BDGSV,3,3,12,10,66,263,43,16,66,149,43,18,00,000,44,19,34,189,43*67
$B3CN0,0,0,0,0,0,0,26,0,0,0,0,0,0,0*78
---00000021--- Acq_st=3 0  2000-1-7 2:2:43 
[00]  02(G03)  f 40  7  0   -190.2  2046000.2  0.0  2 0  859 1549  315
[01]  13(G14)  f 43  7  0   1022.2  2045998.6  0.0  2 0 1741 2461 1171
[02]  15(G16)  f 43  7  0  -2336.3  2046003.0 -0.0  2 0 1907 2755 1341
[03]  21(G22)  f 41  7  0    603.3  2045999.1  0.0  2 0 1568 1911  785
[04]  22(G23)  f 41  7  0  -4317.5  2046005.5 -0.0  2 0 1014 1589  819
[05]  25(G26)  f 45  9  0   -177.8  2046000.2 -0.0  2 0 3089 4377 1663
[06]  26(G27)  f 39  7  0  -4726.0  2046006.1 -0.1  2 0 1025  962  414
[08]  30(G31)  f 45 12  0    351.5  2045999.5  0.1  2 0 2438 4396 1979
[09]  31(G32)  f 42  7  0   1950.0  2045997.4  0.1  2 0 1348 2169 1154
[16]  37(B01) 1f 40 10  0  -1148.6  4092002.9  0.0  2 0 1120 1370  708
[17]  38(B02) 1f 40 26  0  -1095.6  4092002.8 -0.3  2 0 1275 1502  237
[18]  39(B03) 1f 41 27  0  -1142.1  4092002.9  0.1  2 0 1715 1934  477
[19]  40(B04) 1f 40 23  0  -1127.8  4092002.9 -0.8  2 0  671  986  437
[20]  41(B05) 1f 36 26  0  -1097.8  4092002.6 -0.1  2 0 1725 1871 1006
[21]  42(B06) 1f 42  9  0   -578.8  4092001.4 -0.0  2 0 1591 2191 1314
[22]  43(B07) 1f 43  7  0   -859.3  4092002.1  0.0  2 0 2062 2667  733
[24]  45(B09) 1f 43  7  0  -1152.3  4092002.9  0.0  2 0 2037 2168  654
[25]  46(B10) 1f 43  7  0  -1114.3  4092002.8  0.0  2 0 1877 2273  547
[26]  52(B16) 1f 43  7  0   -620.2  4092001.5  0.0  2 0 1989 2685 1415
[27]  54(B18) 1f 44  7  0   -972.7  4092002.4  0.0  2 0 2227 3087 1444
[28]  55(B19) 1f 43 11  0   1769.4  4091995.2 -0.0  2 0 1832 2757 1372
[29]  57(B21) 1f 41 14  0  -3240.9  4092008.4  0.1  2 0 1479 1713  947
[30]  58(B22) 1f 44 12  0   -663.7  4092001.6 -0.0  2 0 2334 2908 1388
[32]  75(N-6)  f 44  7  0  -4748.4  1022003.0  0.0  2 0   819 1756 1092
[33]  76(N-5)  f 49  7  0  -1622.8  1022001.0  0.1  2 0  1912 3395 1747
[34]  78(N-3)  f 32  7  0  -4012.6  1022002.5  0.1  5 0   525  779  359
[35]  82(N01)  f 41 19  0   1455.6  1021999.0  0.1  2 0  1027 1536  522
[36]  83(N02)  f 47 17  0   -683.9  1022000.4 -0.0  2 0  1509 3169 1775
[37]  84(N03)  f 39 17  0  -1537.4  1022001.0  0.3  2 0   773 1070  491
[38]  85(N04)  f 43  7  0   2261.0  1021998.5 -0.1  2 0   804 1553  330
[40]  86(N05)  f 33  7  0  -4618.3  1022003.0  0.1  5 0   107  329  356
[48]  37(B01)  1 16 20  0    459.8 20460024.4  0.1  1 0  209  265  398
[49]  38(B02)  1 10 13  1   -888.0 20460007.8 -0.1  1 0   66  486  218
[50]  39(B03)  1 22 20  0  -1192.4 20460024.7  0.1  1 0  115  264  350
[51]  40(B04)  1 27 10  0    739.8 20460024.1  0.0  1 0  336  484  747
[52]  41(B05)  1 20 23  0   -886.0 20460018.6 -0.0  1 0  315  892 1324
[53]  42(B06)  1  7  7  0   -246.4 20460006.7 -0.0  1 0  640  840  548
[54]  43(B07)  f 22  7  0   -751.3 20460010.3  0.0 10 0  541  456  227
[56]  45(B09)  1  7  7  0  -1626.4 20460016.4 -0.1  1 0  274  261  243
[57]  46(B10)  1  7  7  0   -580.6 20460017.0  0.1  1 0  207  285  867
[58]  52(B16)  1  7  7  0    528.2 20460008.7  0.0  1 0  106  296  266
[59]  54(B18)  1  7  7  0  -1553.2 20460016.4  0.1  1 0  487    7  183
[60]  55(B19)  1  7  7  0   1589.3 20459973.1 -0.2  1 0  134  528  377
[61]  57(B21)  1  8  7  0  -3198.8 20460053.8  0.1  1 0  274  861  373
[62]  58(B22)  1  9  7  0  -2507.3 20460009.5  0.0  1 0  535  103  259
$GNGGA,020244.000,2944.9087,N,10633.0920,E,1,13,1.0,319.9,M,,,,0000*11
$GNRMC,020244.000,A,2944.9087,N,10633.0920,E,0.09,0.00,070180,,*1B
$GPGSA,A,3,,,,,,,,,,,,,1.6,1.0,1.3*36
$BDGSA,A,3,01,02,03,04,05,06,07,09,10,16,19,21,1.6,1.0,1.3*23
$GLGSA,A,3,,,,,,,,,,,,,1.6,1.0,1.3*2A
$GPGSV,3,1,09,03,00,000,40,14,00,000,43,16,00,000,43,22,00,000,41*72
$GPGSV,3,2,09,23,00,000,41,26,00,000,45,27,00,000,39,31,00,000,45*7C
$GPGSV,3,3,09,32,00,000,42*47
$BDGSV,3,1,12,01,40,126,40,02,45,218,40,03,54,172,41,04,23,110,40*63
$BDGSV,3,2,12,05,26,244,36,06,58,145,42,07,77,352,43,09,88,183,43*61
$BDGSV,3,3,12,10,66,263,43,16,66,149,43,18,00,000,44,19,34,189,43*67
$B3CN0,0,0,0,0,0,0,22,0,0,0,0,0,0,0*7C
---00000022--- Acq_st=3 0  2000-1-7 2:2:44 
[00]  02(G03)  f 40  7  0   -179.4  2046000.1 -0.0  2 0 1273 1958  980
[01]  13(G14)  f 43  7  0   1032.6  2045998.6 -0.0  2 0 2093 2714  592
[02]  15(G16)  f 44  7  0  -2328.9  2046003.0  0.1  2 0 2303 3361 1701
[03]  21(G22)  f 42  7  0    616.4  2045999.2 -0.1  2 0 1396 1890  883
[04]  22(G23)  f 41  7  0  -4307.7  2046005.5  0.1  2 0 1767 1867  420
[05]  25(G26)  f 45  7  0   -169.2  2046000.2  0.1  2 0 2613 4664 2302
[06]  26(G27)  f 39  7  0  -4715.8  2046006.1 -0.0  2 0  749 1443  959
[08]  30(G31)  f 44  7  0    357.8  2045999.5 -0.0  2 0 2465 3898 1419
[09]  31(G32)  f 42  7  0   1956.5  2045997.4 -0.0  2 0 1004 1985 1372
[16]  37(B01) 1f 41 19  0  -1141.5  4092002.8 -0.1  2 0 1636 2067  886
[17]  38(B02) 1f 41 25  0  -1085.7  4092002.7  0.2  2 0  833 1037  264
[18]  39(B03) 1f 42 29  0  -1134.3  4092002.8  0.1  2 0 1393 1696  356
[19]  40(B04) 1f 40 10  0  -1125.0  4092002.8 -0.4  2 0  987 1215  435
[20]  41(B05) 1f 38 21  0  -1086.9  4092002.6 -0.7  2 0 1166 1127  415
[21]  42(B06) 1f 42  7  0   -572.6  4092001.4 -0.0  2 0 1372 1997 1015
[22]  43(B07) 1f 44  7  0   -853.0  4092002.1  0.0  2 0 2119 2545 1141
[24]  45(B09) 1f 43  7  0  -1143.4  4092002.9  0.0  2 0 1815 2350 1057
[25]  46(B10) 1f 43  7  0  -1106.6  4092002.8 -0.0  2 0 1712 2233  632
[26]  52(B16) 1f 43  7  0   -607.6  4092001.4 -0.0  2 0 1789 2467  957
[27]  54(B18) 1f 44  7  0   -965.8  4092002.4 -0.1  2 0 2483 3192 1388
[28]  55(B19) 1f 43  9  0   1774.4  4091995.2  0.0  2 0 1789 2429  955
[29]  57(B21) 1f 40 16  0  -3234.0  4092008.4  0.0  2 0  703 1275  585
[30]  58(B22) 1f 44  7  0   -652.2  4092001.6  0.0  2 0 2208 3140 1209
[32]  75(N-6)  f 43  7  0  -4737.5  1022003.0  0.4  2 0   651 1126  725
[33]  76(N-5)  f 49  7  0  -1613.5  1022001.0 -0.1  2 0  1813 2833 1298
[34]  78(N-3)  f 32  7  0  -4002.8  1022002.5  0.1  5 0    39  468  345
[35]  82(N01)  f 41 18  0   1465.3  1021999.0 -0.2  2 0   670 1144  278
[36]  83(N02)  f 48 16  0   -675.8  1022000.4  0.0  2 0  1907 3247 1221
[37]  84(N03)  f 38 18  0  -1530.9  1022000.9  0.3  2 0   375  718  212
[38]  85(N04)  f 43  7  0   2271.0  1021998.5  0.0  2 0  1162 1531  627
[40]  86(N05)  f 32  7  0  -4609.4  1022002.9  0.1  5 0   215  625   73
[49]  38(B02)  1 10 18  0   -565.2 20460021.3 -0.0  1 0  379  102  503
[52]  41(B05)  1 26 23  0  -1153.1 20460019.8 -0.1  1 0  238  757  360
[54]  43(B07)  f 11  7  0   -778.9 20460013.3  0.0 10 0  710  282  402
[61]  57(B21)  1  7  7  0  -2798.8 20460051.0  0.2  1 0  291  273  263
$GNGGA,020245.000,2944.9082,N,10633.0919,E,1,13,1.0,320.0,M,,,,0000*1C
$GNRMC,020245.000,A,2944.9082,N,10633.0919,E,0.22,0.00,070180,,*1C
$GPGSA,A,3,,,,,,,,,,,,,1.6,1.0,1.3*36
$BDGSA,A,3,01,02,03,04,05,06,07,09,10,16,19,21,1.6,1.0,1.3*23
$GLGSA,A,3,,,,,,,,,,,,,1.6,1.0,1.3*2A
$GPGSV,3,1,09,03,00,000,40,14,00,000,43,16,00,000,44,22,00,000,42*76
$GPGSV,3,2,09,23,00,000,41,26,00,000,45,27,00,000,39,31,00,000,44*7D
$GPGSV,3,3,09,32,00,000,42*47
$BDGSV,3,1,12,01,40,126,41,02,45,218,41,03,54,172,42,04,23,110,40*60
$BDGSV,3,2,12,05,26,244,38,06,58,145,42,07,77,352,44,09,88,183,43*68
$BDGSV,3,3,12,10,66,263,43,16,66,149,43,18,00,000,44,19,34,189,43*67
$B3CN0,0,0,0,0,0,0,0,0,0,0,0,0,0,0*4C
---00000023--- Acq_st=3 0  2000-1-7 2:2:45 
