SD initialized success
Create debug.log Failed! 3
bbram_blkflag = 1
rtcflag = 128
BBRAM Block OK: 01 EPHflag: 4660a1c8 ac4483ff, rtc 80
GPS 0 Init Dop: 10000,80
GPS 1 Init Dop: 10000,80
GPS 2 Init Dop: 10000,80
GPS 3 Init Dop: 10000,80
GPS 4 Init Dop: 10000,80
GPS 5 Init Dop: 10000,80
GPS 6 Init Dop: 10000,80
GPS 7 Init Dop: 10000,80
GPS 8 Init Dop: 10000,80
GPS 9 Init Dop: 10000,80
GPS10 Init Dop: 10000,80
GPS11 Init Dop: 10000,80
GPS12 Init Dop: 10000,80
GPS13 Init Dop: 10000,80
GPS14 Init Dop: 10000,80
GPS15 Init Dop: 10000,80
GPS16 Init Dop: 10000,80
GPS17 Init Dop: 10000,80
GPS18 Init Dop: 10000,80
GPS19 Init Dop: 10000,80
GPS20 Init Dop: 10000,80
GPS21 Init Dop: 10000,80
GPS22 Init Dop: 10000,80
GPS23 Init Dop: 10000,80
GPS24 Init Dop: 10000,80
GPS25 Init Dop: 10000,80
GPS26 Init Dop: 10000,80
GPS27 Init Dop: 10000,80
GPS28 Init Dop: 10000,80
GPS29 Init Dop: 10000,80
GPS30 Init Dop: 10000,80
GPS31 Init Dop: 10000,80
BDS 0 Init Dop: 10000,80
BDS 1 Init Dop: 10000,80
BDS 2 Init Dop: 10000,80
BDS 3 Init Dop: 10000,80
BDS 4 Init Dop: 10000,80
BDS 5 Init Dop: 10000,80
BDS 6 Init Dop: 10000,80
BDS 7 Init Dop: 10000,80
BDS 8 Init Dop: 10000,80
BDS 9 Init Dop: 10000,80
BDS10 Init Dop: 10000,80
BDS11 Init Dop: 10000,80
BDS12 Init Dop: 10000,80
BDS13 Init Dop: 10000,80
BDS14 Init Dop: 10000,80
BDS15 Init Dop: 10000,80
BDS16 Init Dop: 10000,80
BDS17 Init Dop: 10000,80
BDS18 Init Dop: 10000,80
BDS19 Init Dop: 10000,80
BDS20 Init Dop: 10000,80
BDS21 Init Dop: 10000,80
BDS22 Init Dop: 10000,80
BDS23 Init Dop: 10000,80
BDS24 Init Dop: 10000,80
BDS25 Init Dop: 10000,80
BDS26 Init Dop: 10000,80
BDS27 Init Dop: 10000,80
BDS28 Init Dop: 10000,80
BDS29 Init Dop: 10000,80
BDS30 Init Dop: 10000,80
BDS31 Init Dop: 10000,80
Good luck!
ch0 satid=0 freq=-4000 acq ok!
ch1 satid=3 freq=750 acq ok!
ch2 satid=6 freq=-2000 acq ok!
ch3 satid=7 freq=1000 acq ok!
ch4 satid=8 freq=1500 acq ok!
ch5 satid=10 freq=-2750 acq ok!
$GNGGA,000000.000,,,,,0,00,,,M,,,,0000*2B
$GNRMC,000000.000,A,,,,,,,060180,,*29
$GPGSA,A,1,,,,,,,,,,,,,,,*1E
$BDGSA,A,1,,,,,,,,,,,,,,,*0F
$GLGSA,A,1,,,,,,,,,,,,,,,*02
$B3CN0,0,0,0,0,0,0,0,0,0,0,0,0,0,0*4C
---00000001--- Acq_st=3 0  2000-1-1 0:1:40 
[00]  00(G01)  1 26 14  0  -4108.6  2046005.5  0.2  1 0 1490 2467 1222
[01]  03(G04)  1 21  7  0    824.7  2045999.6  0.2  1 0 1833 1910  760
[02]  06(G07)  1  7  7  0  -2062.7  2046004.4  0.1  1 0 1395 3665 3598
[03]  07(G08)  1 22  7  0   1000.0  2046000.2 -0.0  1 0 1688 3652 2232
[04]  08(G09)  1 21  7  0   1500.0  2045999.7 -0.1  1 0 1445 2580 1186
[05]  10(G11)  1  7  7  0  -2750.0  2046005.3 -0.0  1 0  483  369 2329
ch6 satid=17 freq=-2750 acq ok!
ch8 satid=26 freq=2250 acq ok!
$GNGGA,000000.000,,,,,0,00,,,M,,,,0000*2B
$GNRMC,000000.000,A,,,,,,,060180,,*29
$GPGSA,A,1,,,,,,,,,,,,,,,*1E
$BDGSA,A,1,,,,,,,,,,,,,,,*0F
$GLGSA,A,1,,,,,,,,,,,,,,,*02
$B3CN0,0,0,0,0,0,0,0,0,0,0,0,0,0,0*4C
---00000002--- Acq_st=3 0  2000-1-1 0:1:41 
[00]  00(G01)  7 25  7  0  -4105.3  2046005.3  0.7 10 0 1093 1641  733
[01]  03(G04)  7 16  7  0    828.8  2045998.8  1.0 10 0  754 1227  168
[02]  06(G07)  1 35  7  0  -2064.7  2046002.6  1.0  1 0 3174 4357 1820
[03]  07(G08)  1 33 16  0    990.8  2045998.3  0.9  1 0 2624 3813 1762
[04]  08(G09)  1 31  7  0   1484.3  2045997.9  0.8  1 0 1350 1844  392
[05]  10(G11)  1 33  7  0  -2781.8  2046004.1  0.7  1 0 1757 2199  906
[06]  17(G18)  1 22  7  0  -2720.2  2046006.8  0.0  1 0  532 1825 3242
[08]  26(G27)  1  7  7  0   2250.0  2045999.0 -0.0  1 0  829 1749 1757
ch10 satid=29 freq=-3750 acq ok!
ch18 satid=39 freq=-1000 acq ok!
$GNGGA,000000.000,,,,,0,00,,,M,,,,0000*2B
$GNRMC,000000.000,A,,,,,,,060180,,*29
$GPGSA,A,1,,,,,,,,,,,,,,,*1E
$BDGSA,A,1,,,,,,,,,,,,,,,*0F
$GLGSA,A,1,,,,,,,,,,,,,,,*02
$GPGSV,1,1,02,01,00,000,25,04,00,000,16*7E
$B3CN0,0,0,0,0,0,0,0,0,0,0,0,0,0,0*4C
---00000003--- Acq_st=3 0  2000-1-1 0:1:42 
[00]  00(G01)  7 43  7  0  -4103.1  2046005.3 -0.0  2 0 1417 2476 1132
[01]  03(G04)  7 39  7  0    833.3  2045998.8  0.2  2 0  924 1183  772
[02]  06(G07)  7 39  7  0  -2062.1  2046002.6  0.1  2 0 2992 4514 2152
[03]  07(G08)  7 37 12  0    994.3  2045998.6  0.2  2 0 2541 3885 1779
[04]  08(G09)  7 35  7  0   1485.0  2045998.0  0.2  5 0 1686 2107  956
[05]  10(G11)  7 32  7  0  -2778.5  2046003.5  0.3  5 0 2034 2760 1507
[06]  17(G18)  7 22  7  0  -2718.9  2046003.4  0.7 10 0 1561 2146  867
[08]  26(G27)  1 24  7  0   2118.8  2045997.1  0.3  1 0  925 1013  652
[09]  27(G28)  1 21  7  0  -2821.6  2046005.0  0.2  1 0  575 1312 1093
[10]  29(G30)  1 27  7  0  -3779.7  2046006.2  0.1  1 0 1570 3527 2102
[16]  37(B01)  1 13 23  0  -1082.2  4092004.4 -0.0  1 0  649  813 1117
[17]  38(B02)  1 24 10  1  -1250.0  4092003.8  0.0  1 0  542  846 1170
[18]  39(B03)  1 10 32  1  -1000.0  4092002.6  0.1  1 0  254 1230 2055
[19]  40(B04)  1 10 23  0  -1000.0  4092003.1  0.0  1 0  368   69  862
ch21 satid=43 freq=-1500 acq ok!
ch22 satid=44 freq=-2500 acq ok!
ch25 satid=46 freq=-1500 acq ok!
$GNGGA,000000.000,,,,,0,00,,,M,,,,0000*2B
$GNRMC,000000.000,A,,,,,,,060180,,*29
$GPGSA,A,1,,,,,,,,,,,,,,,*1E
$BDGSA,A,1,,,,,,,,,,,,,,,*0F
$GLGSA,A,1,,,,,,,,,,,,,,,*02
$GPGSV,2,1,07,01,00,000,43,04,00,000,39,07,00,000,38,08,00,000,37*75
$GPGSV,2,2,07,09,00,000,35,11,00,000,32,18,00,000,21*4A
$B3CN0,0,0,0,0,0,0,0,0,0,0,0,0,0,0*4C
---00000004--- Acq_st=3 0  2000-1-1 0:1:43 
[00]  00(G01)  7 42  8  0  -4102.8  2046005.3  0.0  2 0 1487 2845 1456
[01]  03(G04)  7 38  7  0    829.3  2045998.8 -0.2  2 0 1339 1607  717
[02]  06(G07)  7 45 10  0  -2061.1  2046002.6 -0.1  2 0 3228 4822 2274
[03]  07(G08)  7 45 15  0    991.5  2045998.6 -0.0  2 0 2506 3802 1990
[04]  08(G09)  7 42  7  0   1487.9  2045998.0  0.0  2 0 1872 2736 1409
[05]  10(G11)  7 43  7  0  -2778.7  2046003.5 -0.1  2 0 1744 2437 1722
[06]  17(G18)  7 43  7  0  -2719.5  2046003.4  0.1  2 0 1963 2486 1223
[08]  26(G27)  7 28  7  0   2122.9  2045997.2  0.4 10 0 1260 1790 1263
[09]  27(G28)  7 25  7  0  -2827.4  2046003.6  0.8 10 0 1204 1819  625
[10]  29(G30)  7 24  7  0  -3778.0  2046004.8  0.7 10 0 2780 3560 1915
[16]  37(B01)  1 10 10  0  -1111.5  4092002.8  0.4  1 0 1235 1282  449
[17]  38(B02)  1 10 20  0  -1136.4  4092003.8  0.5  1 0 1159 1354  514
[18]  39(B03)  1 10 29  1  -1134.2  4092003.9  0.4  1 0  388 1493 1666
[19]  40(B04)  1 10 10  1   -563.4  4092002.4 -0.1  1 0  262  619 1300
[20]  41(B05)  1 18 10  0   -656.6  4092002.5 -0.1  1 0  341  546  221
[21]  43(B07)  1 22  7  0  -1383.1  4092006.2  0.2  1 0  819 2287 2390
[22]  44(B08)  1  7  7  0  -2444.6  4092007.1  0.0  1 0  728 1565 1116
[24]  45(B09)  1  7  7  0    750.0  4091998.6 -0.1  1 0  787 1200 1026
[25]  46(B10)  1  7  7  0  -1500.0  4092005.7  0.0  1 0  227 1813 2024
$GNGGA,000000.000,,,,,0,00,,,M,,,,0000*2B
$GNRMC,000000.000,A,,,,,,,060180,,*29
$GPGSA,A,1,,,,,,,,,,,,,,,*1E
$BDGSA,A,1,,,,,,,,,,,,,,,*0F
$GLGSA,A,1,,,,,,,,,,,,,,,*02
$GPGSV,3,1,10,01,00,000,42,04,00,000,38,07,00,000,45,08,00,000,45*7D
$GPGSV,3,2,10,09,00,000,42,11,00,000,43,18,00,000,43,27,00,000,28*70
$GPGSV,3,3,10,28,00,000,25,30,00,000,23*77
$B3CN0,0,0,0,0,0,0,0,0,0,0,0,0,0,0*4C
---00000005--- Acq_st=3 0  2000-1-1 0:1:44 
[00]  00(G01)  7 42  7  0  -4108.7  2046005.3 -0.0  2 0 1889 2792 1876
[01]  03(G04)  7 39  7  0    830.2  2045998.8 -0.0  2 0 1012 1605 1099
[02]  06(G07)  7 44  7  0  -2057.3  2046002.6  0.0  2 0 3408 4417 1963
[03]  07(G08)  7 45 16  0    994.5  2045998.6  0.0  2 0 1830 3198 1036
[04]  08(G09)  7 42  7  0   1486.9  2045998.0  0.1  2 0 1981 3243 1730
[05]  10(G11)  7 42  7  0  -2776.4  2046003.5  0.0  2 0 1454 2075  806
[06]  17(G18)  7 43 10  0  -2716.8  2046003.4 -0.0  2 0 1755 2530 1542
[08]  26(G27)  7 41  7  0   2124.4  2045997.1 -0.0  2 0 1358 1588  833
[09]  27(G28)  7 37  8  0  -2827.4  2046003.5 -0.4  2 0  797  985  393
[10]  29(G30)  7 45  7  0  -3774.1  2046004.8 -0.0  2 0 1968 3160 1778
[16]  37(B01)  7 40 36  0  -1108.2  4092002.8  0.3  2 0 1261 1152  610
[17]  38(B02)  7 40 23  0  -1130.5  4092002.7 -0.3  2 0 1057 1074  228
[18]  39(B03)  7 19 10  0  -1368.9  4092003.4  0.0  2 0 1720 1465  279
[19]  40(B04)  1 10 10  1   -619.3  4092004.6  0.2  1 0  480  839  345
[20]  41(B05)  7 10 10  0  -1677.8  4092004.2 -0.1  2 0  294  670  573
[21]  43(B07)  7 18  7  0  -1378.5  4092003.5  0.9 10 0 1514 2064  795
[22]  44(B08)  7  7  7  0  -2439.0  4092006.3  0.5  5 0 1806 2267 1004
[24]  45(B09)  1  7  7  0    679.7  4091997.8  0.1  1 0  689 1329  652
[25]  46(B10)  1  7  7  0  -1503.4  4092003.7  0.4  1 0 1746 2682 1188
[26]  49(B13)  1  7  7  0  -2347.0  4092008.9 -0.0  1 0  277  315 1202
$GNGGA,000000.000,,,,,0,00,,,M,,,,0000*2B
$GNRMC,000000.000,A,,,,,,,060180,,*29
$GPGSA,A,1,,,,,,,,,,,,,,,*1E
$BDGSA,A,1,,,,,,,,,,,,,,,*0F
$GLGSA,A,1,,,,,,,,,,,,,,,*02
$GPGSV,3,1,10,01,00,000,42,04,00,000,39,07,00,000,44,08,00,000,45*7D
$GPGSV,3,2,10,09,00,000,42,11,00,000,43,18,00,000,43,27,00,000,41*7F
$GPGSV,3,3,10,28,00,000,37,30,00,000,45*74
$BDGSV,1,1,04,01,00,000,40,02,00,000,40,03,00,000,18,07,00,000,18*6B
$B3CN0,0,0,0,0,0,0,0,0,0,0,0,0,0,0*4C
---00000006--- Acq_st=3 0  2000-1-1 0:1:45 
[00]  00(G01)  7 43  7  0  -4104.4  2046005.3  0.0  2 0 1637 2112  804
[01]  03(G04)  7 38  7  0    832.6  2045998.8 -0.1  2 0  740 1250  888
[02]  06(G07)  7 45  7  0  -2055.8  2046002.6 -0.0  2 0 2993 4524 2261
[03]  07(G08)  7 44 16  0    997.9  2045998.6 -0.0  2 0 1892 4104 1799
[04]  08(G09)  7 43  7  0   1492.3  2045998.0 -0.0  2 0 1646 2416  892
[05]  10(G11)  7 43  7  0  -2770.9  2046003.5 -0.1  2 0 1978 3619 1695
[06]  17(G18)  7 43  7  0  -2713.7  2046003.4  0.0  2 0 1889 2979 2058
[08]  26(G27)  7 39  7  0   2127.5  2045997.2 -0.0  2 0 1561 1853  671
[09]  27(G28)  7 38  9  0  -2826.9  2046003.6 -0.2  2 0  996 1458  832
[10]  29(G30)  7 45  7  0  -3771.9  2046004.8  0.0  2 0 1545 2914 1421
[16]  37(B01)  f 40 14  0  -1108.2  4092002.6 -0.5  2 0  950  910  276
[17]  38(B02)  f 41 22  0  -1128.5  4092002.8  0.8  2 0 1214 1615  912
[18]  39(B03)  7 10 10  0  -1367.2  4092003.3 -0.0  2 0 2076 1415  228
[19]  40(B04)  1 16 10  0   -590.8  4092002.4  0.0  1 0  812  620  349
[20]  41(B05)  7 10 10  0  -1488.1  4092004.2  0.1  2 0  173  518  382
[21]  43(B07)  7 44  9  0  -1374.1  4092003.5 -0.0  2 0 1474 1559  546
[22]  44(B08)  7 43  7  0  -2435.4  4092006.3 -0.0  2 0 1316 1857  896
[24]  45(B09)  7 35  7  0    686.4  4091998.1 -0.0  5 0  560  806  312
[25]  46(B10)  7 34  7  0  -1499.2  4092003.8  0.2  5 0 1402 2178 1157
[26]  49(B13)  1 23  7  0  -2149.6  4092007.5  0.2  1 0 1221 1296  493
ch27 satid=63 freq=1000 acq ok!
ch29 satid=66 freq=-2000 acq ok!
$GNGGA,062302.312,,,,,0,00,,,M,,,,0000*2E
$GNRMC,062302.312,A,,,,,,,090180,,*23
$GPGSA,A,1,,,,,,,,,,,,,,,*1E
$BDGSA,A,1,,,,,,,,,,,,,,,*0F
$GLGSA,A,1,,,,,,,,,,,,,,,*02
$GPGSV,3,1,10,01,00,000,43,04,00,000,38,07,00,000,45,08,00,000,44*7D
$GPGSV,3,2,10,09,00,000,43,11,00,000,43,18,00,000,43,27,00,000,39*71
$GPGSV,3,3,10,28,00,000,38,30,00,000,45*7B
$BDGSV,2,1,06,01,00,000,40,02,00,000,41,07,00,000,44,08,00,000,43*67
$BDGSV,2,2,06,09,00,000,34,10,00,000,34*66
$B3CN0,0,0,0,0,0,0,0,0,0,0,0,0,0,0*4C
---00000007--- Acq_st=3 0  2000-1-1 0:1:46 
[00]  00(G01)  f 42  7  0  -4098.5  2046005.2 -0.0  2 0 1954 2643 1310
[01]  03(G04)  f 39  7  0    825.7  2045998.8  0.0  2 0 1143 1593  740
[02]  06(G07)  f 45  8  0  -2055.1  2046002.6 -0.0  2 0 2955 4311 1912
[03]  07(G08)  f 44 14  0    997.2  2045998.6  0.0  2 0 2455 3722 1632
[04]  08(G09)  f 43  7  0   1492.0  2045998.0  0.0  2 0 1435 2302 1431
[05]  10(G11)  f 43  9  0  -2773.1  2046003.5  0.0  2 0 1537 2450 1023
[06]  17(G18)  f 43  7  0  -2712.5  2046003.4  0.1  2 0 2580 3424 1507
[08]  26(G27)  f 40  7  0   2126.1  2045997.2 -0.0  2 0  862 1266  498
[09]  27(G28)  f 39  7  0  -2816.8  2046003.6  0.1  2 0  913 1492  946
[10]  29(G30)  f 44  7  0  -3773.5  2046004.8  0.0  2 0 2379 3469 1210
[16]  37(B01)  f 39 21  0  -1106.9  4092002.8  0.2  2 0 1219 1612  612
[17]  38(B02)  f 40 25  0  -1124.7  4092002.9 -0.4  2 0  785 1174  566
[18]  39(B03)  7 10 10  0  -1409.1  4092003.6  0.3  2 0  802  406  667
[19]  40(B04)  1 20 21  0   -651.2  4092002.6  0.2  1 0  875  424  536
[20]  41(B05)  7 10 10  0  -1643.0  4092004.2 -0.1  2 0  563  540  754
[21]  43(B07)  7 43  7  0  -1374.7  4092003.5  0.1  2 0 2341 2339  773
[22]  44(B08)  7 42  7  0  -2435.1  4092006.3 -0.0  2 0 1077 1814  868
[24]  45(B09)  7 39  7  0    684.3  4091998.1 -0.0  2 0  839 1301  424
[25]  46(B10)  7 43  7  0  -1498.0  4092003.8 -0.0  2 0 1641 2468 1081
[26]  49(B13)  1 25  7  0  -2152.9  4092006.6  0.3  1 0  772  946  392
[27]  63(B27)  1  7  7  0    978.9  4091997.7 -0.0  1 0 1960 2818 1044
[28]  65(B29)  1  7  7  0  -4000.0  4092010.9  0.0  1 0  341   59  907
[29]  66(B30)  1  7  7  0  -2000.0  4092008.0 -0.0  1 0  509 2448 3718
[48]  37(B01)  1 23 10  1  -1066.9 20460020.4 -0.0  1 0  551  387  353
[49]  38(B02)  1 22 10  1  -1099.5 20460015.0  0.1  1 0  606  354  643
ch32 satid=78 freq=-250 acq ok!
ch33 satid=79 freq=-4000 acq ok!
ch34 satid=82 freq=1000 acq ok!
ch35 satid=83 freq=-2500 acq ok!
$GNGGA,062303.312,,,,,0,00,,,M,,,,0000*2F
$GNRMC,062303.312,A,,,,,,,090180,,*22
$GPGSA,A,1,,,,,,,,,,,,,,,*1E
$BDGSA,A,1,,,,,,,,,,,,,,,*0F
$GLGSA,A,1,,,,,,,,,,,,,,,*02
$GPGSV,3,1,10,01,00,000,42,04,00,000,39,07,00,000,45,08,00,000,44*7D
$GPGSV,3,2,10,09,00,000,43,11,00,000,43,18,00,000,43,27,00,000,40*7F
$GPGSV,3,3,10,28,00,000,39,30,00,000,44*7B
$BDGSV,2,1,06,01,00,000,40,02,00,000,40,07,00,000,43,08,00,000,42*60
$BDGSV,2,2,06,09,00,000,39,10,00,000,43*6B
$B3CN0,0,0,0,0,0,0,0,0,0,0,0,0,0,0*4C
ch36 satid=84 freq=3000 acq ok!
---00000008--- Acq_st=2 0  2000-1-1 0:1:47 
[00]  00(G01)  f 42  7  0  -4101.5  2046005.3 -0.0  2 0 1662 2266 1246
[01]  03(G04)  f 39  7  0    831.9  2045998.9  0.1  2 0  864  838  311
[02]  06(G07)  f 45  7  0  -2058.8  2046002.6  0.0  2 0 2899 4639 2241
[03]  07(G08)  f 44 14  0    996.8  2045998.6  0.0  2 0 2053 3297 1290
[04]  08(G09)  f 43  7  0   1488.5  2045998.0 -0.0  2 0 1635 2525 1067
[05]  10(G11)  f 43  7  0  -2774.3  2046003.5 -0.1  2 0 1893 2916 1702
[06]  17(G18)  f 43  7  0  -2713.5  2046003.4 -0.0  2 0 2175 3083 1314
[08]  26(G27)  f 41  7  0   2125.4  2045997.2 -0.1  2 0 1253 1998  957
[09]  27(G28)  f 38  7  0  -2829.3  2046003.6 -0.1  2 0 1076 1001  294
[10]  29(G30)  f 43  7  0  -3773.9  2046004.8 -0.0  2 0 2445 3335 1317
[16]  37(B01) 1f 40 36  0  -1106.7  4092002.9 -0.6  2 0 1365 1295  410
[17]  38(B02) 1f 41 21  0  -1129.9  4092002.8  0.8  2 0 1258 1269  352
[21]  43(B07)  7 43  7  0  -1378.7  4092003.5 -0.1  2 0 1312 1804  351
[22]  44(B08)  7 42  7  0  -2439.5  4092006.3  0.0  2 0 1565 1839  947
[24]  45(B09)  7 39  7  0    688.9  4091998.1  0.0  2 0  859 1341  305
[25]  46(B10)  7 43  7  0  -1497.8  4092003.8  0.1  2 0 1582 2314 1142
[26]  49(B13)  1 25  7  0  -2149.1  4092006.5  0.5  1 0  340  581  142
[27]  63(B27)  7 15  7  0    980.5  4091997.4  0.3 10 0 1711 2648 1497
[28]  65(B29)  1  7  7  0  -3538.5  4092012.6 -0.0  1 0  360  455  851
[29]  66(B30)  1  7  9  0  -1948.3  4092005.0  0.4  1 0 3019 3404 1211
[32]  78(N-3)  1  7  7  0   -250.0  1022002.0  0.1  1 0  1209 2816 1953
[33]  79(N-2)  1 25 29  0  -4000.0  1022004.4  0.2  1 0   341 1205 1200
[34]  82(N01)  1  7  7  0    999.6  1022001.2  0.0  1 0   721 1239  870
[35]  83(N02)  1  7  7  0  -2952.3  1022002.6 -0.0  1 0   321  335  451
[36]  84(N03)  1  7  7  0 -452121.1  1022000.4  0.0  1 0   208  271 1021
[48]  37(B01)  1 10 10  0  -1404.9 20460021.8 -0.1  1 0  459  107  467
[49]  38(B02)  f 10 10  0  -1451.8 20460024.5  0.1  2 0  763  585  726
$GNGGA,062304.312,,,,,0,00,,,M,,,,0000*28
$GNRMC,062304.312,A,,,,,,,090180,,*25
$GPGSA,A,1,,,,,,,,,,,,,,,*1E
$BDGSA,A,1,,,,,,,,,,,,,,,*0F
$GLGSA,A,1,,,,,,,,,,,,,,,*02
$GPGSV,3,1,10,01,00,000,42,04,00,000,39,07,00,000,45,08,00,000,44*7D
$GPGSV,3,2,10,09,00,000,43,11,00,000,43,18,00,000,43,27,00,000,41*7E
$GPGSV,3,3,10,28,00,000,38,30,00,000,43*7D
$BDGSV,2,1,07,01,00,000,40,02,00,000,41,05,00,000,18,07,00,000,43*62
$BDGSV,2,2,07,08,00,000,42,09,00,000,39,10,00,000,43*54
$B3CN0,0,0,0,0,0,0,0,0,0,0,0,0,0,0*4C
---00000009--- Acq_st=7 0  2000-1-1 0:1:48 
[00]  00(G01)  f 42 12  0  -4098.5  2046005.3  0.0  2 0 1312 1794  890
[01]  03(G04)  f 39  7  0    831.0  2045998.9 -0.0  2 0 1481 2129 1281
[02]  06(G07)  f 45  7  0  -2056.2  2046002.6  0.0  2 0 3082 4493 2547
[03]  07(G08)  f 45 15  0    996.3  2045998.6  0.0  2 0 2291 3520 1555
[04]  08(G09)  f 43  7  0   1488.1  2045998.0 -0.0  2 0 1670 2301 1408
[05]  10(G11)  f 43  7  0  -2771.4  2046003.5  0.0  2 0 1839 3238 1738
[06]  17(G18)  f 43  7  0  -2714.2  2046003.4  0.0  2 0 1774 2638 1088
[08]  26(G27)  f 40  7  0   2123.7  2045997.2  0.1  2 0  717 1703 1078
[09]  27(G28)  f 38  7  0  -2821.5  2046003.7  0.0  2 0  290  820  542
[10]  29(G30)  f 43  7  0  -3772.8  2046004.8 -0.0  2 0 2205 3103 1272
[16]  37(B01) 1f 41 10  0  -1105.4  4092002.8  0.2  2 0 1155 1361  838
[17]  38(B02) 1f 40 26  0  -1127.8  4092002.8  0.1  2 0 1444 1585  643
[21]  43(B07) 1f 43  7  0  -1375.3  4092003.5  0.1  2 0 2309 2497 1149
[22]  44(B08) 1f 41  8  0  -2436.8  4092006.3 -0.0  2 0  973 1719  945
[24]  45(B09) 1f 39  7  0    677.5  4091998.1  0.1  2 0 1119 1163  577
[25]  46(B10) 1f 43  7  0  -1499.5  4092003.8 -0.0  2 0 1785 2559  942
[27]  63(B27)  7 45  7  0    983.0  4091997.3 -0.0  2 0 1909 3043 1311
[28]  65(B29)  1 12  7  0  -3466.8  4092011.0  0.5  1 0  602  288   71
[29]  66(B30)  7 32  7  0  -1943.3  4092005.0  0.2  5 0 2835 3869 1828
[32]  78(N-3)  1 35 11  0   -343.5  1022000.1  1.0  1 0  2152 3004 1146
[33]  79(N-2)  1 30 23  0  -4023.8  1022002.7  1.0  1 0  1118 1339  643
[34]  82(N01)  1 31  7  0   1097.0  1021999.0  1.0  1 0   799 1449  797
[35]  83(N02)  1 34  7  0  -2431.2  1022002.3  1.0  1 0  1015 1234  453
[36]  84(N03)  1 29  7  0   2970.3  1021998.4  0.9  1 0  1296 1104  484
[48]  37(B01)  7 10 16  0   -932.7 20460016.2  0.1  2 0  259  268  852
[49]  38(B02)  f 10 10  0  -1388.9 20460021.6 -0.1  2 0  214  467  791
$GNGGA,062305.312,,,,,0,00,,,M,,,,0000*29
$GNRMC,062305.312,A,,,,,,,090180,,*24
$GPGSA,A,1,,,,,,,,,,,,,,,*1E
$BDGSA,A,1,,,,,,,,,,,,,,,*0F
$GLGSA,A,1,,,,,,,,,,,,,,,*02
$GPGSV,3,1,10,01,00,000,42,04,00,000,39,07,00,000,45,08,00,000,44*7D
$GPGSV,3,2,10,09,00,000,43,11,00,000,43,18,00,000,43,27,00,000,40*7F
$GPGSV,3,3,10,28,00,000,38,30,00,000,43*7D
$BDGSV,2,1,08,01,00,000,40,02,00,000,40,07,00,000,43,08,00,000,41*6D
$BDGSV,2,2,08,09,00,000,39,10,00,000,43,27,00,000,45,30,00,000,32*63
$B3CN0,0,0,0,0,0,0,0,0,0,0,0,0,0,0*4C
---00000010--- Acq_st=7 0  2000-1-1 0:1:49 
[00]  00(G01)  f 42 11  0  -4098.5  2046005.3  0.0  2 0 1808 2967 1608
[01]  03(G04)  f 38  8  0    834.3  2045998.9  0.2  2 0  698 1664  641
[02]  06(G07)  f 45  7  0  -2055.5  2046002.6 -0.0  2 0 2609 4120 1950
[03]  07(G08)  f 44 15  0    997.6  2045998.7 -0.0  2 0 2407 4302 1931
[04]  08(G09)  f 42  7  0   1490.7  2045998.0 -0.0  2 0 1628 2865 1278
[05]  10(G11)  f 43  7  0  -2768.8  2046003.6 -0.0  2 0 1809 2614 1199
[06]  17(G18)  f 43  8  0  -2714.1  2046003.4 -0.1  2 0 1651 3208 1421
[08]  26(G27)  f 41  7  0   2125.8  2045997.2 -0.1  2 0  975 1727 1049
[09]  27(G28)  f 37  7  0  -2823.9  2046003.6 -0.3  2 0 1537 1658 1356
[10]  29(G30)  f 43  7  0  -3770.3  2046004.8  0.1  2 0 2436 3726 1760
[16]  37(B01) 1f 40 10  0  -1109.3  4092002.8  0.4  2 0 1290 1429  673
[17]  38(B02) 1f 39 25  0  -1127.9  4092002.8 -0.7  2 0 1078 1083  554
[21]  43(B07) 1f 43  7  0  -1374.2  4092003.5 -0.0  2 0 1699 1899  721
[22]  44(B08) 1f 42  7  0  -2435.3  4092006.3 -0.0  2 0 1061 1987 1085
[24]  45(B09) 1f 38  7  0    688.3  4091998.1  0.1  2 0 1239 1291  685
[25]  46(B10) 1f 43  7  0  -1498.2  4092003.8  0.0  2 0 1527 2145  695
[27]  63(B27)  7 44  9  0    984.9  4091997.3  0.0  2 0 2534 2974 1026
[28]  65(B29)  1  7  7  0  -3515.9  4092009.9  0.2  1 0  305  663  249
[29]  66(B30)  7 45  7  0  -1938.9  4092005.0 -0.0  2 0 2658 3842 1753
[32]  78(N-3)  7 49 12  0   -340.3  1022000.1 -0.0  2 0  1924 2920 1408
[33]  79(N-2)  7 44 23  0  -4020.7  1022002.5 -0.1  2 0   877 1443  436
[34]  82(N01)  7 43  7  0   1099.0  1021999.3  0.2  2 0  1107 1792  649
[35]  83(N02)  7 40  7  0  -2428.8  1022001.5  0.4  2 0  1049 1512  771
[36]  84(N03)  7 34  7  0   2970.0  1021998.0  0.1  5 0  1184 1188  500
[48]  37(B01)  7 10 10  1  -1294.9 20460022.2 -0.0  2 0  490  371  448
[49]  38(B02)  f 10 10  1  -1704.9 20460027.8  0.0  2 0  384  299  487
[53]  43(B07)  1  7  7  0   -581.4 20460022.0 -0.2  1 0  112  381  363
[54]  44(B08)  1  7  7  0  -1676.0 20460037.0  0.1  1 0  189  358  505
[56]  45(B09)  1  7  7  0    879.3 20459988.3 -0.0  1 0  524  772  823
[57]  46(B10)  1  7  7  0  -1705.4 20460023.2 -0.0  1 0  280  581  565
---00000011--- Acq_st=3 0  2000-1-1 0:1:50 
[00]  00(G01)  f 42  7  0  -4091.5  2046005.2 -0.0  2 0 1244 1742  926
[01]  03(G04)  f 38  7  0    839.0  2045998.8  0.0  2 0  984  993  366
[02]  06(G07)  f 45  7  0  -2049.0  2046002.6  0.0  2 0 2345 3649 2245
[03]  07(G08)  f 45 16  0   1002.8  2045998.6  0.0  2 0 2500 4184 1793
[04]  08(G09)  f 42  7  0   1494.1  2045998.0 -0.1  2 0 1725 2681 1048
[05]  10(G11)  f 44  7  0  -2767.3  2046003.5 -0.0  2 0 1339 2838 1294
[06]  17(G18)  f 43  9  0  -2706.5  2046003.4  0.0  2 0 2051 2819  987
[08]  26(G27)  f 41  7  0   2133.9  2045997.1  0.1  2 0 1281 2035 1136
[09]  27(G28)  f 38  7  0  -2819.6  2046003.6 -0.3  2 0  771 1739 1170
[10]  29(G30)  f 44  9  0  -3765.2  2046004.8 -0.0  2 0 2335 3666 1455
[16]  37(B01) 1f 40 20  0  -1105.2  4092002.8 -0.0  2 0 1462 2080  952
[17]  38(B02) 1f 39 23  0  -1122.8  4092002.9 -0.2  2 0 1038 1243   60
[21]  43(B07) 1f 43  8  0  -1369.4  4092003.4 -0.1  2 0 1494 2038  763
[22]  44(B08) 1f 42 11  0  -2432.3  4092006.2  0.0  2 0 1707 1967  858
[24]  45(B09) 1f 38  7  0    690.1  4091998.1  0.2  2 0  933 1089  586
[25]  46(B10) 1f 43  7  0  -1494.0  4092003.8 -0.0  2 0 1509 1908  555
[27]  63(B27)  7 44  7  0    989.2  4091997.3 -0.0  2 0 2017 2472  882
[28]  65(B29)  1  8  7  0  -3519.7  4092010.2  0.7  1 0  813 1014  166
[29]  66(B30)  7 45  7  0  -1937.2  4092004.9 -0.0  2 0 2946 3326 1526
[32]  78(N-3)  7 49  7  0   -334.7  1022000.2  0.0  2 0  1753 2706 1232
[33]  79(N-2)  7 44 22  0  -4015.5  1022002.5 -0.2  2 0   920 1501  810
[34]  82(N01)  7 44  7  0   1105.0  1021999.2  0.1  2 0  1079 1690  641
[35]  83(N02)  7 43  7  0  -2424.1  1022001.5 -0.1  2 0   946 1564  585
[36]  84(N03)  7 42  7  0   2979.3  1021997.9 -0.3  2 0   963 1154  439
[48]  37(B01)  7 18 19  1  -1693.0 20460027.4  0.1  2 0  444  172  289
[49]  38(B02)  f 18 19  0  -2157.7 20460035.4  0.1  2 0  559  522  151
[53]  43(B07)  1  7  7  0   -631.2 20460024.4  0.2  1 0  553  402  554
[54]  44(B08)  1  7  7  0  -2004.2 20460038.0  0.2  1 0  175  322  332
[56]  45(B09)  1  7  7  0   1755.6 20459991.5  0.0  1 0  471  674  899
[57]  46(B10)  1  7  8  0  -1692.3 20460023.3  0.1  1 0  281  486  654
$GNGGA,062306.312,,,,,0,00,,,M,,,,0000*2A
$GNRMC,062306.312,A,,,,,,,090180,,*27
$GPGSA,A,1,,,,,,,,,,,,,,,*1E
$BDGSA,A,1,,,,,,,,,,,,,,,*0F
$GLGSA,A,1,,,,,,,,,,,,,,,*02
$GPGSV,3,1,10,01,00,000,42,04,00,000,38,07,00,000,45,08,00,000,45*7D
$GPGSV,3,2,10,09,00,000,42,11,00,000,44,18,00,000,43,27,00,000,41*78
$GPGSV,3,3,10,28,00,000,38,30,00,000,44*7A
$BDGSV,2,1,08,01,00,000,40,02,00,000,39,07,00,000,43,08,00,000,42*60
$BDGSV,2,2,08,09,00,000,38,10,00,000,43,27,00,000,44,30,00,000,45*63
$B3CN0,16,17,0,0,0,0,0,0,0,0,0,0,0,0*4D
ch18 satid=39 freq=-1000 acq ok!
---00000012--- Acq_st=3 0  2000-1-1 0:1:51 
[00]  00(G01)  f 42  7  0  -4094.0  2046005.3  0.1  2 0 1373 1927  490
[01]  03(G04)  f 39  7  0    844.5  2045998.9 -0.0  2 0 1026 2033 1390
[02]  06(G07)  f 46  7  0  -2047.1  2046002.6  0.0  2 0 3022 4368 2099
[03]  07(G08)  f 45 14  0   1001.9  2045998.6 -0.0  2 0 2067 3775 1700
[04]  08(G09)  f 43  7  0   1495.1  2045998.0  0.0  2 0 1697 2932 1300
[05]  10(G11)  f 44  7  0  -2765.7  2046003.5 -0.1  2 0 1397 2679 1709
[06]  17(G18)  f 44  7  0  -2706.0  2046003.4  0.0  2 0 1964 3104 1408
[08]  26(G27)  f 41  7  0   2133.2  2045997.1  0.0  2 0  868 1601  998
[09]  27(G28)  f 38 10  0  -2817.7  2046003.6  0.1  2 0 1506 1500  211
[10]  29(G30)  f 44  7  0  -3766.8  2046004.8 -0.0  2 0 2623 3790 1309
[16]  37(B01) 1f 40 10  0  -1102.8  4092002.6  0.1  2 0 1704 1760  364
[17]  38(B02) 1f 40 29  0  -1123.3  4092002.9  0.6  2 0 1059 1541  838
[18]  39(B03)  1 10 10  0  -1000.0  4092004.1 -0.1  1 0  377  389 1159
[21]  43(B07) 1f 43  7  0  -1367.2  4092003.5  0.1  2 0 2121 2648 1320
[22]  44(B08) 1f 41  7  0  -2429.8  4092006.2 -0.0  2 0 1237 1769  914
[24]  45(B09) 1f 39  7  0    686.3  4091998.1  0.0  2 0  872 1120  756
[25]  46(B10) 1f 43  7  0  -1492.7  4092003.8 -0.0  2 0 1848 2467 1007
[27]  63(B27)  7 44  7  0    987.7  4091997.3 -0.0  2 0 1805 2694 1710
[29]  66(B30)  7 44  7  0  -1933.4  4092004.9 -0.0  2 0 2703 3756 1580
[32]  78(N-3)  7 49  7  0   -333.1  1022000.2  0.0  2 0  1765 2665 1180
[33]  79(N-2)  7 45 25  0  -4015.3  1022002.5  0.2  2 0   829 1541  668
[34]  82(N01)  7 44  7  0   1106.4  1021999.2  0.0  2 0  1147 1510  589
[35]  83(N02)  7 43  7  0  -2422.0  1022001.5 -0.1  2 0   677 1531  804
[36]  84(N03)  7 43  7  0   2978.8  1021998.0 -0.0  2 0   963 1313  525
[48]  37(B01)  7 10 19  0  -1950.4 20460030.0 -0.1  2 0  398   45  213
[53]  43(B07)  1  7  7  0   -639.7 20460022.7 -0.0  1 0  396  128  126
[54]  44(B08)  1  7  7  0  -1968.2 20460037.5  0.1  1 0  264  591  626
[56]  45(B09)  1  7  7  0   1484.8 20459990.3 -0.0  1 0  186  102  119
[57]  46(B10)  1  7  7  0  -2066.6 20460023.4  0.1  1 0  444  584  255
$GNGGA,062307.312,,,,,0,00,,,M,,,,0000*2B
$GNRMC,062307.312,A,,,,,,,090180,,*26
$GPGSA,A,1,,,,,,,,,,,,,,,*1E
$BDGSA,A,1,,,,,,,,,,,,,,,*0F
$GLGSA,A,1,,,,,,,,,,,,,,,*02
$GPGSV,3,1,10,01,00,000,42,04,00,000,39,07,00,000,46,08,00,000,45*7F
$GPGSV,3,2,10,09,00,000,43,11,00,000,44,18,00,000,44,27,00,000,41*7E
$GPGSV,3,3,10,28,00,000,38,30,00,000,44*7A
$BDGSV,2,1,08,01,00,000,40,02,00,000,40,07,00,000,43,08,00,000,41*6D
$BDGSV,2,2,08,09,00,000,39,10,00,000,43,27,00,000,44,30,00,000,44*63
$B3CN0,0,0,0,0,0,0,0,0,0,0,0,0,0,0*4C
---00000013--- Acq_st=3 0  2000-1-1 0:1:52 
[00]  00(G01)  f 42  7  0  -4089.4  2046005.3 -0.0  2 0 1736 2626 1345
[01]  03(G04)  f 39  7  0    843.3  2045998.8 -0.0  2 0  829 1665 1158
[02]  06(G07)  f 46  7  0  -2048.9  2046002.6  0.0  2 0 2645 4026 1838
[03]  07(G08)  f 45 15  0   1003.6  2045998.6 -0.0  2 0 2171 3336  976
[04]  08(G09)  f 43  7  0   1494.0  2045998.0 -0.1  2 0 1782 2654 1634
[05]  10(G11)  f 44  7  0  -2763.3  2046003.5  0.0  2 0 2109 3128  882
[06]  17(G18)  f 43  8  0  -2705.7  2046003.5  0.0  2 0 2158 2903 1415
[08]  26(G27)  f 41  7  0   2133.8  2045997.1 -0.1  2 0 1182 2049 1220
[09]  27(G28)  f 38  7  0  -2816.4  2046003.6 -0.2  2 0 1204 1189  707
[10]  29(G30)  f 45  7  0  -3767.1  2046004.9  0.0  2 0 1982 3338 2125
[16]  37(B01) 1f 40 20  0  -1104.3  4092002.7 -0.6  2 0  976 1540  827
[17]  38(B02) 1f 41 22  0  -1121.4  4092002.9  0.4  2 0 1578 1821  844
[18]  39(B03)  1 10 31  1   -797.1  4092002.2 -0.0  1 0  469  416  706
[19]  40(B04)  1 22 18  1   -810.1  4092002.8 -0.0  1 0  511  503  196
[20]  41(B05)  1 18 14  0   -855.2  4092000.7 -0.0  1 0  266  636  474
[21]  43(B07) 1f 43  7  0  -1374.8  4092003.5  0.0  2 0 1678 2199 1280
[22]  44(B08) 1f 42  7  0  -2429.5  4092006.3  0.0  2 0 1450 2027  989
[24]  45(B09) 1f 39  7  0    690.8  4091998.1 -0.2  2 0  795  850  564
[25]  46(B10) 1f 43  7  0  -1492.4  4092003.8  0.1  2 0 2645 2803 1048
[26]  49(B13)  1  7  7  0  -2750.0  4092008.8 -0.0  1 0  312  874 1756
[27]  63(B27)  7 44 13  0    988.5  4091997.3 -0.0  2 0 2094 2317  842
[29]  66(B30)  7 45  7  0  -1935.3  4092004.9 -0.0  2 0 2648 3687 1878
[32]  78(N-3)  f 30  7  0   -333.8  1022000.2 -0.0  5 0  1131 2475 1333
[33]  79(N-2)  f 30 14  0  -4014.3  1022002.5  0.1  5 0   956 1585  639
[34]  82(N01)  f 30  7  0   1104.7  1021999.2 -0.0  5 0  1237 1750  836
[35]  83(N02)  f 30  7  0  -2423.2  1022001.5 -0.2  5 0   957 1717  676
[36]  84(N03)  f 30  7  0   2976.9  1021998.0 -0.1  5 0   993 1664  614
[49]  38(B02)  1 10 10  1  -1103.4 20460021.3  0.1  1 0  263  575  464
[53]  43(B07)  1 10  7  0    250.6 20460023.0  0.0  1 0  546  491  235
[54]  44(B08)  1  7  7  0  -1991.2 20460038.4 -0.0  1 0   29  153  268
[56]  45(B09)  1  8  7  0   1701.9 20459989.3  0.1  1 0  271  166  335
[57]  46(B10)  1  7  7  0  -1814.4 20460023.9 -0.1  1 0  160  407  386
$GNGGA,062308.312,,,,,0,00,,,M,,,,0000*24
$GNRMC,062308.312,A,,,,,,,090180,,*29
$GPGSA,A,1,,,,,,,,,,,,,,,*1E
$BDGSA,A,1,,,,,,,,,,,,,,,*0F
$GLGSA,A,1,,,,,,,,,,,,,,,*02
$GPGSV,3,1,10,01,00,000,42,04,00,000,39,07,00,000,46,08,00,000,45*7F
$GPGSV,3,2,10,09,00,000,43,11,00,000,44,18,00,000,43,27,00,000,41*79
$GPGSV,3,3,10,28,00,000,38,30,00,000,45*7B
$BDGSV,2,1,08,01,00,000,40,02,00,000,41,07,00,000,43,08,00,000,42*6F
$BDGSV,2,2,08,09,00,000,39,10,00,000,43,27,00,000,44,30,00,000,45*62
$B3CN0,0,0,0,0,0,0,0,0,0,0,0,0,0,0*4C
---00000014--- Acq_st=3 0  2000-1-1 0:1:53 
[00]  00(G01)  f 43  7  0  -4096.3  2046005.3 -0.1  2 0  998 2068 1313
[01]  03(G04)  f 39  7  0    841.6  2045998.8 -0.0  2 0  676 1277  969
[02]  06(G07)  f 46  7  0  -2050.0  2046002.6 -0.0  2 0 3125 4328 2107
[03]  07(G08)  f 45 15  0    999.1  2045998.6 -0.0  2 0 2302 3906 1841
[04]  08(G09)  f 43  7  0   1492.9  2045998.0  0.0  2 0 2222 2974 1335
[05]  10(G11)  f 43  7  0  -2769.8  2046003.5 -0.0  2 0 1816 2996 1848
[06]  17(G18)  f 44  7  0  -2704.4  2046003.5 -0.0  2 0 1632 2253  965
[08]  26(G27)  f 41 12  0   2130.4  2045997.1  0.1  2 0 1247 2040  684
[09]  27(G28)  f 38  7  0  -2817.0  2046003.6  0.0  2 0 1173 1276  627
[10]  29(G30)  f 44  7  0  -3767.5  2046004.8 -0.0  2 0 2149 3861 1876
[16]  37(B01) 1f 40 10  0  -1102.7  4092002.7 -0.4  2 0  919 1311  518
[17]  38(B02) 1f 41 27  0  -1123.2  4092002.9  0.2  2 0  828 1528  811
[18]  39(B03)  7 19 19  1  -1259.6  4092003.2 -0.1  2 0  202  233  907
[19]  40(B04)  7 10 19  0   -828.7  4092002.4  0.0  2 0  306  248  680
[20]  41(B05)  7 10 28  1  -1056.1  4092002.7  0.1  2 0  617  196  162
[21]  43(B07) 1f 43  7  0  -1374.2  4092003.5 -0.0  2 0 1798 1955  750
[22]  44(B08) 1f 42  7  0  -2430.9  4092006.3 -0.0  2 0 1449 1978 1248
[24]  45(B09) 1f 38  7  0    690.5  4091998.1  0.1  2 0 1055 1089  602
[25]  46(B10) 1f 43  7  0  -1495.6  4092003.8  0.0  2 0 1847 2491  953
[26]  49(B13)  1  7  7  0  -2646.8  4092007.1  0.3  1 0 1435 1721  875
[27]  63(B27)  7 44  7  0    988.3  4091997.3  0.0  2 0 2294 2761 1108
[29]  66(B30)  7 44  7  0  -1935.8  4092004.9  0.0  2 0 2616 3654 1808
[32]  78(N-3)  f 48  7  0   -335.2  1022000.2 -0.1  2 0  1988 3440 1664
[33]  79(N-2)  f 44 13  0  -4015.1  1022002.5  0.1  2 0   726 1706 1065
[34]  82(N01)  f 44  7  0   1104.2  1021999.3 -0.0  2 0   777 1500  924
[35]  83(N02)  f 43  7  0  -2423.6  1022001.5  0.1  2 0   700 1544  845
[36]  84(N03)  f 43  7  0   2974.9  1021998.0  0.0  2 0   952  960  509
[48]  37(B01)  1 21 36  1   -687.8 20460020.4 -0.0  1 0  488  521  369
[49]  38(B02)  1 10 10  0   -961.2 20460025.2 -0.1  1 0   18  770  483
$GNGGA,062309.312,,,,,0,00,,,M,,,,0000*25
$GNRMC,062309.312,A,,,,,,,090180,,*28
$GPGSA,A,1,,,,,,,,,,,,,,,*1E
$BDGSA,A,1,,,,,,,,,,,,,,,*0F
$GLGSA,A,1,,,,,,,,,,,,,,,*02
$GPGSV,3,1,10,01,00,000,43,04,00,000,39,07,00,000,46,08,00,000,45*7E
$GPGSV,3,2,10,09,00,000,43,11,00,000,43,18,00,000,44,27,00,000,41*79
$GPGSV,3,3,10,28,00,000,38,30,00,000,44*7A
$BDGSV,3,1,09,01,00,000,40,02,00,000,41,03,00,000,18,07,00,000,43*6B
$BDGSV,3,2,09,08,00,000,42,09,00,000,38,10,00,000,43,27,00,000,44*6F
$BDGSV,3,3,09,30,00,000,44*52
$B3CN0,0,0,0,0,0,0,0,0,0,0,0,0,0,0*4C
---00000015--- Acq_st=3 0  2000-1-1 0:1:54 
[00]  00(G01)  f 43  7  0  -4091.8  2046005.3  0.0  2 0 1554 2367 1428
[01]  03(G04)  f 39  7  0    842.0  2045998.8 -0.1  2 0  888 1373  639
[02]  06(G07)  f 45  7  0  -2046.8  2046002.6 -0.0  2 0 2989 4096 1799
[03]  07(G08)  f 45 14  0   1002.7  2045998.6  0.0  2 0 2517 3854 1119
[04]  08(G09)  f 43  7  0   1494.7  2045998.0 -0.1  2 0 1823 2747 1351
[05]  10(G11)  f 44  7  0  -2763.9  2046003.5 -0.0  2 0 2221 3011 1110
[06]  17(G18)  f 44  7  0  -2705.8  2046003.4 -0.0  2 0 2130 2657  925
[08]  26(G27)  f 40  9  0   2132.9  2045997.2  0.1  2 0  967 1865  994
[09]  27(G28)  f 38  7  0  -2821.0  2046003.6 -0.0  2 0  547 1840 1465
[10]  29(G30)  f 44  7  0  -3766.6  2046004.8 -0.0  2 0 1871 3425 1858
[16]  37(B01) 1f 41 21  0  -1105.2  4092002.9  0.6  2 0  936 1413 1254
[17]  38(B02) 1f 40 21  0  -1123.0  4092002.8  0.1  2 0 1164 1507  778
[18]  39(B03)  7 20 10  0  -1366.9  4092003.8  0.1  2 0  376 1371 1517
[19]  40(B04)  7 10 10  1   -534.8  4092001.2  0.0  2 0  215  159  540
[20]  41(B05)  7 10 36  1   -783.7  4092002.0 -0.0  2 0  545  416  265
[21]  43(B07) 1f 43  7  0  -1372.9  4092003.4  0.1  2 0 2299 2496  929
[22]  44(B08) 1f 42  7  0  -2426.6  4092006.3 -0.1  2 0 1342 1682  671
[24]  45(B09) 1f 39  7  0    694.9  4091998.1 -0.2  2 0  660  787  558
[25]  46(B10) 1f 43  7  0  -1493.2  4092003.8  0.1  2 0 1327 1939  830
[26]  49(B13)  7 27  7  0  -2642.6  4092006.8  0.4 10 0 1155 1535  442
[27]  63(B27) 1f 44  7  0    989.8  4091997.3  0.0  2 0 2583 3117 1368
[29]  66(B30) 1f 44  7  0  -1931.9  4092004.9 -0.0  2 0 3010 3996 1503
[32]  78(N-3)  f 48  7  0   -330.9  1022000.2  0.1  2 0  1519 3170 1447
[33]  79(N-2)  f 44  7  0  -4012.0  1022002.5 -0.1  2 0  1023 1779  794
[34]  82(N01)  f 43  7  0   1106.2  1021999.3 -0.0  2 0  1125 1602  702
[35]  83(N02)  f 43  7  0  -2420.6  1022001.5  0.0  2 0   808 1521  909
[36]  84(N03)  f 42  7  0   2977.1  1021998.1 -0.1  2 0   750 1285  798
[48]  37(B01)  1 10 10  0   -492.1 20460022.1  0.0  1 0  424  382  431
[49]  38(B02)  1 13 19  0   -809.6 20460022.4  0.0  1 0  556  284  565
[53]  43(B07)  1  7  9  0  -1941.1 20460020.8 -0.1  1 0  540  726  379
[54]  44(B08)  1 10  7  0  -2220.1 20460036.4 -0.1  1 0  480  649  222
[56]  45(B09)  1  7  7  0    407.7 20459988.3 -0.2  1 0  483  555  557
[57]  46(B10)  1  7  7  0  -1655.5 20460023.5  0.0  1 0   60  427  283
$GNGGA,062310.312,,,,,0,00,,,M,,,,0000*2D
$GNRMC,062310.312,A,,,,,,,090180,,*20
$GPGSA,A,1,,,,,,,,,,,,,,,*1E
$BDGSA,A,1,,,,,,,,,,,,,,,*0F
$GLGSA,A,1,,,,,,,,,,,,,,,*02
$GPGSV,3,1,10,01,00,000,43,04,00,000,39,07,00,000,45,08,00,000,45*7D
$GPGSV,3,2,10,09,00,000,43,11,00,000,44,18,00,000,44,27,00,000,40*7F
$GPGSV,3,3,10,28,00,000,38,30,00,000,44*7A
$BDGSV,3,1,10,01,00,000,41,02,00,000,40,03,00,000,20,07,00,000,43*68
$BDGSV,3,2,10,08,00,000,42,09,00,000,39,10,00,000,43,13,00,000,27*64
$BDGSV,3,3,10,27,00,000,44,30,00,000,44*6F
$B3CN0,0,0,0,0,0,0,0,0,0,0,0,0,0,0*4C
---00000016--- Acq_st=2 0  2000-1-1 0:1:55 
[00]  00(G01)  f 43  7  0  -4101.1  2046005.2  0.0  2 0 1730 2692 1897
[01]  03(G04)  f 40  7  0    836.6  2045998.9  0.1  2 0  946 1257  401
[02]  06(G07)  f 45  7  0  -2051.2  2046002.6 -0.1  2 0 2953 3665 1542
[03]  07(G08)  f 44 15  0    997.5  2045998.7  0.0  2 0 2495 3949 1432
[04]  08(G09)  f 43  7  0   1489.1  2045998.0  0.0  2 0 1836 2188  779
[05]  10(G11)  f 43  7  0  -2769.8  2046003.5  0.0  2 0 1013 2455  799
[06]  17(G18)  f 43  7  0  -2712.4  2046003.5  0.1  2 0 2337 2811 1299
[08]  26(G27)  f 42  7  0   2126.8  2045997.1  0.0  2 0 1286 1941 1276
[09]  27(G28)  f 38  7  0  -2829.4  2046003.6 -0.1  2 0  391 1000  629
[10]  29(G30)  f 44  7  0  -3768.5  2046004.8  0.0  2 0 1719 2764 1107
[16]  37(B01) 1f 41 10  0  -1109.2  4092002.8 -0.0  2 0  825 1343  529
[17]  38(B02) 1f 41 27  0  -1134.6  4092002.9 -0.2  2 0 1127 1173  177
[18]  39(B03)  7 14 10  0  -1367.9  4092003.5 -0.0  2 0 1250 1863  816
[19]  40(B04)  7 13 25  0  -1055.4  4092002.7  0.2  2 0  178  153  190
[20]  41(B05)  7 16 25  1   -840.2  4092002.2 -0.1  2 0  163  582  668
[21]  43(B07) 1f 43  7  0  -1377.6  4092003.5  0.0  2 0 1894 2371  850
[22]  44(B08) 1f 42  7  0  -2434.3  4092006.3  0.0  2 0 1709 1739  449
[24]  45(B09) 1f 38  7  0    679.9  4091998.1  0.0  2 0  653 1283  796
[25]  46(B10) 1f 43  7  0  -1499.1  4092003.8 -0.0  2 0 1788 2217  952
[26]  49(B13)  7 41  7  0  -2647.5  4092006.8  0.0  2 0 1085 1367  410
[27]  63(B27) 1f 44  7  0    982.7  4091997.3 -0.0  2 0 2127 2458 1017
[29]  66(B30) 1f 45  7  0  -1938.7  4092005.0 -0.1  2 0 2903 3569 1588
[32]  78(N-3)  f 48  7  0   -335.9  1022000.2 -0.0  2 0  1699 3128 1637
[33]  79(N-2)  f 44 14  0  -4016.6  1022002.5 -0.1  2 0   783 1737  899
[34]  82(N01)  f 43  7  0   1101.6  1021999.3 -0.0  2 0  1221 1532  447
[35]  83(N02)  f 43  7  0  -2427.4  1022001.5 -0.2  2 0   967 1479  578
[36]  84(N03)  f 43  7  0   2972.2  1021998.1 -0.0  2 0   737 1279  567
[48]  37(B01)  1 14 10  1   -444.8 20460018.4 -0.2  1 0  260  149  573
[49]  38(B02)  f 10 10  1   -540.6 20460010.0 -0.2  2 0   62  684  469
[53]  43(B07)  1  7  9  0  -1711.4 20460021.5  0.1  1 0  328  261  300
[54]  44(B08)  1  7  7  0  -1931.8 20460038.3  0.1  1 0  180  392  150
[56]  45(B09)  1  9  7  0    760.8 20459989.5 -0.1  1 0  639  662  184
[57]  46(B10)  1  7  7  0  -1479.5 20460023.3  0.0  1 0 1066  931  844
[59]  63(B27)  1  7  7  0    623.1 20459984.3  0.0  1 0  298  370  292
[61]  66(B30)  1  7  7  0  -2033.0 20460032.0 -0.1  1 0  464   91  437
$GNGGA,062311.312,,,,,0,00,,,M,,,,0000*2C
$GNRMC,062311.312,A,,,,,,,090180,,*21
$GPGSA,A,1,,,,,,,,,,,,,,,*1E
$BDGSA,A,1,,,,,,,,,,,,,,,*0F
$GLGSA,A,1,,,,,,,,,,,,,,,*02
$GPGSV,3,1,10,01,00,000,43,04,00,000,40,07,00,000,45,08,00,000,44*72
$GPGSV,3,2,10,09,00,000,43,11,00,000,43,18,00,000,43,27,00,000,42*7D
$GPGSV,3,3,10,28,00,000,38,30,00,000,44*7A
$BDGSV,3,1,10,01,00,000,41,02,00,000,41,05,00,000,18,07,00,000,43*64
$BDGSV,3,2,10,08,00,000,42,09,00,000,38,10,00,000,43,13,00,000,41*65
$BDGSV,3,3,10,27,00,000,44,30,00,000,45*6E
$B3CN0,0,0,0,0,0,0,0,0,0,0,0,0,0,0*4C
---00000017--- Acq_st=7 0  2000-1-1 0:1:56 
[00]  00(G01)  f 42  8  0  -4093.8  2046005.3  0.0  2 0 1285 1830  517
[01]  03(G04)  f 40  7  0    833.1  2045998.9 -0.1  2 0  533 1167  754
[02]  06(G07)  f 45  7  0  -2050.2  2046002.6  0.1  2 0 3432 5043 2727
[03]  07(G08)  f 45 16  0   1003.5  2045998.6  0.0  2 0 2677 4141 1932
[04]  08(G09)  f 44  7  0   1490.6  2045998.0 -0.0  2 0 1914 3380 1488
[05]  10(G11)  f 43  7  0  -2766.8  2046003.5 -0.0  2 0 1141 2164  666
[06]  17(G18)  f 44  7  0  -2707.9  2046003.4  0.1  2 0 1961 2352  763
[08]  26(G27)  f 40  8  0   2126.7  2045997.2  0.0  2 0 1031 1703 1152
[09]  27(G28)  f 39  8  0  -2818.0  2046003.6  0.1  2 0  660 1343  759
[10]  29(G30)  f 44  8  0  -3766.9  2046004.8 -0.0  2 0 2708 4203 1621
[16]  37(B01) 1f 40 10  0  -1103.0  4092002.7 -0.4  2 0 1167 1161  353
[17]  38(B02) 1f 40 22  0  -1127.0  4092002.8  0.6  2 0  974 1386  479
[18]  39(B03)  7 10 10  0  -1365.1  4092003.2  0.0  2 0 1651 1089  240
[19]  40(B04)  7 10 36  1  -1635.0  4092004.5 -0.0  2 0  274  213  323
[20]  41(B05)  7 10 18  1   -836.7  4092002.2 -0.1  2 0    8  205  263
[21]  43(B07) 1f 43  7  0  -1378.2  4092003.5  0.0  2 0 2007 2219  851
[22]  44(B08) 1f 42  7  0  -2433.0  4092006.2  0.0  2 0 1438 1960  848
[24]  45(B09) 1f 39  7  0    691.0  4091998.0 -0.2  2 0 1335 1411  562
[25]  46(B10) 1f 43  7  0  -1494.1  4092003.8  0.0  2 0 1664 2357  864
[26]  49(B13)  7 41  7  0  -2644.6  4092006.8 -0.0  2 0 1247 1934  679
[27]  63(B27) 1f 44  7  0    984.8  4091997.3  0.0  2 0 2030 3019 1372
[29]  66(B30) 1f 45  7  0  -1934.9  4092004.9  0.0  2 0 2763 3323 1335
[32]  78(N-3)  f 48  7  0   -333.4  1022000.2  0.1  2 0  1576 2701 1210
[33]  79(N-2)  f 44  8  0  -4014.9  1022002.5 -0.0  2 0  1130 1906  883
[34]  82(N01)  f 43  7  0   1102.9  1021999.3 -0.0  2 0   346 1088  658
[35]  83(N02)  f 43  7  0  -2423.2  1022001.5 -0.0  2 0   858 1472  786
[36]  84(N03)  f 43  7  0   2975.7  1021998.1  0.1  2 0   820 1591  820
[48]  37(B01)  7 10 10  0   -430.7 20460006.4  0.0  2 0  511  275  579
[49]  38(B02)  f 10 18  1   -839.4 20460014.8 -0.1  2 0  823  557   96
[53]  43(B07)  1  7  7  0  -2196.1 20460022.3 -0.0  1 0  377  539  258
[54]  44(B08)  1 11  7  0  -1421.5 20460037.9  0.0  1 0  677  733  363
[56]  45(B09)  1  8  7  0    188.5 20459990.1  0.0  1 0  290  507  793
[57]  46(B10)  1  7  7  0  -1624.2 20460024.4 -0.0  1 0  346  591  247
[59]  63(B27)  1  8  7  0    632.2 20459986.3  0.1  1 0  284  305  687
[61]  66(B30)  1  7  7  0  -2261.6 20460032.2 -0.0  1 0  397  606  292
$GNGGA,062312.312,,,,,0,00,,,M,,,,0000*2F
$GNRMC,062312.312,A,,,,,,,090180,,*22
$GPGSA,A,1,,,,,,,,,,,,,,,*1E
$BDGSA,A,1,,,,,,,,,,,,,,,*0F
$GLGSA,A,1,,,,,,,,,,,,,,,*02
$GPGSV,3,1,10,01,00,000,42,04,00,000,40,07,00,000,45,08,00,000,45*72
$GPGSV,3,2,10,09,00,000,44,11,00,000,43,18,00,000,44,27,00,000,40*7F
$GPGSV,3,3,10,28,00,000,39,30,00,000,44*7B
$BDGSV,3,1,10,01,00,000,40,02,00,000,40,03,00,000,36,07,00,000,43*6E
$BDGSV,3,2,10,08,00,000,42,09,00,000,39,10,00,000,43,13,00,000,41*64
$BDGSV,3,3,10,27,00,000,44,30,00,000,45*6E
$B3CN0,0,0,0,0,0,0,0,0,0,0,0,0,0,0*4C
---00000018--- Acq_st=7 0  2000-1-1 0:1:57 
[00]  00(G01)  f 43  7  0  -4090.0  2046005.3 -0.1  2 0 1414 2587 1331
[01]  03(G04)  f 40  7  0    844.6  2045998.8 -0.1  2 0  994 1906 1249
[02]  06(G07)  f 45  7  0  -2047.2  2046002.6 -0.0  2 0 3148 4718 2335
[03]  07(G08)  f 45 12  0   1002.5  2045998.6 -0.0  2 0 2378 3826 1414
[04]  08(G09)  f 44  7  0   1493.3  2045998.0 -0.0  2 0 1891 2843 1280
[05]  10(G11)  f 44  7  0  -2761.3  2046003.5  0.0  2 0 1325 2880 1498
[06]  17(G18)  f 43  7  0  -2704.1  2046003.5 -0.0  2 0 1004 2145 1196
[08]  26(G27)  f 41  7  0   2129.8  2045997.2 -0.1  2 0 1070 1340  775
[09]  27(G28)  f 38  7  0  -2820.5  2046003.6  0.2  2 0  937 1485  807
[10]  29(G30)  f 44  9  0  -3768.4  2046004.8 -0.0  2 0 2103 3308 1321
[16]  37(B01) 1f 40 23  0  -1110.5  4092002.8 -0.2  2 0 1075 1154  473
[17]  38(B02) 1f 40 22  0  -1129.4  4092002.8 -0.6  2 0 1296 1290  621
[19]  40(B04)  7 36 24  0  -2023.1  4092005.2 -0.1  2 0  112  112  369
[20]  41(B05)  7 36 20  0  -1045.1  4092002.6  0.2  2 0  522  260  220
[21]  43(B07) 1f 43  8  0  -1372.8  4092003.5 -0.0  2 0 1593 2056 1051
[22]  44(B08) 1f 42  9  0  -2425.7  4092006.2 -0.0  2 0 1696 1802  672
[24]  45(B09) 1f 39  7  0    687.5  4091998.0 -0.1  2 0 1283 1543  181
[25]  46(B10) 1f 43  7  0  -1496.5  4092003.8  0.0  2 0 1716 2497 1161
[26]  49(B13)  7 41  7  0  -2644.1  4092006.8 -0.0  2 0 1360 1728  807
[27]  63(B27) 1f 44  7  0    987.9  4091997.3 -0.1  2 0 2506 3064 1037
[29]  66(B30) 1f 45  7  0  -1931.1  4092004.9 -0.0  2 0 2590 3487 1392
[32]  78(N-3)  f 48  7  0   -330.1  1022000.2 -0.0  2 0  1421 2836 1066
[33]  79(N-2)  f 44 12  0  -4012.1  1022002.5 -0.2  2 0   761 1483  628
[34]  82(N01)  f 43  7  0   1106.3  1021999.3 -0.1  2 0  1193 1399  605
[35]  83(N02)  f 43  7  0  -2422.7  1022001.5  0.1  2 0   802 1422  843
[36]  84(N03)  f 42  7  0   2976.3  1021998.1  0.2  2 0   833 1368  727
[48]  37(B01)  7 10 10  0   -467.8 20460004.7  0.1  2 0 1023  736  625
[49]  38(B02)  f 10 36  1   -633.1 20460011.3  0.0  2 0  434  297  340
[53]  43(B07)  1  7  7  0  -1935.9 20460020.8 -0.0  1 0  351  351  307
[54]  44(B08)  1  7  7  0  -1097.6 20460037.3  0.1  1 0  325  244  660
[56]  45(B09)  1  7  7  0    341.5 20459990.2  0.1  1 0  344  137  331
[57]  46(B10)  1  7  7  0  -1753.8 20460023.9  0.2  1 0  246  627  709
[59]  63(B27)  1  7  7  0    -75.1 20459985.5 -0.2  1 0  363  255  378
[61]  66(B30)  1  7  7  0  -2553.0 20460030.1 -0.1  1 0  101  191  300
$GNGGA,062313.312,,,,,0,00,,,M,,,,0000*2E
$GNRMC,062313.312,A,,,,,,,090180,,*23
$GPGSA,A,1,,,,,,,,,,,,,,,*1E
$BDGSA,A,1,,,,,,,,,,,,,,,*0F
$GLGSA,A,1,,,,,,,,,,,,,,,*02
$GPGSV,3,1,10,01,00,000,43,04,00,000,40,07,00,000,45,08,00,000,45*73
$GPGSV,3,2,10,09,00,000,44,11,00,000,44,18,00,000,43,27,00,000,41*7E
$GPGSV,3,3,10,28,00,000,38,30,00,000,44*7A
$BDGSV,3,1,10,01,00,000,40,02,00,000,41,05,00,000,36,07,00,000,43*69
$BDGSV,3,2,10,08,00,000,42,09,00,000,39,10,00,000,43,13,00,000,41*64
$BDGSV,3,3,10,27,00,000,44,30,00,000,45*6E
$B3CN0,0,0,0,0,0,0,0,0,0,0,0,0,0,0*4C
---00000019--- Acq_st=7 0  2000-1-1 0:1:58 
[00]  00(G01)  f 43  7  0  -4090.0  2046005.3 -0.0  2 0 2062 2597  781
[01]  03(G04)  f 40  7  0    840.7  2045998.8  0.0  2 0 1553 1957 1250
[02]  06(G07)  f 45  7  0  -2046.3  2046002.6  0.0  2 0 2992 4262 1905
[03]  07(G08)  f 45 16  0   1001.2  2045998.6  0.0  2 0 2821 3543  802
[04]  08(G09)  f 43  7  0   1493.8  2045998.0 -0.0  2 0 1771 2291  974
[05]  10(G11)  f 43  7  0  -2761.5  2046003.5  0.0  2 0 1962 2820 1565
[06]  17(G18)  f 43 11  0  -2702.5  2046003.4 -0.0  2 0 1712 2868 1310
[08]  26(G27)  f 40  9  0   2134.7  2045997.2  0.0  2 0  781 1364  846
[09]  27(G28)  f 37  7  0  -2822.5  2046003.6  0.1  2 0  839 1271 1090
[10]  29(G30)  f 44  7  0  -3763.2  2046004.8 -0.0  2 0 1694 3171 1997
[16]  37(B01) 1f 40 20  0  -1101.5  4092002.8 -0.4  2 0 1228 1566  784
[17]  38(B02) 1f 39 24  0  -1121.6  4092002.8 -0.2  2 0 1229 1254  830
[19]  40(B04)  7 10 26  1  -2001.6  4092005.3  0.1  2 0  540  579  477
[20]  41(B05)  7 21 10  0  -1479.5  4092003.8  0.1  2 0  778  128  382
[21]  43(B07) 1f 42  7  0  -1374.5  4092003.5 -0.0  2 0 1403 1817  791
[22]  44(B08) 1f 42  9  0  -2434.2  4092006.3  0.0  2 0 1586 2197  578
[24]  45(B09) 1f 38  7  0    688.3  4091998.1  0.1  2 0  921 1135  890
[25]  46(B10) 1f 42  7  0  -1497.8  4092003.8 -0.0  2 0 2122 2717 1695
[26]  49(B13)  7 41  7  0  -2642.8  4092006.8 -0.1  2 0  979 1353  577
[27]  63(B27) 1f 44  7  0    987.4  4091997.3 -0.0  2 0 2130 2436  911
[29]  66(B30) 1f 45  7  0  -1933.0  4092004.9  0.0  2 0 2820 3368  959
[32]  78(N-3)  f 48  7  0   -330.0  1022000.2 -0.0  2 0  1591 3222 1666
[33]  79(N-2)  f 44  7  0  -4011.2  1022002.5 -0.1  2 0   888 1440  460
[34]  82(N01)  f 43  7  0   1106.3  1021999.3 -0.0  2 0   962 1685  888
[35]  83(N02)  f 43  7  0  -2421.9  1022001.5  0.0  2 0   469 1201  547
[36]  84(N03)  f 42  7  0   2976.2  1021998.1  0.0  2 0   766 1159  378
[48]  37(B01)  7 19 10  0   -703.8 20460010.2  0.1  2 0  173  218  255
[49]  38(B02)  f 18 14  1  -1118.4 20460019.6  0.0  2 0   62  140  197
[59]  63(B27)  1  7  7  0    253.6 20459985.0  0.0  1 0  261  118  352
[61]  66(B30)  1 10  7  0  -2182.9 20460030.8  0.0  1 0  200  276  196
$GNGGA,062314.312,,,,,0,00,,,M,,,,0000*29
$GNRMC,062314.312,A,,,,,,,090180,,*24
$GPGSA,A,1,,,,,,,,,,,,,,,*1E
$BDGSA,A,1,,,,,,,,,,,,,,,*0F
$GLGSA,A,1,,,,,,,,,,,,,,,*02
$GPGSV,3,1,10,01,00,000,43,04,00,000,40,07,00,000,45,08,00,000,45*73
$GPGSV,3,2,10,09,00,000,43,11,00,000,43,18,00,000,43,27,00,000,40*7F
$GPGSV,3,3,10,28,00,000,37,30,00,000,44*75
$BDGSV,3,1,10,01,00,000,40,02,00,000,39,05,00,000,21,07,00,000,42*61
$BDGSV,3,2,10,08,00,000,42,09,00,000,38,10,00,000,42,13,00,000,41*64
$BDGSV,3,3,10,27,00,000,44,30,00,000,45*6E
$B3CN0,19,18,0,0,0,0,0,0,0,0,0,0,0,0*4D
---00000020--- Acq_st=3 0  2000-1-1 0:1:59 
[00]  00(G01)  f 42  7  0  -4095.4  2046005.3 -0.0  2 0  985 1824  743
[01]  03(G04)  f 40  7  0    846.1  2045998.8 -0.0  2 0 1328 1749 1172
[02]  06(G07)  f 45  9  0  -2046.1  2046002.6 -0.0  2 0 3009 4330 2226
[03]  07(G08)  f 44 14  0   1003.8  2045998.6 -0.1  2 0 2319 3997 1385
[04]  08(G09)  f 43  7  0   1495.6  2045998.0  0.0  2 0 1607 2750  909
[05]  10(G11)  f 43  7  0  -2764.8  2046003.5 -0.0  2 0 2080 2891 1789
[06]  17(G18)  f 43  7  0  -2701.3  2046003.5 -0.0  2 0 2141 3450 1314
[08]  26(G27)  f 41  7  0   2132.8  2045997.2 -0.1  2 0  940 1620  633
[09]  27(G28)  f 38  7  0  -2817.3  2046003.6 -0.0  2 0 1148 1672  775
[10]  29(G30)  f 43  7  0  -3766.0  2046004.8  0.0  2 0 2512 3811 1949
[16]  37(B01) 1f 40 13  0  -1105.7  4092002.8 -0.4  2 0 1254 1539  547
[17]  38(B02) 1f 40 26  0  -1124.8  4092002.9 -0.6  2 0 1185 1608  982
[19]  40(B04)  7 22 30  1  -2007.2  4092005.4 -0.2  2 0  525  546  505
[20]  41(B05)  7 36 24  0  -1955.5  4092004.8 -0.1  2 0  192  435  469
[21]  43(B07) 1f 42 11  0  -1370.7  4092003.5 -0.1  2 0 1839 2104  888
[22]  44(B08) 1f 42  7  0  -2432.7  4092006.3  0.0  2 0 1919 1814  493
[24]  45(B09) 1f 38  7  0    688.5  4091998.1 -0.1  2 0  978 1268  523
[25]  46(B10) 1f 43  7  0  -1494.3  4092003.8  0.0  2 0 1530 1597  351
[26]  49(B13)  7 40  7  0  -2641.8  4092006.8  0.0  2 0 1226 1491  510
[27]  63(B27) 1f 44  8  0    989.8  4091997.3  0.0  2 0 2406 2844 1290
[29]  66(B30) 1f 45  7  0  -1933.5  4092005.0  0.0  2 0 3042 3654 1279
[32]  78(N-3)  f 48  7  0   -329.1  1022000.2  0.0  2 0  1377 2746 1332
[33]  79(N-2)  f 44  7  0  -4010.6  1022002.5 -0.3  2 0   900 1680  980
[34]  82(N01)  f 43  7  0   1107.0  1021999.3  0.1  2 0   711 1597  780
[35]  83(N02)  f 43  7  0  -2420.5  1022001.5 -0.0  2 0   919 1541  834
[36]  84(N03)  f 42  7  0   2976.3  1021998.1 -0.0  2 0   443 1329  558
[48]  37(B01)  7 36 10  0  -1233.3 20460018.6 -0.0  2 0  592  635  500
[53]  43(B07)  1  7  7  0  -1404.3 20460021.7 -0.1  1 0  164  612  322
[54]  44(B08)  1  7  7  0  -2373.0 20460037.6 -0.1  1 0  984  889  561
[56]  45(B09)  1  7  7  0    741.9 20459988.1  0.1  1 0  562  366  143
[57]  46(B10)  1  7  7  0  -1679.4 20460023.9 -0.0  1 0  288  335  738
$GNGGA,062315.312,,,,,0,00,,,M,,,,0000*28
$GNRMC,062315.312,A,,,,,,,090180,,*25
$GPGSA,A,1,,,,,,,,,,,,,,,*1E
$BDGSA,A,1,,,,,,,,,,,,,,,*0F
$GLGSA,A,1,,,,,,,,,,,,,,,*02
$GPGSV,3,1,10,01,00,000,42,04,00,000,40,07,00,000,45,08,00,000,44*73
$GPGSV,3,2,10,09,00,000,44,11,00,000,43,18,00,000,43,27,00,000,41*79
$GPGSV,3,3,10,28,00,000,38,30,00,000,43*7D
$BDGSV,3,1,10,01,00,000,40,02,00,000,40,04,00,000,22,07,00,000,42*6D
$BDGSV,3,2,10,08,00,000,42,09,00,000,38,10,00,000,43,13,00,000,40*64
$BDGSV,3,3,10,27,00,000,44,30,00,000,45*6E
$B3CN0,0,0,0,0,0,0,0,0,0,0,0,0,0,0*4C
ch18 satid=39 freq=-1000 acq ok!
---00000021--- Acq_st=3 0  2000-1-1 0:2:0 
[00]  00(G01)  f 42  7  0  -4092.1  2046005.3 -0.0  2 0 1744 2132 1032
[01]  03(G04)  f 40  7  0    840.8  2045998.8  0.2  2 0  732 1463  624
[02]  06(G07)  f 45  7  0  -2046.8  2046002.6  0.0  2 0 2647 4044 1950
[03]  07(G08)  f 45 16  0   1001.5  2045998.6  0.0  2 0 2264 4019 1216
[04]  08(G09)  f 43  7  0   1492.9  2045998.0  0.0  2 0 1554 3115 1507
[05]  10(G11)  f 43  7  0  -2764.4  2046003.5  0.0  2 0 1385 2487 1382
[06]  17(G18)  f 42  7  0  -2705.0  2046003.5 -0.0  2 0 1493 2618 1154
[08]  26(G27)  f 41  7  0   2121.4  2045997.2 -0.0  2 0 1266 1785 1004
[09]  27(G28)  f 38  7  0  -2819.0  2046003.6 -0.1  2 0 1188 1364  516
[10]  29(G30)  f 44  7  0  -3767.0  2046004.8 -0.0  2 0 2485 3687 1372
[16]  37(B01) 1f 41 21  0  -1107.9  4092002.7 -0.6  2 0 1074 1466  376
[17]  38(B02) 1f 40 25  0  -1130.3  4092002.9  0.3  2 0 1242 1346  715
[18]  39(B03)  1 10 10  0  -1000.0  4092004.3 -0.0  1 0  235 1133 2445
[19]  40(B04)  7 10 22  1  -1960.9  4092005.3  0.1  2 0  395  440  371
[20]  41(B05)  7 20 27  1  -1999.8  4092005.5  0.0  2 0  331  261  528
[21]  43(B07) 1f 43  9  0  -1374.9  4092003.5 -0.0  2 0 1699 2602 1285
[22]  44(B08) 1f 42  7  0  -2429.5  4092006.2 -0.0  2 0 1452 1672  611
[24]  45(B09) 1f 39  7  0    688.8  4091998.1  0.2  2 0  775 1256  882
[25]  46(B10) 1f 43  7  0  -1499.2  4092003.8  0.0  2 0 1814 2513  979
[26]  49(B13) 1f 41  7  0  -2647.5  4092006.8  0.1  2 0 1315 1457  616
[27]  63(B27) 1f 44  7  0    990.2  4091997.3 -0.1  2 0 2164 2700 1426
[29]  66(B30) 1f 45  7  0  -1933.5  4092004.9  0.0  2 0 2576 3080 1275
[32]  78(N-3)  f 48  7  0   -329.8  1022000.2 -0.1  2 0  1379 2585 1254
[33]  79(N-2)  f 44  7  0  -4011.7  1022002.5 -0.0  2 0   732 1542  544
[34]  82(N01)  f 43  7  0   1104.9  1021999.2 -0.0  2 0   463 1252  556
[35]  83(N02)  f 43  7  0  -2423.3  1022001.5 -0.0  2 0   508 1391  816
[36]  84(N03)  f 42  7  0   2975.1  1021998.1 -0.1  2 0   596 1126  700
[49]  38(B02)  1 10 10  0   -976.8 20460018.6  0.1  1 0  291  160  215
[53]  43(B07)  1  7  7  0  -1474.9 20460021.8  0.0  1 0  437  794  427
[54]  44(B08)  1  7  9  0  -2366.5 20460038.9  0.1  1 0   32  433  294
[56]  45(B09)  1  7  7  0    822.6 20459989.9  0.0  1 0  678  371  324
[57]  46(B10)  1  7  7  0  -1634.9 20460024.9 -0.0  1 0  553   95  550
[59]  63(B27)  1  7  7  0    977.0 20459986.0 -0.0  1 0  559  487  371
[61]  66(B30)  1  7  7  0  -1602.6 20460031.8  0.0  1 0  397  366  250
$GNGGA,062316.312,,,,,0,00,,,M,,,,0000*2B
$GNRMC,062316.312,A,,,,,,,090180,,*26
$GPGSA,A,1,,,,,,,,,,,,,,,*1E
$BDGSA,A,1,,,,,,,,,,,,,,,*0F
$GLGSA,A,1,,,,,,,,,,,,,,,*02
$GPGSV,3,1,10,01,00,000,42,04,00,000,40,07,00,000,45,08,00,000,45*72
$GPGSV,3,2,10,09,00,000,43,11,00,000,43,18,00,000,42,27,00,000,41*7F
$GPGSV,3,3,10,28,00,000,38,30,00,000,44*7A
$BDGSV,3,1,10,01,00,000,41,02,00,000,40,05,00,000,19,07,00,000,43*64
$BDGSV,3,2,10,08,00,000,42,09,00,000,39,10,00,000,43,13,00,000,41*64
$BDGSV,3,3,10,27,00,000,44,30,00,000,45*6E
$B3CN0,0,0,0,0,0,0,0,0,0,0,0,0,0,0*4C
---00000022--- Acq_st=3 0  2000-1-1 0:2:1 
[00]  00(G01)  f 42  7  0  -4095.0  2046005.3  0.0  2 0 1350 2093  960
[01]  03(G04)  f 40  7  0    834.9  2045998.9 -0.1  2 0 1290 2375 1402
[02]  06(G07)  f 45  7  0  -2051.0  2046002.6  0.0  2 0 3059 4766 2690
[03]  07(G08)  f 44 15  0    998.1  2045998.6  0.0  2 0 2311 3613 1297
[04]  08(G09)  f 43  7  0   1486.6  2045998.0  0.1  2 0 1664 2759 1285
[05]  10(G11)  f 43  7  0  -2770.7  2046003.5 -0.0  2 0 2177 3006 1129
[06]  17(G18)  f 43  7  0  -2709.4  2046003.4  0.1  2 0 1678 2617 1461
[08]  26(G27)  f 40  7  0   2123.5  2045997.2  0.0  2 0  738 1143  338
[09]  27(G28)  f 38 12  0  -2824.4  2046003.6  0.1  2 0 1186 1371  990
[10]  29(G30)  f 44  8  0  -3770.0  2046004.9 -0.0  2 0 2345 3516 1887
[16]  37(B01) 1f 40 10  0  -1114.2  4092002.8  0.0  2 0  913 1155  261
[17]  38(B02) 1f 41 27  0  -1132.2  4092002.8 -0.5  2 0  922 1694  556
[18]  39(B03)  1 29 29  0  -1128.5  4092003.8  0.7  1 0 1182 2394 1552
[19]  40(B04)  7 16 29  1  -2018.0  4092005.3  0.1  2 0   82  180  286
[20]  41(B05)  7 24 31  1  -2011.4  4092005.3 -0.1  2 0  331  254  118
[21]  43(B07) 1f 43  7  0  -1380.1  4092003.5  0.0  2 0 2464 3003 1359
[22]  44(B08) 1f 42  8  0  -2439.6  4092006.3  0.1  2 0 1292 1655  854
[24]  45(B09) 1f 38  7  0    683.5  4091998.1  0.0  2 0 1018 1591  711
[25]  46(B10) 1f 43  7  0  -1498.9  4092003.8  0.0  2 0 1669 2358 1484
[26]  49(B13) 1f 41  7  0  -2650.0  4092006.8  0.0  2 0 1289 1700  953
[27]  63(B27) 1f 44  7  0    983.3  4091997.3 -0.0  2 0 2471 3198 1267
[29]  66(B30) 1f 45  7  0  -1937.5  4092005.0  0.0  2 0 2860 3352 1474
[32]  78(N-3)  f 48  7  0   -333.3  1022000.2  0.0  2 0  1848 3064 1294
[33]  79(N-2)  f 44 10  0  -4015.9  1022002.6  0.1  2 0   940 1615  881
[34]  82(N01)  f 43  7  0   1101.2  1021999.3 -0.1  2 0   884 1456  750
[35]  83(N02)  f 43  7  0  -2427.9  1022001.5  0.1  2 0  1052 1432  787
[36]  84(N03)  f 42  7  0   2971.8  1021998.1 -0.1  2 0   948 1629  789
[48]  37(B01)  1 23 36  1   -939.7 20460021.6  0.0  1 0  742  358  224
[49]  38(B02)  1 14 18  0  -1451.8 20460018.4  0.2  1 0  406  456  347
[53]  43(B07)  1  7  9  0   -887.1 20460022.8 -0.0  1 0  410  493  450
[54]  44(B08)  1  7  7  0  -1911.4 20460038.2 -0.0  1 0  399  402  255
[56]  45(B09)  1  8  7  0   1225.8 20459987.5 -0.0  1 0  296  257  293
[57]  46(B10)  1  7  7  0  -1327.9 20460022.4  0.0  1 0  579  711   99
[58]  49(B13)  1 10  7  0  -2126.6 20460043.9  0.1  1 0  198   57  181
[59]  63(B27)  1  7  7  0   1233.2 20459984.6 -0.0  1 0  270  519  488
[61]  66(B30)  1  7  7  0  -1315.3 20460033.0  0.1  1 0  475   94  664
$GNGGA,062317.312,,,,,0,00,,,M,,,,0000*2A
$GNRMC,062317.312,A,,,,,,,090180,,*27
$GPGSA,A,1,,,,,,,,,,,,,,,*1E
$BDGSA,A,1,,,,,,,,,,,,,,,*0F
$GLGSA,A,1,,,,,,,,,,,,,,,*02
$GPGSV,3,1,10,01,00,000,42,04,00,000,40,07,00,000,45,08,00,000,44*73
$GPGSV,3,2,10,09,00,000,43,11,00,000,43,18,00,000,43,27,00,000,40*7F
$GPGSV,3,3,10,28,00,000,38,30,00,000,44*7A
$BDGSV,3,1,10,01,00,000,40,02,00,000,41,05,00,000,24,07,00,000,43*6A
$BDGSV,3,2,10,08,00,000,42,09,00,000,38,10,00,000,43,13,00,000,41*65
$BDGSV,3,3,10,27,00,000,44,30,00,000,45*6E
$B3CN0,0,0,0,0,0,0,0,0,0,0,0,0,0,0*4C
---00000023--- Acq_st=3 0  2000-1-1 0:2:2 
[00]  00(G01)  f 42  7  0  -4096.6  2046005.3  0.0  2 0 1514 2138 1146
[01]  03(G04)  f 40  7  0    833.7  2045998.9 -0.1  2 0 1303 1708  666
[02]  06(G07)  f 45 12  0  -2050.6  2046002.6 -0.0  2 0 3345 4538 2075
[03]  07(G08)  f 44  9  0    994.8  2045998.6 -0.0  2 0 1915 3458 1437
[04]  08(G09)  f 43  7  0   1486.9  2045998.0 -0.0  2 0 1573 2215 1186
[05]  10(G11)  f 43 11  0  -2767.0  2046003.5 -0.0  2 0 1589 2748 1106
[06]  17(G18)  f 43  7  0  -2706.2  2046003.5  0.0  2 0 2267 3213 1231
[08]  26(G27)  f 40 10  0   2120.4  2045997.2  0.0  2 0  993 1760  995
[09]  27(G28)  f 38  7  0  -2824.1  2046003.6  0.0  2 0  312 1106  361
[10]  29(G30)  f 44  7  0  -3768.8  2046004.8  0.1  2 0 1858 3126 1647
[16]  37(B01) 1f 40 21  0  -1109.7  4092002.8 -0.7  2 0  923 1289  603
[17]  38(B02) 1f 40 26  0  -1133.0  4092002.9  0.0  2 0 1542 1402  232
[18]  39(B03)  7 22 10  0  -1375.6  4092003.3  0.1  2 0 1751 1075  175
[19]  40(B04)  7 10 10  0  -2470.3  4092006.5  0.1  2 0  283  297  458
[20]  41(B05)  7 22 31  1  -2010.9  4092005.1  0.1  2 0  416  482  532
[21]  43(B07) 1f 43  9  0  -1379.8  4092003.5 -0.0  2 0 1539 2242 1047
[22]  44(B08) 1f 42  7  0  -2436.9  4092006.2 -0.1  2 0 1764 1849  343
[24]  45(B09) 1f 38  7  0    680.8  4091998.1  0.0  2 0  885  876  329
[25]  46(B10) 1f 43  7  0  -1502.8  4092003.8  0.0  2 0 1888 2101 1187
[26]  49(B13) 1f 41  7  0  -2649.0  4092006.8 -0.0  2 0  953 1372  856
[27]  63(B27) 1f 44  7  0    986.0  4091997.3 -0.0  2 0 2381 2714  834
[29]  66(B30) 1f 45  7  0  -1936.7  4092005.0 -0.0  2 0 2700 3382 1441
[32]  78(N-3)  f 48  7  0   -332.5  1022000.2  0.0  2 0  1624 2919 1416
[33]  79(N-2)  f 44 14  0  -4014.4  1022002.5 -0.0  2 0   952 1632  693
[34]  82(N01)  f 43  7  0   1101.2  1021999.3  0.1  2 0   740 1362  504
[35]  83(N02)  f 43  7  0  -2426.4  1022001.5  0.1  2 0  1042 1259  733
[36]  84(N03)  f 43  7  0   2971.9  1021998.1 -0.0  2 0   692 1557  759
[48]  37(B01)  1 19 10  1  -1354.1 20460024.1  0.1  1 0  330  145  319
[49]  38(B02)  1 10 18  0   -925.1 20460025.7 -0.1  1 0  251  368 1072
[53]  43(B07)  1  7  7  0   -885.8 20460020.7  0.1  1 0  955  452  107
[54]  44(B08)  1  7  7  0  -2304.0 20460038.7 -0.0  1 0  557  327  379
[56]  45(B09)  1  7  7  0   1269.3 20459990.6  0.2  1 0  195  383  553
[57]  46(B10)  1  7  7  0  -1430.1 20460025.0 -0.1  1 0  239  260  644
[58]  49(B13)  1  7  7  0  -2094.1 20460044.1  0.0  1 0  161  343  276
[59]  63(B27)  1  7  7  0   1452.5 20459985.5  0.0  1 0  539  934  881
[61]  66(B30)  1  7  7  0  -1436.7 20460030.4 -0.0  1 0  487  199  414
$GNGGA,062318.312,,,,,0,00,,,M,,,,0000*25
$GNRMC,062318.312,A,,,,,,,240419,,*22
$GPGSA,A,1,,,,,,,,,,,,,,,*1E
$BDGSA,A,1,,,,,,,,,,,,,,,*0F
$GLGSA,A,1,,,,,,,,,,,,,,,*02
$GPGSV,3,1,10,01,00,000,42,04,00,000,40,07,00,000,45,08,00,000,44*73
$GPGSV,3,2,10,09,00,000,43,11,00,000,43,18,00,000,43,27,00,000,40*7F
$GPGSV,3,3,10,28,00,000,38,30,00,000,44*7A
$BDGSV,3,1,11,01,00,000,40,02,00,000,40,03,00,000,22,05,00,000,22*6F
$BDGSV,3,2,11,07,00,000,43,08,00,000,42,09,00,000,38,10,00,000,43*63
$BDGSV,3,3,11,13,00,000,41,27,00,000,44,30,00,000,45*58
$B3CN0,0,0,0,0,0,0,0,0,0,0,0,0,0,0*4C
---00000024--- Acq_st=3 0  2000-1-1 0:2:3 
[00]  00(G01)  f 42  7  0  -4093.3  2046005.3 -0.0  2 0 1581 2721 1830
[01]  03(G04)  f 41  7  0    836.3  2045998.9  0.0  2 0 1657 2011  981
[02]  06(G07)  f 45  7  0  -2045.3  2046002.6 -0.0  2 0 2598 4424 2451
[03]  07(G08)  f 45 13  0   1001.2  2045998.6  0.0  2 0 1833 3962 1967
[04]  08(G09)  f 43  8  0   1492.2  2045998.0  0.1  2 0 2148 2734  900
[05]  10(G11)  f 43  8  0  -2763.8  2046003.5  0.0  2 0 1711 3098 1199
[06]  17(G18)  f 43  7  0  -2701.6  2046003.5 -0.0  2 0 1202 2610 1406
[08]  26(G27)  f 40  8  0   2124.4  2045997.2  0.1  2 0 1077 1680  957
[09]  27(G28)  f 38  7  0  -2821.2  2046003.6 -0.0  2 0 1211 1712  541
[10]  29(G30)  f 44  7  0  -3768.6  2046004.9  0.0  2 0 2057 3225 1250
[16]  37(B01) 1f 40 10  0  -1103.5  4092002.9  0.0  2 0 1200 1426  736
[17]  38(B02) 1f 40 22  0  -1126.3  4092002.9  0.3  2 0  749 1074  807
[18]  39(B03)  7 19 10  0  -1370.9  4092003.2  0.4  2 0 1937 1108  407
[19]  40(B04)  7 16 18  0  -2791.4  4092007.6 -0.0  2 0  175  225  474
[20]  41(B05)  7 20 27  1  -2007.1  4092005.0 -0.2  2 0  170  192  218
[21]  43(B07) 1f 43  7  0  -1374.5  4092003.5  0.1  2 0 2287 2691 1001
[22]  44(B08) 1f 42  7  0  -2430.1  4092006.3 -0.0  2 0 1584 1601  318
[24]  45(B09) 1f 39  7  0    688.4  4091998.1  0.1  2 0  984  748  210
[25]  46(B10) 1f 43  7  0  -1497.4  4092003.8 -0.1  2 0 1717 2210 1247
