SD initialized success
Create debug.log Failed! 3
bbram_blkflag = 1
rtcflag = 0
BBRAM Block OK: 01 EPHflag: 282214c9 300012df, rtc 00
Hot-start nowtime:day = 24,minute = 58,seconds = 27.00
GPS Pred_Dopp 1  -596.91
sv_pvt.vx:174.474838,sv_pvt.vy:-1803.695435,sv_pvt.vz:2497.007080
vel[0]:0.170000, vel[1]:-0.630000, vel[2]:-0.270000
-0.584117 0.617818 0.526410,df:-212.400000
BD Pred_Dopp 1 -1089.08
BD Pred_Dopp 2 -1132.86
BD Pred_Dopp 3 -1106.10
GPS Pred_Dopp 4  1158.99
sv_pvt.vx:-1562.782715,sv_pvt.vy:-1213.986572,sv_pvt.vz:-2229.197510
vel[0]:0.170000, vel[1]:-0.630000, vel[2]:-0.270000
0.299778 0.607811 -0.735322,df:-212.400000
BD Pred_Dopp 4 -1104.32
BD Pred_Dopp 5 -1141.70
GPS Pred_Dopp 7  1446.83
sv_pvt.vx:-285.189941,sv_pvt.vy:-277.117706,sv_pvt.vz:-3189.412598
vel[0]:0.170000, vel[1]:-0.630000, vel[2]:-0.270000
-0.242327 0.946456 -0.213304,df:-212.400000
BD Pred_Dopp 7 -1188.74
GPS Pred_Dopp 8  1444.16
sv_pvt.vx:-1690.112183,sv_pvt.vy:-1634.339111,sv_pvt.vz:-1684.212280
vel[0]:0.170000, vel[1]:-0.630000, vel[2]:-0.270000
-0.731784 -0.209561 0.648518,df:-212.400000
BD Pred_Dopp 8 -1443.28
BD Pred_Dopp 10 -1517.89
GPS Pred_Dopp 11   535.10
sv_pvt.vx:-765.582825,sv_pvt.vy:-2402.475586,sv_pvt.vz:1259.203857
vel[0]:0.170000, vel[1]:-0.630000, vel[2]:-0.270000
-0.490624 0.424603 0.760921,df:-212.400000
GPS Pred_Dopp 13  -735.70
sv_pvt.vx:1026.710815,sv_pvt.vy:1479.472168,sv_pvt.vz:-2451.454590
vel[0]:0.170000, vel[1]:-0.630000, vel[2]:-0.270000
0.888951 0.149386 0.432954,df:-212.400000
BD Pred_Dopp 13 -1938.93
GPS Pred_Dopp 18  1122.96
sv_pvt.vx:251.521027,sv_pvt.vy:-2541.773682,sv_pvt.vz:1389.608032
vel[0]:0.170000, vel[1]:-0.630000, vel[2]:-0.270000
-0.637895 0.178920 0.749051,df:-212.400000
GPS Pred_Dopp 22 -2676.02
sv_pvt.vx:-74.235573,sv_pvt.vy:-395.678589,sv_pvt.vz:3100.333740
vel[0]:0.170000, vel[1]:-0.630000, vel[2]:-0.270000
-0.979970 0.173872 -0.097096,df:-212.400000
GPS Pred_Dopp 28 -2917.91
sv_pvt.vx:-2630.843994,sv_pvt.vy:618.531311,sv_pvt.vz:152.768066
vel[0]:0.170000, vel[1]:-0.630000, vel[2]:-0.270000
0.276694 0.406829 0.870592,df:-212.400000
BD Pred_Dopp 29 -2352.88
GPS Pred_Dopp 30  -647.34
sv_pvt.vx:-613.618469,sv_pvt.vy:1099.872070,sv_pvt.vz:-2815.871582
vel[0]:0.170000, vel[1]:-0.630000, vel[2]:-0.270000
0.118485 0.942977 0.311055,df:-212.400000
BD Pred_Dopp 30   190.62
GPS 0 Init Dop:  -346, 4
GPS 1 Init Dop: 10000,80
GPS 2 Init Dop: 10000,80
GPS 3 Init Dop:  1408, 4
GPS 4 Init Dop: 10000,80
GPS 5 Init Dop: 10000,80
GPS 6 Init Dop:  1696, 4
GPS 7 Init Dop:  1694, 4
GPS 8 Init Dop: 10000,80
GPS 9 Init Dop: 10000,80
GPS10 Init Dop:   785, 4
GPS11 Init Dop: 10000,80
GPS12 Init Dop:  -485, 4
GPS13 Init Dop: 10000,80
GPS14 Init Dop: 10000,80
GPS15 Init Dop: 10000,80
GPS16 Init Dop: 10000,80
GPS17 Init Dop:  1372, 4
GPS18 Init Dop: 10000,80
GPS19 Init Dop: 10000,80
GPS20 Init Dop: 10000,80
GPS21 Init Dop: -2426, 4
GPS22 Init Dop: 10000,80
GPS23 Init Dop: 10000,80
GPS24 Init Dop: 10000,80
GPS25 Init Dop: 10000,80
GPS26 Init Dop: 10000,80
GPS27 Init Dop: -2667, 4
GPS28 Init Dop: 10000,80
GPS29 Init Dop:  -397, 4
GPS30 Init Dop: 10000,80
GPS31 Init Dop: 10000,80
BDS 0 Init Dop:  -839, 4
BDS 1 Init Dop:  -882, 4
BDS 2 Init Dop:  -856, 4
BDS 3 Init Dop:  -854, 4
BDS 4 Init Dop:  -891, 4
BDS 5 Init Dop: 10000,80
BDS 6 Init Dop:  -938, 4
BDS 7 Init Dop: -1193, 4
BDS 8 Init Dop: 10000,80
BDS 9 Init Dop: -1267, 4
BDS10 Init Dop: 10000,80
BDS11 Init Dop: 10000,80
BDS12 Init Dop: -1688, 4
BDS13 Init Dop: 10000,80
BDS14 Init Dop: 10000,80
BDS15 Init Dop: 10000,80
BDS16 Init Dop: 10000,80
BDS17 Init Dop: 10000,80
BDS18 Init Dop: 10000,80
BDS19 Init Dop: 10000,80
BDS20 Init Dop: 10000,80
BDS21 Init Dop: 10000,80
BDS22 Init Dop: 10000,80
BDS23 Init Dop: 10000,80
BDS24 Init Dop: 10000,80
BDS25 Init Dop: 10000,80
BDS26 Init Dop: 10000,80
BDS27 Init Dop: 10000,80
BDS28 Init Dop: -2102, 4
BDS29 Init Dop:   440, 4
BDS30 Init Dop: 10000,80
BDS31 Init Dop: 10000,80
Good luck!
ch0 satid=0 freq=-596 acq ok!
ch2 satid=6 freq=1446 acq ok!
ch3 satid=10 freq=535 acq ok!
ch5 satid=17 freq=1122 acq ok!
$GNGGA,000000.000,,,,,0,00,,,M,,,,0000*2B
$GNRMC,000000.000,A,,,,,,,060180,,*29
$GPGSA,A,1,,,,,,,,,,,,,,,*1E
$BDGSA,A,1,,,,,,,,,,,,,,,*0F
$GLGSA,A,1,,,,,,,,,,,,,,,*02
$B3CN0,0,0,0,0,0,0,0,0,0,0,0,0,0,0*4C
---00000001--- Acq_st=3 0  2019-4-24 7:58:28 
[00]  00(G01)  1 27 11  0   -568.1  2046001.7  0.5  1 0 2602 5315 2767
[01]  02(G03)  1  7  7  0  -3541.9  2046006.7  0.1  1 0  499  436 1477
[02]  06(G07)  1 23  7  0   1473.3  2045998.8  0.2  1 0 2733 3580 1632
[03]  10(G11)  1 21  7  0    535.0  2045999.7 -0.1  1 0 1754 3264 1447
[04]  16(G17)  1  7  7  0  -2500.0  2046004.7  0.0  1 0  661 1129 1321
[05]  17(G18)  1  7  7  0   1122.0  2046000.6  0.0  1 0  421 2024 2520
ch8 satid=27 freq=-2917 acq ok!
ch9 satid=29 freq=-647 acq ok!
ch18 satid=39 freq=-1106 acq ok!
$GNGGA,000000.000,,,,,0,00,,,M,,,,0000*2B
$GNRMC,000000.000,A,,,,,,,060180,,*29
$GPGSA,A,1,,,,,,,,,,,,,,,*1E
$BDGSA,A,1,,,,,,,,,,,,,,,*0F
$GLGSA,A,1,,,,,,,,,,,,,,,*02
$B3CN0,0,0,0,0,0,0,0,0,0,0,0,0,0,0*4C
---00000002--- Acq_st=3 0  2019-4-24 7:58:29 
[00]  00(G01)  7 26  7  0   -567.4  2046000.6  0.7 10 0 3091 4222 1992
[01]  02(G03)  7 21  7  0  -3536.0  2046004.5  0.8 10 0 1322 1502  449
[02]  06(G07)  7  7  7  0   1475.5  2045998.0  1.0 10 0 2956 3614 1647
[03]  10(G11)  1 31  7  0    561.2  2045999.0  0.9  1 0 1917 2607 1054
[04]  16(G17)  1 29  7  0  -2538.7  2046003.5  0.5  1 0 1517 2241 1317
[05]  17(G18)  1 29  7  0   1150.9  2045998.5  0.5  1 0 1979 3089 1467
[06]  21(G22)  1  7  7  0  -2443.6  2046003.7  0.0  1 0  474  247  829
[08]  27(G28)  1  7  7  0  -2917.0  2046005.6 -0.1  1 0  427  214 1379
[09]  29(G30)  1  7  7  0   -647.0  2046002.7  0.1  1 0  820 1320 3199
[16]  37(B01)  1 10 10  0   -839.0  4092003.7  0.0  1 0  138  655  683
[17]  38(B02)  1 10 10  0  -1132.0  4092003.7 -0.0  1 0  273  461 1308
[18]  39(B03)  1 10 14  1  -1106.0  4092000.9 -0.2  1 0  314  462 1799
[19]  40(B04)  1 10 10  0  -1354.0  4092004.0 -0.0  1 0  323   97  483
[20]  41(B05)  1 10 10  0  -1141.0  4092003.0  0.0  1 0  282  520 1151
ch21 satid=43 freq=-938 acq ok!
ch22 satid=44 freq=-1443 acq ok!
ch24 satid=46 freq=-1517 acq ok!
ch25 satid=49 freq=-1688 acq ok!
$GNGGA,000000.000,,,,,0,00,,,M,,,,0000*2B
$GNRMC,000000.000,A,,,,,,,060180,,*29
$GPGSA,A,1,,,,,,,,,,,,,,,*1E
$BDGSA,A,1,,,,,,,,,,,,,,,*0F
$GLGSA,A,1,,,,,,,,,,,,,,,*02
$GPGSV,1,1,02,01,00,000,26,03,00,000,21*7E
$B3CN0,0,0,0,0,0,0,0,0,0,0,0,0,0,0*4C
---00000003--- Acq_st=3 0  2019-4-24 7:58:30 
[00]  00(G01)  7 45  7  0   -560.5  2046000.6  0.0  2 0 3411 4808 3053
[01]  02(G03)  7 39  7  0  -3526.6  2046004.5  0.2  2 0 1323 1861 1370
[02]  06(G07)  7 45  7  0   1481.1  2045998.0 -0.1  2 0 2366 3556 1783
[03]  10(G11)  7 36  7  0    567.2  2045999.2  0.3  2 0 1355 2330 1247
[04]  16(G17)  7 27  7  0  -2535.6  2046003.2  0.6 10 0 1461 1842  722
[05]  17(G18)  7 27  7  0   1157.3  2045998.4  0.5 10 0 1831 2523  937
[06]  21(G22)  1 13  7  0  -2543.7  2046004.3  0.1  1 0  649  787  555
[08]  27(G28)  1 33 13  0  -2890.1  2046004.3  0.8  1 0 1784 2646 1286
[09]  29(G30)  1 30  7  0   -613.8  2046001.3  0.8  1 0 3251 3694 1278
[16]  37(B01)  1 10 36  1  -1059.1  4092005.1  0.4  1 0  731 1213  794
[17]  38(B02)  1 10 28  1  -1100.0  4092002.9  0.3  1 0  164 1216 1979
[18]  39(B03)  1 10 26  1  -1070.8  4092002.4 -0.0  1 0  239  661 1330
[19]  40(B04)  1 41 16  0  -1071.9  4092004.1  1.0  1 0 1020 1467  521
[20]  41(B05)  1 38 25  0  -1117.4  4092003.8  1.0  1 0 1219 1176  209
[21]  43(B07)  1  7  7  0  -1161.2  4092005.5 -0.0  1 0  447 1873 2430
[22]  44(B08)  1  7  7  0  -1415.0  4092006.8 -0.0  1 0  143 1517 2428
[24]  46(B10)  1  7  7  0  -1521.2  4092002.9 -0.1  1 0  448  249  321
[25]  49(B13)  1  7  7  0  -1688.0  4092005.3 -0.0  1 0  713  270  610
$GNGGA,075831.840,,,,,0,00,,,M,,,,0000*2F
$GNRMC,075831.840,A,,,,,,,090180,,*22
$GPGSA,A,1,,,,,,,,,,,,,,,*1E
$BDGSA,A,1,,,,,,,,,,,,,,,*0F
$GLGSA,A,1,,,,,,,,,,,,,,,*02
$GPGSV,2,1,06,01,00,000,45,03,00,000,39,07,00,000,45,11,00,000,36*76
$GPGSV,2,2,06,17,00,000,27,18,00,000,27*70
$B3CN0,0,0,0,0,0,0,0,0,0,0,0,0,0,0*4C
---00000004--- Acq_st=3 0  2019-4-24 7:58:31 
[00]  00(G01)  f 45  9  0   -563.1  2046000.6  0.0  2 0 3487 4698 2081
[01]  02(G03)  f 39  7  0  -3526.5  2046004.5 -0.0  2 0 1028 1232  541
[02]  06(G07)  f 44  7  0   1478.6  2045998.0  0.0  2 0 2593 3067 1394
[03]  10(G11)  f 43  7  0    567.4  2045999.2 -0.0  2 0 2035 3766 2117
[04]  16(G17)  7 40  7  0  -2536.4  2046003.2  0.1  2 0 1683 2792 1311
[05]  17(G18)  7 43  7  0   1155.5  2045998.5 -0.0  2 0 2245 3118 1363
[06]  21(G22)  1 26  7  0  -2645.1  2046004.9  0.4  1 0  601 1406 1220
[08]  27(G28)  7 34  7  0  -2887.8  2046003.6  0.3  5 0 1650 2189  947
[09]  29(G30)  7 32  7  0   -617.0  2046000.7  0.3  5 0 3273 4325 2065
[16]  37(B01)  7 40 20  0  -1054.5  4092002.7 -0.0  2 0 1443 1688  671
[17]  38(B02)  7 40 25  0  -1106.6  4092003.0  0.5  2 0  579  855  688
[18]  39(B03)  7 37 32  0  -1080.7  4092003.1 -0.6  2 0  686  766 2064
[19]  40(B04)  f 38 20  0  -1077.8  4092002.7  0.4  2 0 1284 1551  515
[20]  41(B05)  f 37 25  0  -1112.6  4092002.7 -0.9  2 0  938  982  318
[21]  43(B07)  7 24  7  0  -1160.9  4092002.9 -0.1 10 0 1388 1882  638
[22]  44(B08)  7 24  7  0  -1416.6  4092003.5  0.2 10 0 2135 1932  718
[24]  46(B10)  1  7  7  0  -1940.6  4092002.7  0.0  1 0  441  393  299
[25]  49(B13)  1  7  7  0  -1914.7  4092007.5  0.1  1 0  119 1852 1730
$GNGGA,075832.840,,,,,0,00,,,M,,,,0000*2C
$GNRMC,075832.840,A,,,,,,,090180,,*21
$GPGSA,A,1,,,,,,,,,,,,,,,*1E
$BDGSA,A,1,,,,,,,,,,,,,,,*0F
$GLGSA,A,1,,,,,,,,,,,,,,,*02
$GPGSV,2,1,08,01,00,000,45,03,00,000,39,07,00,000,44,11,00,000,43*7B
$GPGSV,2,2,08,17,00,000,40,18,00,000,43,28,00,000,34,30,00,000,32*72
$BDGSV,2,1,07,01,00,000,41,02,00,000,40,03,00,000,37,04,00,000,38*66
$BDGSV,2,2,07,05,00,000,37,07,00,000,23,08,00,000,23*51
$B3CN0,0,0,0,0,0,0,0,0,0,0,0,0,0,0*4C
---00000005--- Acq_st=3 0  2019-4-24 7:58:32 
[00]  00(G01)  f 45  7  0   -561.0  2046000.7  0.0  2 0 3224 4268 1900
[01]  02(G03)  f 38 11  0  -3530.9  2046004.6  0.1  2 0  955 1682  767
[02]  06(G07)  f 45  7  0   1481.8  2045998.0 -0.0  2 0 2323 3756 1832
[03]  10(G11)  f 43  7  0    570.1  2045999.2  0.0  2 0 1498 2246 1311
[04]  16(G17)  7 40  7  0  -2535.4  2046003.2 -0.1  2 0 1301 1778  665
[05]  17(G18)  7 43  7  0   1162.5  2045998.4  0.0  2 0 1405 2999 1315
[06]  21(G22)  7 21  7  0  -2641.0  2046003.2  1.0 10 0  715 1238  611
[08]  27(G28)  7 43  7  0  -2883.1  2046003.6 -0.0  2 0 1924 2247 1236
[09]  29(G30)  7 46  7  0   -609.6  2046000.7  0.0  2 0 2817 4352 1652
[16]  37(B01) 1f 41 10  0  -1058.4  4092002.6 -0.1  2 0 1262 1590  259
[17]  38(B02) 1f 41 26  0  -1101.7  4092002.9 -0.3  2 0 1000 1389 1016
[18]  39(B03) 1f 41 32  0  -1074.8  4092003.1  0.0  2 0  107 1235 2339
[19]  40(B04)  f 37 21  0  -1068.0  4092002.6 -0.6  2 0 1094  956   91
[20]  41(B05)  f 37 22  0  -1111.4  4092002.9  0.5  2 0  963  905  487
[21]  43(B07)  7 43 12  0  -1159.7  4092002.9 -0.0  2 0 2220 2586  997
[22]  44(B08)  7 43  9  0  -1412.1  4092003.6 -0.0  2 0 1977 2063  648
[24]  46(B10)  1  7  7  0  -1805.0  4092003.3  0.0  1 0  187  493  480
[25]  49(B13)  7 34  7  0  -1909.2  4092004.9 -0.1  5 0 1863 2514 1378
[26]  63(B27)  1  7  7  0   2250.0  4091995.3  0.0  1 0  287  503  542
[51]  40(B04)  1 22 22  0  -1007.7 20460022.4 -0.0  1 0  208  219  612
[52]  41(B05)  1 24 22  1  -1278.0 20460018.8 -0.0  1 0  837  363  564
ch27 satid=65 freq=-2352 acq ok!
ch28 satid=66 freq=-60 acq ok!
ch32 satid=77 freq=-3000 acq ok!
ch33 satid=78 freq=2500 acq ok!
ch34 satid=79 freq=0 acq ok!
$GNGGA,075833.708,2944.9192,N,10633.0904,E,1,11,1.4,285.8,M,,,,0000*14
$GNRMC,075833.708,A,2944.9192,N,10633.0904,E,0.17,0.00,090180,,*1C
$GPGSA,A,3,01,07,11,,,,,,,,,,2.3,1.4,1.9*38
$BDGSA,A,3,01,02,03,04,05,07,08,13,,,,,2.3,1.4,1.9*23
$GLGSA,A,3,,,,,,,,,,,,,2.3,1.4,1.9*22
$GPGSV,3,1,09,01,00,000,45,03,00,000,38,07,00,000,45,11,00,000,43*7B
$GPGSV,3,2,09,17,00,000,40,18,00,000,43,22,00,000,20,28,00,000,43*72
$GPGSV,3,3,09,30,00,000,46*41
$BDGSV,2,1,08,01,00,000,41,02,00,000,41,03,00,000,41,04,00,000,37*66
$BDGSV,2,2,08,05,00,000,37,07,00,000,43,08,00,000,43,13,00,000,33*6C
$B3CN0,0,0,0,0,0,0,0,0,0,0,0,0,0,0*4C
---00000006--- Acq_st=3 0  2000-1-9 7:58:34 
[00]  00(G01)  f 45  7  0   -560.9  2046000.7  0.0  2 0 2235 4015 1802
[01]  02(G03)  f 40  7  0  -3531.0  2046004.6 -0.0  2 0  551 1412  698
[02]  06(G07)  f 44  7  0   1481.4  2045998.0 -0.0  2 0 2409 3398 1341
[03]  10(G11)  f 43  7  0    568.8  2045999.2 -0.0  2 0 1598 2861 1182
[04]  16(G17)  7 40  7  0  -2535.1  2046003.2  0.0  2 0 1264 1642  450
[05]  17(G18)  7 43  7  0   1159.8  2045998.4  0.0  2 0 1529 2665 1194
[06]  21(G22)  7 39  7  0  -2647.0  2046003.3  0.3  2 0 1159 1480  644
[08]  27(G28)  7 42  7  0  -2883.9  2046003.7  0.0  2 0 1973 2650 1296
[09]  29(G30)  7 45  7  0   -610.6  2046000.7 -0.0  2 0 2907 4400 1947
[16]  37(B01) 1f 40 10  0  -1059.5  4092002.7 -0.2  2 0 1031 1445 1051
[17]  38(B02) 1f 41 28  0  -1103.0  4092002.8 -0.3  2 0 1145 1536  844
[18]  39(B03) 1f 42 31  0  -1074.7  4092003.0 -0.1  2 0  506 2050 2008
[19]  40(B04) 1f 39 22  0  -1070.3  4092002.6  0.7  2 0 1035 1139  302
[20]  41(B05) 1f 38 23  0  -1105.6  4092002.8 -0.1  2 0  926  550  439
[21]  43(B07) 1f 43 10  0  -1158.6  4092002.9 -0.1  2 0 1565 2406 1045
[22]  44(B08) 1f 42  7  0  -1413.4  4092003.6 -0.1  2 0 1390 2039 1072
[24]  46(B10)  1  7  7  0  -1565.0  4092002.9  0.1  1 0  419  400  318
[25]  49(B13) 1f 42  7  0  -1908.5  4092004.9  0.0  2 0 1765 2043  928
[26]  63(B27)  1  7  7  0   2752.4  4091995.3 -0.1  1 0  266  285  148
[27]  65(B29)  1  7 11  0  -2326.4  4092006.9  0.2  1 0 1762 2639 1608
[28]  66(B30)  1 13  7  0   -284.3  4091999.1  0.4  1 0 1693 2423  476
[32]  77(N-4)  1  7 25  0  -3000.0  1022003.0  0.0  1 0   858 2109 2373
[33]  78(N-3)  1 17  8  0   2500.3  1022000.4  0.0  1 0   924 1171  942
[34]  79(N-2)  1  7 13  0    163.3  1022002.3  0.1  1 0   171  771 1703
[48]  37(B01)  1 20 22  0   -187.4 20460016.6  0.2  1 0  301  378  262
[49]  38(B02)  1 14 20  1  -1373.4 20460014.6 -0.0  1 0  507   86   93
[50]  39(B03)  1 20 21  0  -1047.9 20460018.7  0.2  1 0  115  116  218
[51]  40(B04)  1 22 20  1   -840.3 20460016.7 -0.1  1 0  265  455  257
[52]  41(B05)  1 22 23  0   -756.7 20460024.1  0.2  1 0  330  610  706
ch36 satid=83 freq=1250 acq ok!
---00000007--- Acq_st=7 0  2000-1-9 7:58:35 
[00]  00(G01)  f 45  8  0   -566.4  2046000.7  0.0  2 0 2756 4362 2362
[01]  02(G03)  f 40  9  0  -3536.3  2046004.5 -0.0  2 0  818 1837  994
[02]  06(G07)  f 44  7  0   1474.6  2045998.0  0.0  2 0 2405 3953 2080
[03]  10(G11)  f 43  7  0    564.8  2045999.2  0.0  2 0 1698 2895 1725
[04]  16(G17)  7 40  7  0  -2545.7  2046003.3 -0.0  2 0 1176 1220  336
[05]  17(G18)  7 43  7  0   1153.4  2045998.4 -0.0  2 0 1289 2740 1233
[06]  21(G22)  7 39  7  0  -2650.1  2046003.3  0.1  2 0  459 1804  831
[08]  27(G28)  7 42  7  0  -2890.6  2046003.7 -0.0  2 0 1763 2817 1515
[09]  29(G30)  7 45  7  0   -617.9  2046000.7 -0.0  2 0 3295 3901 1439
[16]  37(B01) 1f 40 10  0  -1066.9  4092002.6 -0.4  2 0 1408 1564  575
[17]  38(B02) 1f 40 26  0  -1106.3  4092002.9  0.4  2 0  877 1546 1441
[18]  39(B03) 1f 43 34  0  -1079.7  4092002.9  0.2  2 0  910 2177 1410
[19]  40(B04) 1f 38 24  0  -1079.2  4092002.7 -0.9  2 0 1611 1224  438
[20]  41(B05) 1f 37 19  0  -1120.0  4092002.9 -0.8  2 0  776 1009  414
[21]  43(B07) 1f 43  8  0  -1163.6  4092002.9  0.0  2 0 1266 2194 1328
[22]  44(B08) 1f 42  7  0  -1417.3  4092003.6  0.1  2 0 1649 2145  543
[25]  49(B13) 1f 42 10  0  -1913.3  4092004.9  0.1  2 0 1628 2246  717
[26]  63(B27)  1  7  7  0   2914.1  4091995.0  0.1  1 0  627  511  307
[27]  65(B29)  7 24  7  0  -2330.3  4092006.0  0.3 10 0 1944 2308  916
[28]  66(B30)  1  7  7  0   -289.8  4091999.2  1.0  1 0 1324 2261  979
[32]  77(N-4)  1 45  7  0  -3107.6  1022003.2  1.0  1 0  1144 2407 1600
[33]  78(N-3)  1 28  7  0   2432.2  1021998.5  1.0  1 0   904 1552  915
[34]  79(N-2)  1 28  8  0    144.1  1022000.4  1.0  1 0  1003 1543  897
[35]  81(N00)  1 23 23  0  -5095.1  1022004.4  0.3  1 0   383  717  480
[36]  83(N02)  1 28 11  0   1186.2  1021999.8  0.4  1 0   887 1668 1057
[48]  37(B01)  1 10 10  1    325.9 20460019.1 -0.1  1 0  293  519  304
[49]  38(B02)  1 10 14  0  -1489.1 20460018.7 -0.2  1 0  676  493  240
[50]  39(B03)  1 19 20  0  -1360.8 20460020.0 -0.1  1 0  379  444  659
[51]  40(B04)  1 13 19  0  -1194.1 20460023.8 -0.1  1 0  206  675  546
[52]  41(B05)  1 25 20  1   -568.2 20460021.4  0.1  1 0  686  578  379
[53]  43(B07)  1  7  7  0   -806.8 20460015.0 -0.0  1 0  296  164   60
[54]  44(B08)  1  7  7  0   -941.9 20460019.0  0.1  1 0  506  318  554
[57]  49(B13)  1  7  7  0  -1502.0 20460029.6  0.0  1 0  334  490  320
calculate DOP row 0,[  0.58  -0.62  -0.53   1.00]
calculate DOP row 1,[  0.36  -0.93   0.07   0.00]
calculate DOP row 2,[  0.24  -0.95   0.21   1.00]
calculate DOP row 3,[  0.49  -0.42  -0.76   1.00]
calculate DOP row 4,[  0.62  -0.66  -0.42   0.00]
calculate DOP row 5,[  0.04  -1.00   0.06   0.00]
calculate DOP row 6,[  0.30  -0.89  -0.35   0.00]
calculate DOP row 7,[ -0.16  -0.98   0.10   0.00]
calculate DOP row 8,[  0.81  -0.58   0.06   0.00]
calculate DOP row 9,[  0.97  -0.23   0.07   0.00]
calculate DOP row 10,[ -0.60  -0.79   0.10   0.00]
DOP:  0.45   0.21   1.31   0.58
Refix G01: 2, 287932.931912, -559
Refix G07: 2, 287932.929267, 1482
Refix G08: 2, 287932.920214, 1475
Refix G11: 2, 287932.930681, 569
Refix G13: 2, 287932.916540, -700
Refix G18: 2, 287932.928547, 1158
Refix G22: 2, 287932.920340, -2640
Refix G28: 2, 287932.926684, -2887
Refix G30: 2, 287932.931388, -611
$GNGGA,075835.000,2944.9179,N,10633.0867,E,1,11,1.2,288.9,M,,,,0000*16
$GNRMC,075835.000,A,2944.9179,N,10633.0867,E,0.58,0.00,090180,,*1F
$GPGSA,A,3,01,07,11,,,,,,,,,,1.4,1.2,0.7*35
$BDGSA,A,3,01,02,03,04,05,07,08,13,,,,,1.4,1.2,0.7*2E
$GLGSA,A,3,,,,,,,,,,,,,1.4,1.2,0.7*2F
$GPGSV,3,1,09,01,00,000,45,03,00,000,40,07,00,000,44,11,00,000,43*75
$GPGSV,3,2,09,17,00,000,40,18,00,000,43,22,00,000,39,28,00,000,42*7B
$GPGSV,3,3,09,30,00,000,45*42
$BDGSV,3,1,09,01,00,000,40,02,00,000,40,03,00,000,43,04,00,000,38*6B
$BDGSV,3,2,09,05,00,000,37,07,00,000,43,08,00,000,42,13,00,000,42*6B
$BDGSV,3,3,09,29,00,000,24*5C
$B3CN0,0,0,0,0,0,0,0,0,0,0,0,0,0,0*4C
---00000008--- Acq_st=3 0  2000-1-9 7:58:35 
[00]  00(G01)  f 45  7  0   -553.3  2046000.6 -0.0  2 0 2680 4055 2143
[01]  02(G03)  f 39  7  0  -3523.0  2046004.5  0.1  2 0  593  999  501
[02]  06(G07)  f 45  7  0   1488.2  2045998.0  0.1  2 0 2601 4103 1822
[03]  10(G11)  f 43  7  0    574.5  2045999.2 -0.0  2 0 2007 2710 1034
[04]  16(G17)  7 40  7  0  -2531.3  2046003.2 -0.0  2 0 1551 2097 1198
[05]  17(G18)  7 43  7  0   1164.9  2045998.4  0.0  2 0 1806 3243 1627
[06]  21(G22)  7 39  7  0  -2636.6  2046003.3 -0.2  2 0  956 1772  984
[08]  27(G28)  7 43  7  0  -2880.7  2046003.7  0.0  2 0 1744 2449 1396
[09]  29(G30)  7 45  7  0   -604.6  2046000.7 -0.0  2 0 3224 3975 1412
[10]  12(G13)  1  7  7  0   -750.0  2045999.2  0.0  1 0  827  237  278
[16]  37(B01) 1f 40 13  0  -1053.8  4092002.7  0.7  2 0  783 1175  489
[17]  38(B02) 1f 40 24  0  -1095.2  4092002.8 -0.2  2 0 1421 1582  953
[18]  39(B03) 1f 43 33  0  -1068.2  4092002.8 -0.0  2 0 1353 2373 1325
[19]  40(B04) 1f 39 14  0  -1068.5  4092002.7  0.0  2 0 1052 1252  646
[20]  41(B05) 1f 38 22  0  -1104.3  4092002.7 -0.7  2 0 1035 1316 1076
[21]  43(B07) 1f 43  7  0  -1152.7  4092002.9 -0.0  2 0 1715 2420  924
[22]  44(B08) 1f 42  9  0  -1405.9  4092003.6 -0.0  2 0 1775 2358  927
[25]  49(B13) 1f 43  7  0  -1901.9  4092004.9  0.0  2 0 1454 1819  904
[26]  63(B27)  1  7  7  0   2511.5  4091995.2  0.1  1 0  446  729  815
[27]  65(B29)  7 43  8  0  -2316.1  4092005.9 -0.1  2 0 1711 2217  921
[28]  66(B30)  1 10  7  0   -273.3  4091999.3  1.0  1 0 1099 1765  904
[32]  77(N-4)  1 47  7  0  -3094.3  1022002.0  1.0  1 0  1633 2355 1029
[33]  78(N-3)  1 28 15  0   2444.0  1021998.2  1.0  1 0  1005 1754  972
[34]  79(N-2)  1 29 13  0    156.3  1021999.7  1.0  1 0   899 1687 1125
[35]  81(N00)  1 23  7  0  -5081.9  1022003.0  0.4  1 0   849  726  291
[36]  83(N02)  1 33  7  0   1198.5  1021998.8  1.0  1 0   766 1212  579
[48]  37(B01)  7 36 10  0   -667.7 20460011.7 -0.1  2 0  629  534  405
[49]  38(B02)  1 10 20  1   -726.8 20460024.8  0.0  1 0  501  367  206
[50]  39(B03)  1 10 10  1  -1510.5 20460017.3  0.1  1 0  404  240  426
[51]  40(B04)  1 14 26  1  -1197.3 20460026.5 -0.0  1 0  494  719  482
[52]  41(B05)  1 22 26  0    288.7 20460020.2  0.1  1 0  497  418  333
[53]  43(B07)  1  7  7  0   -468.3 20460014.8 -0.1  1 0  341  556  242
[54]  44(B08)  1  8  7  0   -704.9 20460021.0  0.1  1 0  140  613  842
[57]  49(B13)  1  7  9  0  -1043.9 20460030.6  0.0  1 0  672  298  664
calculate DOP row 0,[  0.58  -0.62  -0.53   1.00]
calculate DOP row 1,[  0.24  -0.95   0.21   1.00]
calculate DOP row 2,[  0.49  -0.42  -0.76   1.00]
calculate DOP row 3,[  0.36  -0.93   0.07   0.00]
calculate DOP row 4,[  0.63  -0.66  -0.42   0.00]
calculate DOP row 5,[  0.30  -0.89  -0.35   0.00]
calculate DOP row 6,[  0.04  -1.00   0.06   0.00]
calculate DOP row 7,[  0.81  -0.58   0.06   0.00]
calculate DOP row 8,[ -0.16  -0.98   0.10   0.00]
calculate DOP row 9,[  0.97  -0.23   0.07   0.00]
calculate DOP row 10,[ -0.60  -0.79   0.10   0.00]
DOP:  0.45   0.21   1.31   0.58
Refix G01: 2, 287933.931912, -557
Refix G07: 2, 287933.929266, 1484
Refix G08: 2, 287933.920213, 1476
Refix G11: 2, 287933.930680, 572
Refix G13: 2, 287933.916540, -698
Refix G18: 2, 287933.928546, 1160
Refix G22: 2, 287933.920342, -2640
Refix G28: 2, 287933.926686, -2884
Refix G30: 2, 287933.931388, -608
$GNGGA,075836.000,2944.9153,N,10633.0876,E,1,11,1.2,290.2,M,,,,0000*1F
$GNRMC,075836.000,A,2944.9153,N,10633.0876,E,0.25,0.00,090180,,*1E
$GPGSA,A,3,01,07,11,,,,,,,,,,1.4,1.2,0.7*35
$BDGSA,A,3,01,02,03,04,05,07,08,13,,,,,1.4,1.2,0.7*2E
$GLGSA,A,3,,,,,,,,,,,,,1.4,1.2,0.7*2F
$GPGSV,3,1,11,01,66,077,45,03,00,000,39,07,47,183,45,11,58,041,43*72
$GPGSV,3,2,11,17,00,000,40,18,42,049,43,22,19,108,39,28,44,327,43*7F
$GPGSV,3,3,11,30,65,246,45,08,19,053,00,13,06,295,00*44
$BDGSV,3,1,11,01,40,125,40,02,46,219,40,03,55,171,43,04,23,109,39*67
$BDGSV,3,2,11,05,27,244,38,07,65,095,43,08,80,168,42,13,54,204,43*64
$BDGSV,3,3,11,29,48,259,43,10,76,007,00,30,62,014,00*53
$B3CN0,0,0,0,0,0,0,0,0,0,0,0,0,0,0*4C
---00000009--- Acq_st=3 0  2000-1-9 7:58:36 
[00]  00(G01)  f 45 11  0   -558.5  2046000.7  0.0  2 0 2488 4318 2021
[01]  02(G03)  f 39  7  0  -3527.6  2046004.5  0.0  2 0  824 1633  717
[02]  06(G07)  f 44  7  0   1485.1  2045998.0 -0.0  2 0 2494 3509 1823
[03]  10(G11)  f 43  7  0    572.1  2045999.2  0.0  2 0 1794 2560 1056
[04]  16(G17)  7 40  7  0  -2537.7  2046003.2 -0.0  2 0 1136 1824  423
[05]  17(G18)  7 43  7  0   1164.7  2045998.4 -0.0  2 0 1576 2569 1419
[06]  21(G22)  7 40  7  0  -2639.6  2046003.4  0.0  2 0  758 1256  201
[08]  27(G28)  7 43  9  0  -2885.1  2046003.6 -0.0  2 0 1981 2562 1461
[09]  29(G30)  7 45  7  0   -609.1  2046000.7 -0.0  2 0 2668 3538 1568
[10]  12(G13)  1 17  7  0   -542.6  2045999.2  0.1  1 0  742  949  919
[16]  37(B01) 1f 40 10  0  -1052.2  4092002.7  0.2  2 0 1460 2082  622
[17]  38(B02) 1f 40 27  0  -1100.4  4092002.9  0.4  2 0  761 1801 1162
[18]  39(B03) 1f 45 31  0  -1073.3  4092002.8  0.0  2 0 1222 2538 1451
[19]  40(B04) 1f 40 10  0  -1069.2  4092002.6  0.3  2 0 1198 1641  658
[20]  41(B05) 1f 37 26  0  -1109.6  4092002.8 -0.5  2 0  970 1179  694
[21]  43(B07) 1f 43 10  0  -1156.4  4092002.9 -0.0  2 0 2158 2680 1343
[22]  44(B08) 1f 42  9  0  -1412.5  4092003.6 -0.1  2 0 1655 1528  593
[25]  49(B13) 1f 42  7  0  -1906.7  4092004.9 -0.1  2 0 1319 2113  884
[26]  63(B27)  1  7  7  0   2358.7  4091995.1  0.1  1 0  287  421  627
[27]  65(B29)  7 43  7  0  -2323.4  4092006.0 -0.0  2 0 1948 2338  974
[28]  66(B30)  1  9  7  0   -278.9  4091999.3  1.0  1 0 1001 2453 1625
[32]  77(N-4)  7 47  7  0  -3096.7  1022001.9 -0.2  2 0  1642 2270  875
[33]  78(N-3)  7 45  7  0   2441.7  1021998.4 -0.1  2 0   654 1635 1169
[34]  79(N-2)  7 39  7  0    154.6  1021999.9  0.2  2 0  1101 1800  672
[35]  81(N00)  7 27  7  0  -5089.6  1022003.1  0.2 10 0   576  751  369
[36]  83(N02)  7 21  7  0   1195.2  1021999.2  1.0 10 0   745 1903 1309
[48]  37(B01)  7 10 19  1   -950.5 20460016.7  0.0  2 0  556  618  447
[49]  38(B02)  7 22 10  1  -1068.4 20460014.3  0.1  2 0  853  558  179
[50]  39(B03)  1 20 24  1  -2054.1 20460027.0 -0.1  1 0  363  471  718
[53]  43(B07)  1  8  7  0    130.8 20460017.1 -0.0  1 0  475  530  422
[54]  44(B08)  1  9  7  0  -1192.0 20460019.3  0.0  1 0   32  352  486
[57]  49(B13)  1  8  7  0   -561.6 20460028.8  0.1  1 0  163  590  230
calculate DOP row 0,[  0.58  -0.62  -0.53   1.00]
calculate DOP row 1,[  0.24  -0.95   0.21   1.00]
calculate DOP row 2,[  0.49  -0.42  -0.76   1.00]
calculate DOP row 3,[  0.36  -0.93   0.07   0.00]
calculate DOP row 4,[  0.63  -0.66  -0.42   0.00]
calculate DOP row 5,[  0.30  -0.89  -0.35   0.00]
calculate DOP row 6,[  0.04  -1.00   0.06   0.00]
calculate DOP row 7,[  0.81  -0.58   0.06   0.00]
calculate DOP row 8,[ -0.16  -0.98   0.10   0.00]
calculate DOP row 9,[  0.97  -0.23   0.07   0.00]
calculate DOP row 10,[ -0.60  -0.79   0.10   0.00]
DOP:  0.45   0.21   1.31   0.58
Refix G01: 2, 287934.931913, -551
Refix G07: 2, 287934.929265, 1490
Refix G08: 2, 287934.920212, 1479
Refix G11: 2, 287934.930680, 577
Refix G13: 2, 287934.916540, -694
Refix G18: 2, 287934.928546, 1165
Refix G22: 2, 287934.920344, -2636
Refix G28: 2, 287934.926688, -2880
Refix G30: 2, 287934.931389, -602
$GNGGA,075837.000,2944.9142,N,10633.0881,E,1,11,1.2,292.7,M,,,,0000*11
$GNRMC,075837.000,A,2944.9142,N,10633.0881,E,0.58,0.00,090180,,*1D
$GPGSA,A,3,01,07,11,,,,,,,,,,1.4,1.2,0.7*35
$BDGSA,A,3,01,02,03,04,05,07,08,13,,,,,1.4,1.2,0.7*2E
$GLGSA,A,3,,,,,,,,,,,,,1.4,1.2,0.7*2F
$GPGSV,3,1,11,01,66,077,45,03,00,000,39,07,47,183,44,11,58,041,43*73
$GPGSV,3,2,11,17,00,000,40,18,42,049,43,22,19,108,40,28,44,327,43*71
$GPGSV,3,3,11,30,65,246,45,08,19,053,00,13,06,295,00*44
$BDGSV,3,1,11,01,40,125,40,02,46,219,40,03,55,171,45,04,23,109,40*6F
$BDGSV,3,2,11,05,27,244,37,07,65,095,43,08,80,168,42,13,54,204,42*6A
$BDGSV,3,3,11,29,48,259,43,10,76,007,00,30,62,014,00*53
$B3CN0,0,22,0,0,0,0,0,0,0,0,0,0,0,0*7C
ch24 satid=46 freq=-1500 acq ok!
---00000010--- Acq_st=3 0  2000-1-9 7:58:37 
[00]  00(G01)  f 45  7  0   -557.2  2046000.7 -0.1  2 0 3014 5145 2369
[01]  02(G03)  f 39  7  0  -3527.5  2046004.6 -0.1  2 0 1032 1324  686
[02]  06(G07)  f 44  9  0   1485.2  2045998.0 -0.0  2 0 3139 3814 1552
[03]  10(G11)  f 43  7  0    570.3  2045999.2 -0.0  2 0 1688 2615 1407
[04]  16(G17)  f 40  7  0  -2533.1  2046003.2  0.1  2 0  784 1402  641
[05]  17(G18)  f 42  7  0   1160.2  2045998.4 -0.0  2 0 2083 2840 1245
[06]  21(G22)  f 39  7  0  -2645.5  2046003.3 -0.1  2 0 1190 1604 1187
[08]  27(G28)  f 42  7  0  -2884.6  2046003.7  0.0  2 0  841 2127 1215
[09]  29(G30)  f 45  7  0   -606.4  2046000.7  0.0  2 0 2786 4548 2186
[10]  12(G13)  1  7  7  0     53.7  2046000.1  0.1  1 0  413  200  183
[16]  37(B01) 1f 40 10  0  -1057.0  4092002.6 -0.1  2 0 1234 1585  723
[17]  38(B02) 1f 40 10  0  -1101.7  4092002.7 -0.6  2 0 1126 1030  550
[18]  39(B03) 1f 45 31  0  -1070.9  4092002.7  0.2  2 0 1204 2026  994
[19]  40(B04) 1f 39 23  0  -1077.5  4092002.7 -0.4  2 0 1116 1393  334
[20]  41(B05) 1f 37 23  0  -1117.4  4092002.8 -0.6  2 0  983 1387  672
[21]  43(B07) 1f 43  7  0  -1154.3  4092002.9 -0.0  2 0 2184 2703 1182
[22]  44(B08) 1f 42  7  0  -1410.8  4092003.6 -0.0  2 0 1505 2222  902
[24]  46(B10)  1  7  7  0  -1498.7  4092003.7 -0.1  1 0  258  195  435
[25]  49(B13) 1f 42  7  0  -1904.0  4092004.9 -0.0  2 0 1300 2239  651
[27]  65(B29)  7 43  7  0  -2321.1  4092005.9 -0.1  2 0 1592 1949  816
[32]  77(N-4)  7 47  7  0  -3096.1  1022001.9  0.0  2 0  1608 2709 1490
[33]  78(N-3)  7 45  7  0   2441.4  1021998.4 -0.0  2 0  1213 1809  837
[34]  79(N-2)  7 46  7  0    153.9  1021999.9 -0.2  2 0  1085 1978  828
[35]  81(N00)  7 35  7  0  -5092.0  1022003.2  0.1  2 0   405  810  250
[36]  83(N02)  7 44 10  0   1197.2  1021999.2 -0.1  2 0  1070 1623  611
[48]  37(B01)  7 10 10  0  -1267.7 20460021.1  0.0  2 0  443  256   32
[49]  38(B02)  7 10 10  1  -1428.1 20460023.7 -0.0  2 0  291  160  254
[51]  40(B04)  1 14 21  0   -796.5 20460017.6 -0.0  1 0   81  416  310
[52]  41(B05)  1 24 20  0  -1055.7 20460019.3  0.0  1 0  254  198   80
[53]  43(B07)  1  7  7  0    133.4 20460015.5 -0.1  1 0  181  242  181
[54]  44(B08)  1  7  7  0   -939.2 20460020.2  0.1  1 0  602   86  271
[57]  49(B13)  1  7  7  0   -536.3 20460029.2 -0.1  1 0  428  162  409
calculate DOP row 0,[  0.58  -0.62  -0.53   1.00]
calculate DOP row 1,[ -0.12  -0.94  -0.31   1.00]
calculate DOP row 2,[  0.24  -0.95   0.21   1.00]
calculate DOP row 3,[  0.49  -0.42  -0.76   1.00]
calculate DOP row 4,[ -0.28  -0.41  -0.87   1.00]
calculate DOP row 5,[  0.36  -0.93   0.07   0.00]
calculate DOP row 6,[  0.63  -0.66  -0.42   0.00]
calculate DOP row 7,[  0.64  -0.18  -0.75   1.00]
calculate DOP row 8,[  0.30  -0.89  -0.35   0.00]
calculate DOP row 9,[  0.04  -1.00   0.06   0.00]
calculate DOP row 10,[  0.81  -0.58   0.06   0.00]
calculate DOP row 11,[ -0.16  -0.98   0.10   0.00]
calculate DOP row 12,[  0.97  -0.23   0.07   0.00]
calculate DOP row 13,[  0.98  -0.17   0.10   1.00]
calculate DOP row 14,[ -0.60  -0.79   0.10   0.00]
DOP:  0.27   0.18   0.69   0.34
Refix G01: 2, 287935.931913, -557
Refix G07: 2, 287935.929264, 1483
Refix G08: 2, 287935.920211, 1475
Refix G11: 2, 287935.930680, 571
Refix G13: 2, 287935.916541, -697
Refix G18: 2, 287935.928545, 1160
Refix G22: 2, 287935.920345, -2641
Refix G28: 2, 287935.926690, -2885
Refix G30: 2, 287935.931389, -609
$GNGGA,075838.000,2944.9109,N,10633.0898,E,1,15,0.9,297.9,M,,,,0000*1C
$GNRMC,075838.000,A,2944.9109,N,10633.0898,E,0.08,0.00,090180,,*10
$GPGSA,A,3,01,07,11,18,22,28,30,,,,,,1.1,0.9,0.6*3B
$BDGSA,A,3,01,02,03,04,05,07,08,13,,,,,1.1,0.9,0.6*20
$GLGSA,A,3,,,,,,,,,,,,,1.1,0.9,0.6*21
$GPGSV,3,1,11,01,66,077,45,03,00,000,39,07,47,183,44,11,58,041,43*73
$GPGSV,3,2,11,17,00,000,40,18,42,049,42,22,19,108,39,28,44,327,42*7F
$GPGSV,3,3,11,30,65,246,45,08,19,053,00,13,06,295,00*44
$BDGSV,3,1,11,01,40,125,40,02,46,219,40,03,55,171,45,04,23,109,39*61
$BDGSV,3,2,11,05,27,244,37,07,65,095,43,08,80,168,42,13,54,204,42*6A
$BDGSV,3,3,11,29,48,259,43,10,76,007,00,30,62,014,00*53
$B3CN0,0,0,0,0,0,0,0,0,0,0,0,0,0,0*4C
---00000011--- Acq_st=3 0  2000-1-9 7:58:38 
[00]  00(G01)  f 46  7  0   -560.4  2046000.7  0.0  2 0 2593 4298 2080
[01]  02(G03)  f 39  7  0  -3530.3  2046004.5  0.2  2 0 1566 2060 1852
[02]  06(G07)  f 45  7  0   1481.4  2045998.0 -0.0  2 0 2914 3756 2071
[03]  10(G11)  f 43  7  0    569.7  2045999.2  0.0  2 0 2383 3787 2079
[04]  16(G17)  f 40  7  0  -2537.9  2046003.2 -0.1  2 0  933 1858  899
[05]  17(G18)  f 43  7  0   1159.1  2045998.5 -0.0  2 0 1053 2724 2140
[06]  21(G22)  f 39  7  0  -2641.4  2046003.4  0.1  2 0  743 1550  719
[08]  27(G28)  f 43  7  0  -2886.8  2046003.7  0.0  2 0 1138 2189  877
[09]  29(G30)  f 45  7  0   -611.8  2046000.7  0.0  2 0 3150 4764 2446
[10]  12(G13)  1  7  7  0    298.7  2046000.1  0.0  1 0  378  525  364
[16]  37(B01) 1f 40 10  0  -1059.0  4092002.7  0.1  2 0  811 1414  976
[17]  38(B02) 1f 39 26  0  -1103.1  4092002.8 -0.1  2 0 1074 1527  761
[18]  39(B03) 1f 43 30  0  -1077.2  4092002.8  0.0  2 0 1519 1998  842
[19]  40(B04) 1f 39 21  0  -1071.4  4092002.7  0.4  2 0 1284 1618  590
[20]  41(B05) 1f 37 24  0  -1110.1  4092002.8  0.6  2 0  896  844  738
[21]  43(B07) 1f 43  7  0  -1157.0  4092002.9  0.0  2 0 1779 2611 1031
[22]  44(B08) 1f 42 12  0  -1412.4  4092003.6 -0.0  2 0 1745 2076  919
[24]  46(B10)  1  7  7  0   -620.0  4092003.7 -0.1  1 0  399  171  217
[25]  49(B13) 1f 42  8  0  -1908.3  4092004.9  0.0  2 0 1808 2428 1056
[27]  65(B29)  7 43  7  0  -2324.8  4092006.0  0.0  2 0 1894 2116 1009
[32]  77(N-4)  7 47  7  0  -3098.6  1022001.9  0.0  2 0  1511 2541 1192
[33]  78(N-3)  7 45 15  0   2438.9  1021998.4  0.0  2 0  1434 1917  986
[34]  79(N-2)  7 45  7  0    152.9  1021999.9  0.0  2 0  1009 1792  875
[35]  81(N00)  7 35  7  0  -5094.0  1022003.2 -0.2  2 0   576  412  292
[36]  83(N02)  7 45 13  0   1195.7  1021999.2 -0.1  2 0  1028 1684  445
[48]  37(B01)  7 17 10  0  -1923.7 20460030.9 -0.0  2 0  485  373  251
[49]  38(B02)  7 19 36  1  -2058.9 20460034.4  0.1  2 0  812  491  428
[50]  39(B03)  1 20 23  1  -1147.2 20460017.2  0.0  1 0  427  399  134
[51]  40(B04)  1 27 19  0   -874.9 20460022.9  0.1  1 0   15  148  655
[52]  41(B05)  1 23 24  1   -628.3 20460016.1 -0.0  1 0  580  412  212
calculate DOP row 0,[  0.58  -0.62  -0.53   1.00]
calculate DOP row 1,[  0.24  -0.95   0.22   1.00]
calculate DOP row 2,[ -0.12  -0.94  -0.31   1.00]
calculate DOP row 3,[  0.36  -0.93   0.07   0.00]
calculate DOP row 4,[  0.49  -0.42  -0.76   1.00]
calculate DOP row 5,[  0.64  -0.18  -0.75   1.00]
calculate DOP row 6,[ -0.28  -0.41  -0.87   1.00]
calculate DOP row 7,[  0.30  -0.89  -0.35   0.00]
calculate DOP row 8,[  0.63  -0.66  -0.42   0.00]
calculate DOP row 9,[  0.04  -1.00   0.06   0.00]
calculate DOP row 10,[  0.81  -0.58   0.06   0.00]
calculate DOP row 11,[  0.98  -0.17   0.10   1.00]
calculate DOP row 12,[ -0.16  -0.98   0.10   0.00]
calculate DOP row 13,[  0.97  -0.23   0.07   0.00]
calculate DOP row 14,[ -0.60  -0.79   0.10   0.00]
DOP:  0.27   0.18   0.69   0.34
Refix G01: 2, 287936.931913, -562
Refix G07: 2, 287936.929263, 1479
Refix G08: 2, 287936.920210, 1472
Refix G11: 2, 287936.930679, 567
Refix G13: 2, 287936.916541, -699
Refix G18: 2, 287936.928544, 1157
Refix G22: 2, 287936.920347, -2644
Refix G28: 2, 287936.926691, -2889
Refix G30: 2, 287936.931389, -613
$GNGGA,075839.000,2944.9094,N,10633.0901,E,1,15,0.9,302.4,M,,,,0000*19
$GNRMC,075839.000,A,2944.9094,N,10633.0901,E,0.08,0.00,090180,,*15
$GPGSA,A,3,01,07,11,18,22,28,30,,,,,,1.1,0.9,0.6*3B
$BDGSA,A,3,01,02,03,04,05,07,08,13,,,,,1.1,0.9,0.6*20
$GLGSA,A,3,,,,,,,,,,,,,1.1,0.9,0.6*21
$GPGSV,3,1,11,01,66,077,46,03,00,000,39,07,47,183,45,11,58,041,43*71
$GPGSV,3,2,11,17,00,000,40,18,42,049,43,22,19,108,39,28,44,327,43*7F
$GPGSV,3,3,11,30,65,246,45,08,19,053,00,13,06,295,00*44
$BDGSV,3,1,11,01,40,125,40,02,46,219,39,03,55,171,43,04,23,109,39*69
$BDGSV,3,2,11,05,27,244,37,07,65,095,43,08,80,168,42,13,54,204,42*6A
$BDGSV,3,3,11,29,48,259,43,10,76,007,00,30,62,014,00*53
$B3CN0,17,21,0,0,0,0,0,0,0,0,0,0,0,0*49
---00000012--- Acq_st=3 0  2000-1-9 7:58:39 
[00]  00(G01)  f 46  7  0   -565.6  2046000.7  0.1  2 0 3212 4463 1804
[01]  02(G03)  f 39  7  0  -3544.3  2046004.6 -0.0  2 0  804 1721 1075
[02]  06(G07)  f 44  7  0   1475.4  2045998.0  0.0  2 0 2816 3605 2072
[03]  10(G11)  f 43  7  0    563.1  2045999.2 -0.1  2 0 1687 2675 1325
[04]  16(G17)  f 40  7  0  -2541.5  2046003.2 -0.0  2 0 1010 1831  705
[05]  17(G18)  f 44  9  0   1151.3  2045998.4 -0.1  2 0 1994 2819 1093
[06]  21(G22)  f 40  7  0  -2649.6  2046003.4  0.0  2 0  840 1264  494
[08]  27(G28)  f 43  7  0  -2891.2  2046003.7  0.0  2 0 1710 2295  992
[09]  29(G30)  f 46  7  0   -615.8  2046000.7  0.0  2 0 3213 5085 2384
[10]  12(G13)  1  7  7  0   -239.2  2046000.3  0.1  1 0  397  124  210
[16]  37(B01) 1f 41 13  0  -1063.5  4092002.6 -0.1  2 0 1638 1444  416
[17]  38(B02) 1f 40 23  0  -1109.4  4092002.9 -0.0  2 0  675 1339  570
[18]  39(B03) 1f 43 33  0  -1081.0  4092002.8 -0.0  2 0 1394 2009 1120
[19]  40(B04) 1f 39 22  0  -1082.4  4092002.6  0.5  2 0  913  405  233
[20]  41(B05) 1f 37 29  0  -1121.2  4092002.9  0.5  2 0 1320 1025   85
[21]  43(B07) 1f 43 10  0  -1162.8  4092002.9 -0.1  2 0 1492 2202  678
[22]  44(B08) 1f 42  7  0  -1421.8  4092003.6  0.0  2 0 1640 2091  756
[24]  46(B10)  1  7  9  0   -531.9  4092003.1 -0.1  1 0  219   60  305
[25]  49(B13) 1f 42  7  0  -1916.3  4092004.9 -0.0  2 0 1147 1933 1102
[27]  65(B29) 1f 43  7  0  -2333.2  4092006.0 -0.0  2 0 1588 2290 1071
[32]  77(N-4)  7 47  7  0  -3105.8  1022001.9  0.1  2 0  1409 2305  855
[33]  78(N-3)  7 45 11  0   2431.0  1021998.4 -0.0  2 0   717 1387  746
[34]  79(N-2)  7 46  7  0    146.2  1021999.9 -0.1  2 0  1294 1883  589
[35]  81(N00)  7 36  7  0  -5099.6  1022003.2  0.1  2 0   582  850  279
[36]  83(N02)  7 45 12  0   1190.8  1021999.2  0.1  2 0   960 1393 1042
[49]  38(B02)  7 10 10  0  -2031.0 20460033.3  0.1  2 0  540  344  700
[50]  39(B03)  1 36 10  0  -1418.4 20460026.4  0.2  1 0  162  468  895
[51]  40(B04)  1 24 23  0  -1030.0 20460027.2  0.1  1 0  226  536  516
[52]  41(B05)  1 20 26  0  -1157.6 20460023.4 -0.1  1 0  311  769 1348
[53]  43(B07)  1  7  7  0  -1101.6 20460016.1 -0.2  1 0  283  224  356
[54]  44(B08)  1  7  7  0  -1372.0 20460020.7 -0.2  1 0  458  245  427
[57]  49(B13)  1  7  8  0  -1702.5 20460028.6  0.0  1 0  158  319   67
calculate DOP row 0,[  0.58  -0.62  -0.53   1.00]
calculate DOP row 1,[ -0.12  -0.94  -0.31   1.00]
calculate DOP row 2,[  0.24  -0.95   0.22   1.00]
calculate DOP row 3,[  0.64  -0.18  -0.75   1.00]
calculate DOP row 4,[  0.49  -0.42  -0.76   1.00]
calculate DOP row 5,[ -0.28  -0.41  -0.87   1.00]
calculate DOP row 6,[  0.36  -0.93   0.07   0.00]
calculate DOP row 7,[  0.63  -0.66  -0.42   0.00]
calculate DOP row 8,[ -0.42  -0.87  -0.27   0.00]
calculate DOP row 9,[  0.30  -0.89  -0.35   0.00]
calculate DOP row 10,[  0.04  -1.00   0.06   0.00]
calculate DOP row 11,[  0.98  -0.17   0.10   1.00]
calculate DOP row 12,[  0.81  -0.58   0.06   0.00]
calculate DOP row 13,[ -0.16  -0.98   0.10   0.00]
calculate DOP row 14,[  0.97  -0.23   0.07   0.00]
calculate DOP row 15,[ -0.60  -0.79   0.10   0.00]
DOP:  0.25   0.16   0.66   0.33
Refix G01: 2, 287937.931914, -561
Refix G07: 2, 287937.929262, 1480
Refix G08: 2, 287937.920209, 1472
Refix G11: 2, 287937.930679, 568
Refix G13: 2, 287937.916542, -699
Refix G18: 2, 287937.928543, 1157
Refix G22: 2, 287937.920348, -2643
Refix G28: 2, 287937.926693, -2889
Refix G30: 2, 287937.931390, -612
$GNGGA,075840.000,2944.9085,N,10633.0901,E,1,16,0.9,305.8,M,,,,0000*1F
$GNRMC,075840.000,A,2944.9085,N,10633.0901,E,0.07,0.00,090180,,*14
$GPGSA,A,3,01,07,11,18,22,28,30,,,,,,1.0,0.9,0.5*39
$BDGSA,A,3,01,02,03,04,05,07,08,13,29,,,,1.0,0.9,0.5*29
$GLGSA,A,3,,,,,,,,,,,,,1.0,0.9,0.5*23
$GPGSV,3,1,11,01,66,077,46,03,00,000,39,07,47,183,44,11,58,041,43*70
$GPGSV,3,2,11,17,00,000,40,18,42,049,44,22,19,108,40,28,44,327,43*76
$GPGSV,3,3,11,30,65,246,46,08,19,053,00,13,06,295,00*47
$BDGSV,3,1,11,01,40,125,41,02,46,219,41,03,55,171,43,04,23,109,39*67
$BDGSV,3,2,11,05,27,244,37,07,65,095,43,08,80,168,42,13,54,204,42*6A
$BDGSV,3,3,11,29,48,259,43,10,76,007,00,30,62,014,00*53
$B3CN0,0,0,0,0,0,0,0,0,0,0,0,0,0,0*4C
---00000013--- Acq_st=3 0  2000-1-9 7:58:40 
[00]  00(G01)  f 46  7  0   -565.6  2046000.7  0.0  2 0 2655 4286 1982
[01]  02(G03)  f 40  7  0  -3537.6  2046004.5 -0.1  2 0  584 1023  791
[02]  06(G07)  f 44  7  0   1473.6  2045998.0 -0.0  2 0 2127 3095 1601
[03]  10(G11)  f 43  7  0    561.6  2045999.2  0.0  2 0 1905 3004 1566
[04]  16(G17)  f 42  9  0  -2541.1  2046003.3 -0.0  2 0  980 1449 1499
[05]  17(G18)  f 44  7  0   1151.5  2045998.4  0.0  2 0 2033 2447  948
[06]  21(G22)  f 40  7  0  -2649.0  2046003.4 -0.1  2 0  496 1203 1070
[08]  27(G28)  f 43  7  0  -2894.2  2046003.7 -0.0  2 0 2187 2409  611
[09]  29(G30)  f 45  7  0   -616.2  2046000.7  0.0  2 0 2111 4398 1979
[16]  37(B01) 1f 41 10  0  -1064.6  4092002.7 -0.6  2 0 1332 1778  703
[17]  38(B02) 1f 39 24  0  -1111.6  4092002.8  0.8  2 0 1282 1619  554
[18]  39(B03) 1f 43 32  0  -1085.3  4092002.6 -0.0  2 0 1378 1492  464
[19]  40(B04) 1f 39 19  0  -1081.6  4092002.5  0.3  2 0 1017 1625  606
[20]  41(B05) 1f 39 20  0  -1122.8  4092002.8 -0.8  2 0  810 1236  832
[21]  43(B07) 1f 43  7  0  -1165.5  4092002.9 -0.0  2 0 2285 2665  979
[22]  44(B08) 1f 43 11  0  -1420.7  4092003.6 -0.1  2 0 1609 1887  943
[24]  46(B10)  1  7  7  0   -816.4  4092003.8 -0.1  1 0  100  682  697
[25]  49(B13) 1f 42  7  0  -1917.1  4092004.9 -0.0  2 0 1462 1924  891
[27]  65(B29) 1f 43  7  0  -2327.3  4092006.0 -0.0  2 0 1969 2265  978
[32]  77(N-4)  f 35  7  0  -3105.5  1022001.9 -0.1  2 0   978 1989  897
[33]  78(N-3)  f 35  7  0   2429.9  1021998.4  0.2  2 0   888 1610  670
[34]  79(N-2)  f 35  7  0    146.3  1021999.9  0.1  2 0  1201 2258 1092
[35]  81(N00)  7 36  7  0  -5099.0  1022003.1 -0.1  2 0   398  316  303
[36]  83(N02)  f 35  7  0   1187.6  1021999.2 -0.0  2 0   929 2019 1116
[48]  37(B01)  1 14 17  0   -744.1 20460022.9  0.0  1 0  284  658  470
[50]  39(B03)  1 14 10  1  -1381.6 20460019.3  0.1  1 0  466  523  547
[51]  40(B04)  1 22 19  0  -1011.2 20460017.1 -0.1  1 0  615  516  350
[52]  41(B05)  1 23 23  0  -1093.1 20460026.7  0.0  1 0  802 1093 1253
[53]  43(B07)  1  7  7  0   -788.4 20460016.7  0.1  1 0   89  492  370
[54]  44(B08)  1  7  7  0  -2101.6 20460021.4 -0.0  1 0  397  265  253
[57]  49(B13)  1  7 10  0  -1483.9 20460031.2 -0.1  1 0  491   89  346
[59]  65(B29)  1  7  7  0  -2075.0 20460037.9  0.1  1 0  380  277  443
calculate DOP row 0,[  0.58  -0.62  -0.53   1.00]
calculate DOP row 1,[ -0.12  -0.94  -0.31   1.00]
calculate DOP row 2,[  0.24  -0.95   0.22   1.00]
calculate DOP row 3,[  0.64  -0.18  -0.75   1.00]
calculate DOP row 4,[  0.63  -0.66  -0.42   0.00]
calculate DOP row 5,[  0.49  -0.42  -0.76   1.00]
calculate DOP row 6,[ -0.28  -0.41  -0.87   1.00]
calculate DOP row 7,[  0.30  -0.89  -0.35   0.00]
calculate DOP row 8,[  0.04  -1.00   0.06   0.00]
calculate DOP row 9,[ -0.42  -0.87  -0.27   0.00]
calculate DOP row 10,[  0.81  -0.58   0.06   0.00]
calculate DOP row 11,[  0.36  -0.93   0.07   0.00]
calculate DOP row 12,[ -0.16  -0.98   0.10   0.00]
calculate DOP row 13,[  0.98  -0.17   0.10   1.00]
calculate DOP row 14,[  0.97  -0.23   0.07   0.00]
calculate DOP row 15,[ -0.60  -0.79   0.10   0.00]
DOP:  0.25   0.16   0.66   0.33
Refix G01: 2, 287938.931914, -560
Refix G07: 2, 287938.929261, 1480
Refix G08: 2, 287938.920208, 1472
Refix G11: 2, 287938.930678, 568
Refix G13: 2, 287938.916542, -699
Refix G18: 2, 287938.928542, 1158
Refix G22: 2, 287938.920350, -2643
Refix G28: 2, 287938.926695, -2889
Refix G30: 2, 287938.931390, -611
$GNGGA,075841.000,2944.9080,N,10633.0902,E,1,16,0.9,308.7,M,,,,0000*1A
$GNRMC,075841.000,A,2944.9080,N,10633.0902,E,0.10,0.00,090180,,*15
$GPGSA,A,3,01,07,11,18,22,28,30,,,,,,1.0,0.9,0.5*39
$BDGSA,A,3,01,02,03,04,05,07,08,13,29,,,,1.0,0.9,0.5*29
$GLGSA,A,3,,,,,,,,,,,,,1.0,0.9,0.5*23
$GPGSV,3,1,11,01,66,077,46,03,00,000,40,07,47,183,44,11,58,041,43*7E
$GPGSV,3,2,11,17,00,000,42,18,42,049,44,22,19,108,40,28,44,327,43*74
$GPGSV,3,3,11,30,65,246,45,08,19,053,00,13,06,295,00*44
$BDGSV,3,1,11,01,40,125,41,02,46,219,39,03,55,171,43,04,23,109,39*68
$BDGSV,3,2,11,05,27,244,39,07,65,095,43,08,80,168,43,13,54,204,42*65
$BDGSV,3,3,11,29,48,259,43,10,76,007,00,30,62,014,00*53
$B3CN0,0,0,0,0,0,0,0,0,0,0,0,0,0,0*4C
---00000014--- Acq_st=7 0  2000-1-9 7:58:41 
[00]  00(G01)  f 46 12  0   -558.5  2046000.7 -0.0  2 0 2318 4604 2547
[01]  02(G03)  f 39  8  0  -3528.7  2046004.5 -0.0  2 0 1400 1979 1082
[02]  06(G07)  f 45  7  0   1481.7  2045998.0 -0.0  2 0 2803 3639 2000
[03]  10(G11)  f 43  7  0    566.9  2045999.2 -0.0  2 0 2235 3251 1524
[04]  16(G17)  f 41  7  0  -2541.9  2046003.3  0.1  2 0 1204 1815  865
[05]  17(G18)  f 43  7  0   1159.1  2045998.5 -0.0  2 0 1460 2767 1477
[06]  21(G22)  f 40 11  0  -2645.1  2046003.4 -0.1  2 0 1034 1729  866
[08]  27(G28)  f 43 11  0  -2890.7  2046003.7 -0.0  2 0 2030 2904 1287
[09]  29(G30)  f 46  7  0   -611.0  2046000.7 -0.0  2 0 2825 4235 2079
[16]  37(B01) 1f 41 20  0  -1060.6  4092002.6 -0.2  2 0 1557 1619  695
[17]  38(B02) 1f 41 27  0  -1106.4  4092002.9 -0.3  2 0 1480 2122 1387
[18]  39(B03) 1f 43 31  0  -1080.3  4092002.7  0.4  2 0 1318 1848  525
[19]  40(B04) 1f 40 10  0  -1079.8  4092002.7 -0.6  2 0  832  927  429
[20]  41(B05) 1f 39 26  0  -1116.0  4092002.8 -0.3  2 0  947 1073  420
[21]  43(B07) 1f 44  7  0  -1162.2  4092002.9 -0.0  2 0 2518 2508 1109
[22]  44(B08) 1f 43  7  0  -1414.3  4092003.6 -0.1  2 0 1874 2334 1098
[25]  49(B13) 1f 43  7  0  -1912.7  4092004.9 -0.0  2 0 2074 2319  883
[27]  65(B29) 1f 43  7  0  -2322.1  4092006.0  0.0  2 0 1591 2495 1151
[32]  77(N-4)  f 46  7  0  -3098.8  1022001.9  0.0  2 0  1247 1845  535
[33]  78(N-3)  f 44  7  0   2436.1  1021998.4  0.1  2 0  1006 1293  480
[34]  79(N-2)  f 45  7  0    150.5  1021999.9  0.1  2 0  1216 2024 1084
[35]  81(N00)  7 37  7  0  -5092.1  1022003.2 -0.1  2 0   207  589  432
[36]  83(N02)  f 44  7  0   1196.1  1021999.2  0.0  2 0  1037 1769  673
[48]  37(B01)  f 18 10  0  -1168.2 20460019.5 -0.2  2 0  682   73  467
[49]  38(B02)  1 17 16  0  -1047.1 20460023.7 -0.0  1 0  540   74  390
[50]  39(B03)  1 21 10  1  -1314.6 20460024.8  0.0  1 0  656  786  120
[53]  43(B07)  1  7  7  0   -752.0 20460017.4  0.1  1 0  306  679  511
[54]  44(B08)  1  7  7  0  -1722.0 20460021.0 -0.1  1 0  840  210  554
[57]  49(B13)  1  7  7  0  -1775.7 20460029.6  0.1  1 0  652  424  550
[59]  65(B29)  1  7  7  0  -1914.8 20460036.2  0.2  1 0  703  489  183
calculate DOP row 0,[  0.58  -0.62  -0.53   1.00]
calculate DOP row 1,[ -0.12  -0.94  -0.31   1.00]
calculate DOP row 2,[  0.24  -0.95   0.22   1.00]
calculate DOP row 3,[  0.49  -0.42  -0.76   1.00]
calculate DOP row 4,[  0.64  -0.18  -0.75   1.00]
calculate DOP row 5,[  0.36  -0.93   0.07   0.00]
calculate DOP row 6,[  0.63  -0.66  -0.42   0.00]
calculate DOP row 7,[  0.30  -0.89  -0.35   0.00]
calculate DOP row 8,[  0.04  -1.00   0.06   0.00]
calculate DOP row 9,[ -0.42  -0.87  -0.27   0.00]
calculate DOP row 10,[ -0.27  -0.41  -0.87   1.00]
calculate DOP row 11,[  0.98  -0.17   0.10   1.00]
calculate DOP row 12,[  0.81  -0.58   0.06   0.00]
calculate DOP row 13,[ -0.16  -0.98   0.10   0.00]
calculate DOP row 14,[  0.97  -0.23   0.07   0.00]
calculate DOP row 15,[ -0.60  -0.79   0.10   0.00]
DOP:  0.25   0.16   0.66   0.33
Refix G01: 2, 287939.931914, -554
Refix G07: 2, 287939.929260, 1486
Refix G08: 2, 287939.920207, 1476
Refix G11: 2, 287939.930678, 573
Refix G13: 2, 287939.916542, -695
Refix G18: 2, 287939.928542, 1163
Refix G22: 2, 287939.920352, -2638
Refix G28: 2, 287939.926697, -2885
Refix G30: 2, 287939.931390, -606
$GNGGA,075842.000,2944.9076,N,10633.0902,E,1,16,0.9,311.2,M,,,,0000*1D
$GNRMC,075842.000,A,2944.9076,N,10633.0902,E,0.25,0.00,090180,,*19
$GPGSA,A,3,01,07,11,18,22,28,30,,,,,,1.0,0.9,0.5*39
$BDGSA,A,3,01,02,03,04,05,07,08,13,29,,,,1.0,0.9,0.5*29
$GLGSA,A,3,,,,,,,,,,,,,1.0,0.9,0.5*23
$GPGSV,3,1,11,01,66,077,46,03,00,000,39,07,47,183,45,11,58,041,43*71
$GPGSV,3,2,11,17,00,000,41,18,42,049,43,22,19,108,40,28,44,327,43*70
$GPGSV,3,3,11,30,65,246,46,08,19,053,00,13,06,295,00*47
$BDGSV,3,1,11,01,40,125,41,02,46,219,41,03,55,171,43,04,23,109,40*69
$BDGSV,3,2,11,05,27,244,38,07,65,095,44,08,80,168,43,13,54,204,43*62
$BDGSV,3,3,11,29,48,259,43,10,76,007,00,30,62,014,00*53
$B3CN0,18,0,0,0,0,0,0,0,0,0,0,0,0,0*75
---00000015--- Acq_st=7 0  2000-1-9 7:58:42 
[00]  00(G01)  f 46  7  0   -552.7  2046000.6 -0.0  2 0 2982 4121 2050
[01]  02(G03)  f 39  7  0  -3531.8  2046004.5  0.0  2 0 1044 1473  525
[02]  06(G07)  f 44  7  0   1486.5  2045998.0  0.0  2 0 2255 3387 2224
[03]  10(G11)  f 43  7  0    576.0  2045999.2 -0.0  2 0 1962 3091 1300
[04]  16(G17)  f 41  9  0  -2534.8  2046003.2 -0.1  2 0 1237 1838  935
[05]  17(G18)  f 44  7  0   1163.6  2045998.4  0.1  2 0 1592 2170  965
[06]  21(G22)  f 39  7  0  -2633.8  2046003.4 -0.0  2 0  372  606  530
[08]  27(G28)  f 43  9  0  -2886.6  2046003.7  0.0  2 0 1691 2430 1108
[09]  29(G30)  f 46  7  0   -605.8  2046000.7 -0.0  2 0 3170 4857 2052
[16]  37(B01) 1f 40 10  0  -1056.6  4092002.6 -0.0  2 0  960 1107  164
[17]  38(B02) 1f 40 24  0  -1103.7  4092002.8  0.0  2 0 1149 1237  689
[18]  39(B03) 1f 43 33  0  -1074.6  4092002.8  0.1  2 0 1820 2393 1189
[19]  40(B04) 1f 40 24  0  -1075.4  4092002.6 -0.4  2 0  899 1228  341
[20]  41(B05) 1f 37 18  0  -1110.1  4092002.9  0.7  2 0  821  933  492
[21]  43(B07) 1f 43  7  0  -1153.6  4092002.9  0.0  2 0 1698 2078  530
[22]  44(B08) 1f 43  8  0  -1414.2  4092003.6 -0.0  2 0 1790 2007  892
[25]  49(B13) 1f 42  7  0  -1913.6  4092004.9  0.0  2 0 1258 2081  982
[27]  65(B29) 1f 43  7  0  -2320.1  4092006.0 -0.0  2 0 2037 2169  863
[32]  77(N-4)  f 46  7  0  -3093.5  1022001.9  0.0  2 0  1350 2687 1634
[33]  78(N-3)  f 45  7  0   2440.1  1021998.4  0.0  2 0   960 1637  948
[34]  79(N-2)  f 45  7  0    157.4  1021999.9  0.0  2 0  1163 1897  928
[35]  81(N00)  f 32  7  0  -5087.0  1022003.2  0.0  5 0   595  813  317
[36]  83(N02)  f 43  7  0   1200.0  1021999.2 -0.0  2 0   686 1682  968
[48]  37(B01)  f 21 18  1  -1451.7 20460024.1 -0.1  2 0  543  612  323
[49]  38(B02)  7 10 24  0  -1126.5 20460016.5  0.2  2 0  529  373  399
[51]  40(B04)  1 23 21  1  -1028.9 20460014.8 -0.0  1 0  555  431  514
[52]  41(B05)  1 20 25  1  -1014.6 20460016.5 -0.4  1 0  387  288  200
[53]  43(B07)  1  7  8  0   -305.7 20460016.7 -0.2  1 0  500  590  532
[54]  44(B08)  1  7  7  0  -2015.4 20460022.0 -0.1  1 0  632  507  230
[57]  49(B13)  1  7  7  0  -1905.2 20460031.1 -0.0  1 0  247  314  165
[59]  65(B29)  1  7 10  0  -1848.5 20460037.9 -0.0  1 0  353  350  559
calculate DOP row 0,[  0.58  -0.62  -0.53   1.00]
calculate DOP row 1,[ -0.12  -0.94  -0.31   1.00]
calculate DOP row 2,[  0.24  -0.95   0.22   1.00]
calculate DOP row 3,[  0.64  -0.18  -0.75   1.00]
calculate DOP row 4,[  0.49  -0.42  -0.76   1.00]
calculate DOP row 5,[ -0.27  -0.41  -0.87   1.00]
calculate DOP row 6,[  0.36  -0.93   0.07   0.00]
calculate DOP row 7,[  0.63  -0.66  -0.42   0.00]
calculate DOP row 8,[  0.30  -0.89  -0.35   0.00]
calculate DOP row 9,[ -0.42  -0.87  -0.27   0.00]
calculate DOP row 10,[  0.04  -1.00   0.06   0.00]
calculate DOP row 11,[  0.98  -0.17   0.10   1.00]
calculate DOP row 12,[  0.81  -0.58   0.06   0.00]
calculate DOP row 13,[ -0.16  -0.98   0.10   0.00]
calculate DOP row 14,[  0.97  -0.23   0.07   0.00]
calculate DOP row 15,[ -0.60  -0.79   0.10   0.00]
DOP:  0.25   0.16   0.66   0.33
Refix G01: 2, 287940.931915, -554
Refix G07: 2, 287940.929259, 1485
Refix G08: 2, 287940.920206, 1475
Refix G11: 2, 287940.930678, 573
Refix G13: 2, 287940.916543, -695
Refix G18: 2, 287940.928541, 1163
Refix G22: 2, 287940.920353, -2639
Refix G28: 2, 287940.926699, -2885
Refix G30: 2, 287940.931391, -606
$GNGGA,075843.000,2944.9072,N,10633.0903,E,1,16,0.9,312.8,M,,,,0000*10
$GNRMC,075843.000,A,2944.9072,N,10633.0903,E,0.10,0.00,090180,,*1B
$GPGSA,A,3,01,07,11,18,22,28,30,,,,,,1.0,0.9,0.5*39
$BDGSA,A,3,01,02,03,04,05,07,08,13,29,,,,1.0,0.9,0.5*29
$GLGSA,A,3,,,,,,,,,,,,,1.0,0.9,0.5*23
$GPGSV,3,1,11,01,66,077,46,03,00,000,39,07,47,183,44,11,58,041,43*70
$GPGSV,3,2,11,17,00,000,41,18,42,049,44,22,19,108,39,28,44,327,43*79
$GPGSV,3,3,11,30,65,246,46,08,19,053,00,13,06,295,00*47
$BDGSV,3,1,11,01,40,125,41,02,46,219,40,03,55,171,43,04,23,109,40*68
$BDGSV,3,2,11,05,27,244,37,07,65,095,43,08,80,168,43,13,54,204,42*6B
$BDGSV,3,3,11,29,48,259,43,10,76,007,00,30,62,014,00*53
$B3CN0,20,0,0,0,0,0,0,0,0,0,0,0,0,0*7E
---00000016--- Acq_st=7 0  2000-1-9 7:58:43 
[00]  00(G01)  f 45  7  0   -557.7  2046000.7 -0.0  2 0 2629 4403 2398
[01]  02(G03)  f 38  7  0  -3535.5  2046004.5  0.2  2 0  857 1418  963
[02]  06(G07)  f 45  7  0   1483.7  2045998.0 -0.0  2 0 2735 3391 1561
[03]  10(G11)  f 43  7  0    572.0  2045999.2 -0.0  2 0 1597 2666 1045
[04]  16(G17)  f 40  7  0  -2535.7  2046003.2 -0.0  2 0 2016 2569 1527
[05]  17(G18)  f 44  7  0   1162.2  2045998.4 -0.0  2 0 2142 2634  961
[06]  21(G22)  f 40  7  0  -2644.4  2046003.4 -0.1  2 0 1656 1797  725
[08]  27(G28)  f 43 10  0  -2889.6  2046003.7 -0.0  2 0 1607 2888  813
[09]  29(G30)  f 46  7  0   -608.1  2046000.7  0.0  2 0 3045 4471 1949
[16]  37(B01) 1f 40 18  0  -1056.6  4092002.7 -0.7  2 0  585 1414  634
[17]  38(B02) 1f 40 27  0  -1106.3  4092002.8  0.4  2 0  896 1313  732
[18]  39(B03) 1f 43 31  0  -1077.2  4092002.7  0.4  2 0 1504 2005  897
[19]  40(B04) 1f 40 25  0  -1077.3  4092002.7 -0.3  2 0 1045 1311 1019
[20]  41(B05) 1f 37 25  0  -1114.3  4092002.8 -0.8  2 0  863 1124  148
[21]  43(B07) 1f 43  7  0  -1160.6  4092002.9 -0.0  2 0 2024 2120  719
[22]  44(B08) 1f 43  8  0  -1413.1  4092003.6  0.1  2 0 1527 1917  851
[25]  49(B13) 1f 42  7  0  -1911.7  4092004.8  0.1  2 0 1399 2609 1579
[27]  65(B29) 1f 43  7  0  -2324.9  4092006.0 -0.0  2 0 2448 2552 1407
[32]  77(N-4)  f 46  7  0  -3097.4  1022002.0 -0.0  2 0  1167 2423 1184
[33]  78(N-3)  f 45  9  0   2438.7  1021998.4  0.0  2 0  1160 1735  902
[34]  79(N-2)  f 45  7  0    154.3  1021999.9  0.0  2 0  1017 1992  855
[35]  81(N00)  f 36  7  0  -5091.4  1022003.2  0.1  2 0   396  910  563
[36]  83(N02)  f 44  7  0   1197.4  1021999.2  0.0  2 0  1055 1722  707
[48]  37(B01)  f 18 18  0  -1837.5 20460030.9 -0.0  2 0  720 1009  613
[49]  38(B02)  7 18 36  1  -1860.7 20460031.5 -0.1  2 0  185  266  707
[50]  39(B03)  1 10 10  1   -621.2 20460015.9  0.1  1 0  848   45  575
[51]  40(B04)  1 28 23  1   -875.8 20460018.9  0.1  1 0   34  491  739
[52]  41(B05)  1 20 24  1   -541.2 20460017.7 -0.1  1 0  262   20  273
[59]  65(B29)  1  7  7  0  -2284.3 20460036.9  0.1  1 0  570  593  196
calculate DOP row 0,[  0.58  -0.62  -0.53   1.00]
calculate DOP row 1,[ -0.12  -0.94  -0.31   1.00]
calculate DOP row 2,[  0.24  -0.95   0.22   1.00]
calculate DOP row 3,[  0.49  -0.42  -0.76   1.00]
calculate DOP row 4,[  0.64  -0.18  -0.75   1.00]
calculate DOP row 5,[  0.36  -0.93   0.07   0.00]
calculate DOP row 6,[  0.63  -0.66  -0.42   0.00]
calculate DOP row 7,[  0.30  -0.89  -0.35   0.00]
calculate DOP row 8,[  0.04  -1.00   0.06   0.00]
calculate DOP row 9,[ -0.42  -0.87  -0.27   0.00]
calculate DOP row 10,[ -0.27  -0.41  -0.87   1.00]
calculate DOP row 11,[ -0.16  -0.98   0.10   0.00]
calculate DOP row 12,[  0.98  -0.17   0.09   1.00]
calculate DOP row 13,[  0.81  -0.58   0.06   0.00]
calculate DOP row 14,[  0.97  -0.23   0.07   0.00]
calculate DOP row 15,[ -0.60  -0.79   0.10   0.00]
DOP:  0.25   0.16   0.66   0.33
Refix G01: 2, 287941.931915, -556
Refix G07: 2, 287941.929258, 1483
Refix G08: 2, 287941.920205, 1474
Refix G11: 2, 287941.930677, 572
Refix G13: 2, 287941.916543, -696
Refix G18: 2, 287941.928540, 1161
Refix G22: 2, 287941.920355, -2641
Refix G28: 2, 287941.926700, -2887
Refix G30: 2, 287941.931391, -607
$GNGGA,075844.000,2944.9070,N,10633.0904,E,1,16,0.9,314.2,M,,,,0000*1E
$GNRMC,075844.000,A,2944.9070,N,10633.0904,E,0.08,0.00,090180,,*10
$GPGSA,A,3,01,07,11,18,22,28,30,,,,,,1.0,0.9,0.5*39
$BDGSA,A,3,01,02,03,04,05,07,08,13,29,,,,1.0,0.9,0.5*29
$GLGSA,A,3,,,,,,,,,,,,,1.0,0.9,0.5*23
$GPGSV,3,1,11,01,66,077,45,03,00,000,38,07,47,183,45,11,58,041,43*73
$GPGSV,3,2,11,17,00,000,40,18,42,049,44,22,19,108,40,28,44,327,43*76
$GPGSV,3,3,11,30,65,246,46,08,19,053,00,13,06,295,00*47
$BDGSV,3,1,11,01,40,125,40,02,46,219,40,03,55,171,43,04,23,109,40*69
$BDGSV,3,2,11,05,27,244,37,07,65,095,43,08,80,168,43,13,54,204,42*6B
$BDGSV,3,3,11,29,48,259,43,10,76,007,00,30,62,014,00*53
$B3CN0,17,17,0,0,0,0,0,0,0,0,0,0,0,0*4C
---00000017--- Acq_st=3 0  2000-1-9 7:58:44 
[00]  00(G01)  f 45  7  0   -563.3  2046000.7  0.0  2 0 3068 4987 2206
[01]  02(G03)  f 39  7  0  -3547.2  2046004.5 -0.1  2 0  581 1451  875
[02]  06(G07)  f 44  7  0   1476.9  2045998.0  0.0  2 0 2408 3425 1456
[03]  10(G11)  f 44  7  0    564.5  2045999.2  0.0  2 0 1464 2772 1219
[04]  16(G17)  f 40  7  0  -2544.2  2046003.3  0.1  2 0 1014 2083  871
[05]  17(G18)  f 44  7  0   1153.9  2045998.4  0.0  2 0 2100 2622 1284
[06]  21(G22)  f 40  7  0  -2650.3  2046003.3  0.0  2 0  801 1928  858
[08]  27(G28)  f 43 10  0  -2893.2  2046003.7 -0.0  2 0 1371 2700 1539
[09]  29(G30)  f 46  7  0   -615.6  2046000.7 -0.1  2 0 3234 4443 1765
[16]  37(B01) 1f 40 10  0  -1069.6  4092002.7  0.1  2 0 1158 1711  296
[17]  38(B02) 1f 40 21  0  -1115.8  4092002.7 -0.5  2 0 1203 1219  553
[18]  39(B03) 1f 42 32  0  -1086.1  4092002.8  0.2  2 0 1518 1955  850
[19]  40(B04) 1f 40 10  0  -1084.8  4092002.8 -0.2  2 0 1090 1492  518
[20]  41(B05) 1f 37 23  0  -1120.2  4092002.8  0.4  2 0 1239 1661 1098
[21]  43(B07) 1f 43  7  0  -1167.9  4092002.9  0.0  2 0 1878 2584 1385
[22]  44(B08) 1f 42  9  0  -1423.8  4092003.6 -0.0  2 0 2252 2671  916
[25]  49(B13) 1f 43  7  0  -1922.2  4092004.9 -0.1  2 0 1224 1887 1173
[27]  65(B29) 1f 43  7  0  -2329.1  4092006.0 -0.0  2 0 1647 2135  859
[32]  77(N-4)  f 46  7  0  -3104.1  1022002.0  0.1  2 0  1025 2414 1495
[33]  78(N-3)  f 45  7  0   2430.5  1021998.4  0.1  2 0  1168 1795  612
[34]  79(N-2)  f 44  7  0    146.5  1021999.9 -0.1  2 0  1199 2156  812
[35]  81(N00)  f 35  7  0  -5100.2  1022003.2 -0.1  2 0    76  816  711
[36]  83(N02)  f 43  7  0   1190.4  1021999.2  0.1  2 0  1178 1862 1120
[48]  37(B01)  f 10 10  0  -2596.8 20460042.5 -0.1  2 0  226  134  362
[49]  38(B02)  7 14 17  1  -2123.1 20460032.1  0.2  2 0  491  375   60
[50]  39(B03)  1 10 23  0   -580.7 20460020.0  0.1  1 0  809  562  704
[51]  40(B04)  1 20 21  1   -937.5 20460021.0  0.1  1 0  581  464  736
[52]  41(B05)  1 22 21  0   -523.9 20460019.5 -0.0  1 0  100  339  281
[53]  43(B07)  1  7  7  0   -830.3 20460015.9 -0.0  1 0  844  271  669
[54]  44(B08)  1  7  7  0  -1346.8 20460022.3 -0.1  1 0  443  551  194
[57]  49(B13)  1  7  7  0  -1216.7 20460030.4 -0.0  1 0  420  551  445
calculate DOP row 0,[  0.58  -0.62  -0.53   1.00]
calculate DOP row 1,[ -0.12  -0.94  -0.31   1.00]
calculate DOP row 2,[  0.24  -0.95   0.22   1.00]
calculate DOP row 3,[  0.49  -0.42  -0.76   1.00]
calculate DOP row 4,[  0.64  -0.18  -0.75   1.00]
calculate DOP row 5,[ -0.27  -0.41  -0.87   1.00]
calculate DOP row 6,[  0.63  -0.66  -0.42   0.00]
calculate DOP row 7,[  0.30  -0.89  -0.35   0.00]
calculate DOP row 8,[  0.04  -1.00   0.06   0.00]
calculate DOP row 9,[ -0.42  -0.87  -0.27   0.00]
calculate DOP row 10,[  0.36  -0.93   0.07   0.00]
calculate DOP row 11,[ -0.16  -0.98   0.10   0.00]
calculate DOP row 12,[  0.98  -0.17   0.09   1.00]
calculate DOP row 13,[  0.81  -0.58   0.06   0.00]
calculate DOP row 14,[  0.97  -0.23   0.07   0.00]
calculate DOP row 15,[ -0.60  -0.79   0.10   0.00]
DOP:  0.25   0.16   0.66   0.33
Refix G01: 2, 287942.931915, -563
Refix G07: 2, 287942.929257, 1475
Refix G08: 2, 287942.920204, 1467
Refix G11: 2, 287942.930677, 564
Refix G13: 2, 287942.916544, -702
Refix G18: 2, 287942.928539, 1154
Refix G22: 2, 287942.920357, -2647
Refix G28: 2, 287942.926702, -2895
Refix G30: 2, 287942.931391, -615
$GNGGA,075845.000,2944.9068,N,10633.0903,E,1,16,0.9,315.5,M,,,,0000*17
$GNRMC,075845.000,A,2944.9068,N,10633.0903,E,0.23,0.00,090180,,*16
$GPGSA,A,3,01,07,11,18,22,28,30,,,,,,1.0,0.9,0.5*39
$BDGSA,A,3,01,02,03,04,05,07,08,13,29,,,,1.0,0.9,0.5*29
$GLGSA,A,3,,,,,,,,,,,,,1.0,0.9,0.5*23
$GPGSV,3,1,11,01,66,077,45,03,00,000,39,07,47,183,44,11,58,041,44*74
$GPGSV,3,2,11,17,00,000,40,18,42,049,44,22,19,108,40,28,44,327,43*76
$GPGSV,3,3,11,30,65,246,46,08,19,053,00,13,06,295,00*47
$BDGSV,3,1,11,01,40,125,40,02,46,219,40,03,55,171,42,04,23,109,40*68
$BDGSV,3,2,11,05,27,244,37,07,65,095,43,08,80,168,42,13,54,204,43*6B
$BDGSV,3,3,11,29,48,259,43,10,76,007,00,30,62,014,00*53
$B3CN0,0,17,0,0,0,0,0,0,0,0,0,0,0,0*7A
---00000018--- Acq_st=3 0  2000-1-9 7:58:45 
[00]  00(G01)  f 45  7  0   -557.3  2046000.7 -0.0  2 0 3026 4294 2167
[01]  02(G03)  f 39  7  0  -3533.2  2046004.5 -0.3  2 0  878 1543  863
[02]  06(G07)  f 44  8  0   1483.5  2045998.0 -0.0  2 0 2550 3675 2016
[03]  10(G11)  f 43  7  0    572.1  2045999.2 -0.0  2 0 1804 2753 1659
[04]  16(G17)  f 41  7  0  -2538.5  2046003.2 -0.0  2 0 1550 1794  924
[05]  17(G18)  f 44  7  0   1159.3  2045998.4 -0.0  2 0 1497 2232 1171
[06]  21(G22)  f 40  7  0  -2640.6  2046003.4  0.0  2 0  972 1521 1078
[08]  27(G28)  f 43 11  0  -2889.4  2046003.7 -0.0  2 0 1537 2700 1264
[09]  29(G30)  f 46  7  0   -608.5  2046000.7  0.0  2 0 3313 4956 2282
[10]  18(G19)  1  7  7  0  -3938.2  2046005.2  0.1  1 0   43  192  770
[16]  37(B01) 1f 39 10  0  -1060.9  4092002.7  0.5  2 0  877 1209  558
[17]  38(B02) 1f 39 24  0  -1102.8  4092002.7  0.4  2 0 1316 1331  353
[18]  39(B03) 1f 43 32  0  -1077.0  4092002.7 -0.4  2 0 1354 1859  906
[19]  40(B04) 1f 40 25  0  -1072.7  4092002.7  0.4  2 0  473  768  504
