SD initialized success
Create debug.log Failed! 3
bbram_blkflag = 1
rtcflag = 0
BBRAM Block OK: 01 EPHflag: 00000000 09c216dd, rtc 00
Hot-start nowtime:day = 20,minute = 3,seconds = 0
Start Channel by LuYu
$GNGGA,000000.000,,,,,0,00,,,M,,,,0000*2B
$GNRMC,000000.000,A,,,,,,,060180,,*29
$GPGSA,A,1,,,,,,,,,,,,,,,*1E
$BDGSA,A,1,,,,,,,,,,,,,,,*0F
$GLGSA,A,1,,,,,,,,,,,,,,,*02
$B3CN0,0,0,0,0,0,0,0,0,0,0,0,0,0,0*4C
---00000001--- Acq_st=3 0  2019-4-20 8:3:55 
[00]  00(G01)  1 25 12  0  -1073.1  2046001.8  0.5  1 0 3007 5195 2555
[01]  06(G07)  1  7  7  0   1000.0  2045998.9 -0.0  1 0 2928 4176 2212
[02]  07(G08)  1 19  7  0   1500.0  2045999.6  0.0  1 0  167  958  966
[03]  10(G11)  1  7  7  0    250.0  2046002.4  0.0  1 0  321 1169 2784
$GNGGA,000000.000,,,,,0,00,,,M,,,,0000*2B
$GNRMC,000000.000,A,,,,,,,060180,,*29
$GPGSA,A,1,,,,,,,,,,,,,,,*1E
$BDGSA,A,1,,,,,,,,,,,,,,,*0F
$GLGSA,A,1,,,,,,,,,,,,,,,*02
$B3CN0,0,0,0,0,0,0,0,0,0,0,0,0,0,0*4C
---00000002--- Acq_st=4 0  2019-4-20 8:3:56 
[00]  00(G01)  7 25  7  0  -1056.1  2046001.3  0.6 10 0 2854 4501 1497
[01]  06(G07)  1 32  7  0   1106.8  2045998.3  0.9  1 0 2325 4571 2444
[02]  07(G08)  1 29  7  0   1478.0  2045997.6  0.8  1 0 1589 1766  369
[03]  10(G11)  1 28  7  0    222.7  2045999.8  0.6  1 0 2127 2455  982
[04]  17(G18)  1 31  7  0    753.4  2045999.2  0.1  1 0 1831 2402  766
[05]  21(G22)  1  7  7  0  -2750.0  2046005.0 -0.0  1 0  589  201  899
$GNGGA,000000.000,,,,,0,00,,,M,,,,0000*2B
$GNRMC,000000.000,A,,,,,,,060180,,*29
$GPGSA,A,1,,,,,,,,,,,,,,,*1E
$BDGSA,A,1,,,,,,,,,,,,,,,*0F
$GLGSA,A,1,,,,,,,,,,,,,,,*02
$GPGSV,1,1,01,01,00,000,25*4E
$B3CN0,0,0,0,0,0,0,0,0,0,0,0,0,0,0*4C
---00000003--- Acq_st=3 0  2019-4-20 8:3:57 
[00]  00(G01)  7 45  7  0  -1051.3  2046001.3  0.0  2 0 3193 4783 2031
[01]  06(G07)  7 36  7  0   1111.4  2045998.5  0.1  2 0 2783 4275 2459
[02]  07(G08)  7 33  7  0   1484.7  2045998.0  0.1  5 0  246 1511  995
[03]  10(G11)  7 30  7  0    226.6  2045999.6  0.5  5 0 1803 2673 1577
[04]  17(G18)  7  8  7  0    759.7  2045998.9  1.0 10 0 1618 2970 1451
[05]  21(G22)  1 34  7  0  -2827.8  2046003.9  0.8  1 0 1219 1507  883
[06]  27(G28)  1 26 10  0  -2930.3  2046004.5  0.3  1 0 1114 2314 1486
[08]  29(G30)  1 17  7  0  -1080.0  2046004.7 -0.0  1 0  858 4019 5049
[16]  37(B01)  1 34 17  0  -1000.0  4092005.4  0.0  1 0  259 1127 1373
[17]  38(B02)  1 29 36  1  -1250.0  4092005.6  0.0  1 0  437  729 1406
[18]  39(B03)  1 24 29  1  -1000.0  4092002.2 -0.1  1 0  210  262 1409
[19]  40(B04)  1 10 10  0  -1000.0  4092003.7 -0.0  1 0  163  534 1263
$GNGGA,000000.000,,,,,0,00,,,M,,,,0000*2B
$GNRMC,000000.000,A,,,,,,,060180,,*29
$GPGSA,A,1,,,,,,,,,,,,,,,*1E
$BDGSA,A,1,,,,,,,,,,,,,,,*0F
$GLGSA,A,1,,,,,,,,,,,,,,,*02
$GPGSV,1,1,04,01,00,000,45,07,00,000,36,08,00,000,33,11,00,000,30*74
$B3CN0,0,0,0,0,0,0,0,0,0,0,0,0,0,0*4C
---00000004--- Acq_st=3 0  2019-4-20 8:3:58 
[00]  00(G01)  7 45  7  0  -1069.0  2046001.3  0.1  2 0 3434 4269 1732
[01]  06(G07)  7 44 10  0   1096.7  2045998.5 -0.0  2 0 3263 4792 2457
[02]  07(G08)  7 39  7  0   1465.0  2045998.0  0.0  2 0  811 1579 1227
[03]  10(G11)  7 43  7  0    213.4  2045999.6 -0.1  2 0 1666 2642 1369
[04]  17(G18)  7 44  7  0    745.1  2045999.0 -0.0  2 0 1576 3094 1527
[05]  21(G22)  7 32  7  0  -2842.2  2046003.5  0.5  5 0 1094  863  739
[06]  27(G28)  7 24  7  0  -2939.8  2046003.8  0.7 10 0 1776 3144 1694
[08]  29(G30)  7 19  7  0  -1092.7  2046001.2  0.3 10 0 4077 4741 1377
[16]  37(B01)  9 41 10  0  -1101.5  4092002.5  1.0  1 0  930 1164  199
[17]  38(B02)  1 39 23  0  -1141.3  4092003.3  0.9  1 0 1351 1159  204
[18]  39(B03)  1 29 32  0  -1132.4  4092005.2 -0.0  1 0  466 1133 2162
[19]  40(B04)  1 40 24  0  -1112.7  4092004.1  0.9  1 0  869 1657 1089
[20]  41(B05)  1 13 16  0   -851.1  4092002.3 -0.1  1 0 1066  567  313
[21]  43(B07)  1  7  7  0  -1251.5  4092005.7 -0.1  1 0 1071 1745 1716
[22]  44(B08)  1  7  7  0  -1235.4  4092002.9 -0.0  1 0   63  439  316
[24]  46(B10)  1  7  7  0  -1500.0  4092004.2 -0.1  1 0  352  130  887
[25]  47(B11)  1  7  7  0     -0.0  4092001.8 -0.1  1 0 1209 2993 2541
[26]  49(B13)  1  0  0  0  -2250.0  4092005.0  0.0  1 0  199 1179 1813
$GNGGA,000000.000,,,,,0,00,,,M,,,,0000*2B
$GNRMC,000000.000,A,,,,,,,060180,,*29
$GPGSA,A,1,,,,,,,,,,,,,,,*1E
$BDGSA,A,1,,,,,,,,,,,,,,,*0F
$GLGSA,A,1,,,,,,,,,,,,,,,*02
$GPGSV,2,1,08,01,00,000,45,07,00,000,44,08,00,000,39,11,00,000,43*70
$GPGSV,2,2,08,18,00,000,45,22,00,000,32,28,00,000,24,30,00,000,18*7E
$B3CN0,0,0,0,0,0,0,0,0,0,0,0,0,0,0*4C
---00000005--- Acq_st=3 0  2019-4-20 8:3:59 
[00]  00(G01)  7 45  7  0  -1065.8  2046001.3 -0.0  2 0 2753 4499 2049
[01]  06(G07)  7 44  7  0   1100.1  2045998.5  0.0  2 0 2549 4101 2544
[02]  07(G08)  7 40  7  0   1471.6  2045998.0  0.0  2 0 1225 1757  726
[03]  10(G11)  7 44  7  0    218.3  2045999.6  0.0  2 0 3221 3449 1197
[04]  17(G18)  7 43  7  0    748.9  2045999.0 -0.0  2 0 2218 3377 1384
[05]  21(G22)  7 38  7  0  -2834.6  2046003.6 -0.2  2 0 1623 1979  568
[06]  27(G28)  7 42  7  0  -2939.5  2046003.8  0.0  2 0 1267 2542 1716
[08]  29(G30)  7 46  7  0  -1089.2  2046001.3 -0.0  2 0 4010 4480 1667
[16]  37(B01)  f 41 10  0  -1096.9  4092002.8 -0.7  2 0 1137 1629  903
[17]  38(B02)  f 38 26  0  -1132.8  4092002.7 -0.3  2 0 1291 1157  454
[18]  39(B03)  7 43 30  0  -1110.3  4092003.0 -0.0  2 0 1094 2210 1365
[19]  40(B04)  f 39 24  0  -1109.4  4092002.8 -0.5  2 0 1383 1234  277
[20]  41(B05)  1 10 10  0   -776.5  4092002.4  0.0  1 0  653  409  185
[21]  43(B07)  7  7  7  0  -1245.1  4092003.1 -0.2 10 0 1727 2207  654
[22]  44(B08)  1  7  9  0  -1107.4  4092003.0 -0.1  1 0  126  133  560
[24]  46(B10)  1  7  7  0  -2056.8  4092006.4 -0.0  1 0  523  621 1274
[25]  47(B11)  1  7  7  0    245.4  4091999.2  0.1  1 0 3165 3338 1604
[26]  49(B13)  1  7  8  0  -2039.8  4092005.3  0.1  1 0 1327 2150  745
[27]  54(B18)  1  7  7  0  -1250.0  4092004.8 -0.0  1 0  216  114 1047
$GNGGA,000000.000,,,,,0,00,,,M,,,,0000*2B
$GNRMC,000000.000,A,,,,,,,060180,,*29
$GPGSA,A,1,,,,,,,,,,,,,,,*1E
$BDGSA,A,1,,,,,,,,,,,,,,,*0F
$GLGSA,A,1,,,,,,,,,,,,,,,*02
$GPGSV,2,1,08,01,00,000,45,07,00,000,44,08,00,000,40,11,00,000,44*79
$GPGSV,2,2,08,18,00,000,43,22,00,000,38,28,00,000,42,30,00,000,46*79
$BDGSV,1,1,04,01,00,000,41,02,00,000,38,03,00,000,43,04,00,000,39*6B
$B3CN0,0,0,0,0,0,0,0,0,0,0,0,0,0,0*4C
---00000006--- Acq_st=3 0  2019-4-20 8:4:0 
[00]  00(G01)  7 45  7  0  -1061.7  2046001.3 -0.0  2 0 2145 3864 2152
[01]  06(G07)  7 44  7  0   1104.5  2045998.5  0.0  2 0 2778 4581 2611
[02]  07(G08)  7 39  7  0   1470.6  2045998.0 -0.1  2 0 1646 2557 1221
[03]  10(G11)  7 43  7  0    222.2  2045999.6 -0.1  2 0 2532 2874 1247
[04]  17(G18)  7 43  7  0    752.8  2045999.0  0.0  2 0 1534 2640 1321
[05]  21(G22)  7 39  7  0  -2835.1  2046003.6  0.2  2 0 1160 1766  442
[06]  27(G28)  7 41  7  0  -2934.9  2046003.8 -0.0  2 0 1518 2433 1115
[08]  29(G30)  7 45  7  0  -1085.6  2046001.3  0.0  2 0 3262 4716 1963
[16]  37(B01) 1f 41 21  0  -1092.1  4092002.6 -0.2  2 0 1704 1764  558
[17]  38(B02) 1f 39 14  0  -1131.0  4092002.9  0.1  2 0 1171 1464  901
[18]  39(B03) 1f 45 28  0  -1110.5  4092002.9 -0.2  2 0 1586 2607 1287
[19]  40(B04)  f 40 10  0  -1108.9  4092002.9 -0.6  2 0  668 1028  540
[20]  41(B05)  1 25 27  1  -1138.6  4092005.6  0.0  1 0  453  752 1457
[21]  43(B07)  7 42 12  0  -1238.3  4092003.1 -0.1  2 0 1664 1942  874
[22]  44(B08)  1  7  7  0  -1067.9  4092003.1  0.0  1 0  718  805  809
[24]  46(B10)  1 11  7  0  -2046.2  4092004.0  0.8  1 0 1501 1290  646
[25]  47(B11)  7 32  7  0    249.1  4091999.2  0.0  5 0 2497 3050 1312
[26]  49(B13)  7 27  7  0  -2029.5  4092005.3  0.3 10 0 1489 2456 1108
[27]  54(B18)  1  7  7  0  -1314.9  4092004.7  0.4  1 0 1884 3112 1367
[28]  59(B23)  1  7  7  0  -2758.6  4092009.6  0.0  1 0  663 2923 2798
[29]  60(B24)  1  7  7  0   2000.0  4091994.5  0.0  1 0 1471 1623  583
[30]  61(B25)  1  7  7  0     -0.0  4091997.1 -0.0  1 0 3376 1777   99
[48]  37(B01)  1 20 10  0   -641.2 20460014.7  0.1  1 0  207  142  114
[49]  38(B02)  1 36 36  1   -888.4 20460019.6  0.0  1 0  402  317  335
[51]  40(B04)  1 25 23  0   -408.9 20460018.9 -0.0  1 0  513  356  484
$GNGGA,000000.000,,,,,0,00,,,M,,,,0000*2B
$GNRMC,000000.000,A,,,,,,,060180,,*29
$GPGSA,A,1,,,,,,,,,,,,,,,*1E
$BDGSA,A,1,,,,,,,,,,,,,,,*0F
$GLGSA,A,1,,,,,,,,,,,,,,,*02
$GPGSV,2,1,08,01,00,000,45,07,00,000,44,08,00,000,39,11,00,000,43*70
$GPGSV,2,2,08,18,00,000,43,22,00,000,39,28,00,000,41,30,00,000,45*78
$BDGSV,2,1,07,01,00,000,41,02,00,000,39,03,00,000,45,04,00,000,40*62
$BDGSV,2,2,07,07,00,000,42,11,00,000,31,13,00,000,26*5A
$B3CN0,0,0,0,0,0,0,0,0,0,0,0,0,0,0*4C
---00000007--- Acq_st=3 0  2019-4-20 8:4:1 
[00]  00(G01)  7 45  7  0  -1067.3  2046001.3  0.0  2 0 4036 5479 2209
[01]  06(G07)  7 43  7  0   1095.9  2045998.5 -0.0  2 0 2747 4176 1794
[02]  07(G08)  7 39  7  0   1464.6  2045998.0  0.0  2 0  701 1220  494
[03]  10(G11)  7 43  7  0    214.8  2045999.6  0.0  2 0 1862 3149 1602
[04]  17(G18)  7 42  7  0    746.9  2045999.0 -0.0  2 0 1899 2720 1767
[05]  21(G22)  7 40  8  0  -2842.6  2046003.6  0.1  2 0 1653 1822 1084
[06]  27(G28)  7 40 10  0  -2938.8  2046003.8 -0.0  2 0 1274 2556 1201
[08]  29(G30)  7 45  7  0  -1091.0  2046001.3 -0.0  2 0 4001 5790 2942
[16]  37(B01) 1f 42 10  0  -1101.2  4092002.7  0.4  2 0 1491 1685  583
[17]  38(B02) 1f 38 26  0  -1144.2  4092002.9  0.8  2 0 1068 1206 1090
[18]  39(B03) 1f 43 31  0  -1116.6  4092002.9  0.0  2 0 1492 2656 1427
[19]  40(B04)  f 40 13  0  -1113.3  4092002.7  0.5  2 0 1943 2203  881
[20]  41(B05)  7 39 21  0  -1149.5  4092002.8  0.5  2 0 1165 1446  431
[21]  43(B07)  7 42 14  0  -1246.0  4092003.1 -0.1  2 0 1728 2143  933
[22]  44(B08)  1 10  7  0  -1522.0  4092003.0 -0.0  1 0  669  473  219
[24]  46(B10)  1 12  7  0  -2054.1  4092003.8  1.0  1 0 1489 1755  373
[25]  47(B11)  7 44 11  0    241.4  4091999.2  0.1  2 0 2460 3096 1013
[26]  49(B13)  7 43 11  0  -2036.2  4092005.2  0.0  2 0 1432 1993  882
[27]  54(B18)  7 32  7  0  -1318.7  4092003.3  0.2  5 0 2269 2457  684
[28]  59(B23)  1  7 13  0  -2769.7  4092007.0  0.3  1 0 2762 3138 1338
[29]  60(B24)  1  7  9  0   2036.0  4091994.5 -0.0  1 0  904 1614 1233
[30]  61(B25)  1  7 13  0   -224.0  4091999.0  0.6  1 0  946 2070 1627
[48]  37(B01)  f 14 36  1   -860.1 20460013.1 -0.2  2 0  412  217  462
[49]  38(B02)  1 14 19  0   -296.5 20460021.1  0.0  1 0  615  912  252
[50]  39(B03)  1 23 18  1   -791.5 20460021.6  0.0  1 0  566  886  908
[51]  40(B04)  1 23 19  0    111.8 20460020.2 -0.0  1 0 1088  895 1008
$GNGGA,080402.331,,,,,0,00,,,M,,,,0000*24
$GNRMC,080402.331,A,,,,,,,120180,,*23
$GPGSA,A,1,,,,,,,,,,,,,,,*1E
$BDGSA,A,1,,,,,,,,,,,,,,,*0F
$GLGSA,A,1,,,,,,,,,,,,,,,*02
$GPGSV,2,1,08,01,00,000,45,07,00,000,43,08,00,000,39,11,00,000,43*77
$GPGSV,2,2,08,18,00,000,42,22,00,000,40,28,00,000,40,30,00,000,45*76
$BDGSV,3,1,09,01,00,000,42,02,00,000,39,03,00,000,45,04,00,000,40*6E
$BDGSV,3,2,09,05,00,000,39,07,00,000,42,11,00,000,44,13,00,000,43*6B
$BDGSV,3,3,09,18,00,000,32*59
$B3CN0,18,0,0,0,0,0,0,0,0,0,0,0,0,0*75
---00000008--- Acq_st=3 0  2019-4-20 8:4:2 
[00]  00(G01)  f 45  7  0  -1056.8  2046001.3  0.1  2 0 3160 5018 2036
[01]  06(G07)  f 45  9  0   1108.8  2045998.5  0.0  2 0 2869 4339 2376
[02]  07(G08)  f 39  7  0   1475.8  2045998.1  0.0  2 0 1386 1730  943
[03]  10(G11)  f 43  7  0    225.6  2045999.6  0.0  2 0 2105 3484 1478
[04]  17(G18)  f 43  7  0    757.7  2045998.9  0.0  2 0 2371 2868 1205
[05]  21(G22)  f 40  7  0  -2829.3  2046003.6  0.1  2 0 1174 2079  807
[06]  27(G28)  f 42  7  0  -2933.2  2046003.8  0.0  2 0 1451 2367 1419
[08]  29(G30)  f 45  7  0  -1082.4  2046001.3 -0.0  2 0 3654 5409 2951
[16]  37(B01) 1f 41 13  0  -1084.4  4092002.8 -0.0  2 0 1764 1494  479
[17]  38(B02) 1f 39 23  0  -1131.8  4092002.8 -0.6  2 0  974 1251  531
[18]  39(B03) 1f 45 31  0  -1103.8  4092002.9  0.0  2 0 1534 2595 1521
[19]  40(B04)  f 40 16  0  -1103.4  4092002.7  0.2  2 0 1651 1451  141
[20]  41(B05)  f 37 23  0  -1139.2  4092002.8  0.3  2 0  425 1438  998
[21]  43(B07)  7 42 12  0  -1239.7  4092003.1  0.0  2 0 1671 2015  420
[22]  44(B08)  1  7  7  0  -2065.2  4092003.3  0.0  1 0  484  426  232
[24]  46(B10)  1 11  9  0  -2040.6  4092004.1  0.9  1 0  718 1778  921
[25]  47(B11)  7 44  7  0    253.5  4091999.2 -0.0  2 0 2419 3239 1642
[26]  49(B13)  7 42  7  0  -2024.8  4092005.2 -0.0  2 0 1181 1867 1101
[27]  54(B18)  7 44  7  0  -1305.8  4092003.3  0.1  2 0 2376 2630  643
[28]  59(B23)  7 40 14  0  -2755.3  4092007.1 -0.0  2 0 2588 3381 1339
[29]  60(B24)  7 33  7  0   2051.7  4091994.6 -0.1  5 0  620 1339  842
[30]  61(B25)  1  7 12  0   -217.3  4091999.2  0.9  1 0  917 2651 1657
[32]  77(N-4)  1 25  7  0  -3598.1  1022002.3  0.3  1 0  1304 2158  929
[33]  78(N-3)  1 23  7  0   2686.5  1021999.3  0.2  1 0   444  306  179
[34]  79(N-2)  1 23  7  0    169.4  1022000.6  0.1  1 0   623 1646  832
[35]  81(N00)  1  8  8  0  -5250.0  1022003.6 -0.0  1 0   177  265  491
[36]  82(N01)  1 19  7  0   2750.0  1021999.8 -0.0  1 0   304  334   39
[37]  83(N02)  1  7  7  0    250.0  1022002.5 -0.0  1 0   422 1883 2382
[48]  37(B01)  f 19 18  1   -971.9 20460014.5  0.0  2 0  390  527  502
[49]  38(B02)  1 10 16  1    329.8 20460027.1 -0.0  1 0  311  332  388
[50]  39(B03)  1 10 10  0   -930.7 20460019.3  0.2  1 0 1012  854  469
[51]  40(B04)  1 17 18  0    122.4 20460018.9 -0.1  1 0  118  561  430
---00000009--- Acq_st=7 0  2019-4-20 8:4:3 
[00]  00(G01)  f 44  7  0  -1057.4  2046001.3  0.0  2 0 3423 5014 2439
[01]  06(G07)  f 45  7  0   1107.3  2045998.5  0.0  2 0 3004 4392 2292
[02]  07(G08)  f 40  7  0   1473.6  2045998.0  0.2  2 0 1257 1632  452
[03]  10(G11)  f 44  7  0    224.8  2045999.6 -0.0  2 0 2701 3434 1374
[04]  17(G18)  f 43  7  0    757.3  2045999.0 -0.1  2 0 2101 2984 1144
[05]  21(G22)  f 40  7  0  -2829.2  2046003.6 -0.1  2 0 1284 1952  420
[06]  27(G28)  f 40  7  0  -2931.4  2046003.7 -0.0  2 0 1997 2732 1470
[08]  29(G30)  f 45  7  0  -1081.6  2046001.3  0.0  2 0 3781 5864 3020
[16]  37(B01) 1f 41 10  0  -1089.3  4092002.8  0.1  2 0 1517 2082  840
[17]  38(B02) 1f 39 22  0  -1134.0  4092002.8 -0.5  2 0 1339 1411  367
[18]  39(B03) 1f 45 30  0  -1104.2  4092002.8 -0.2  2 0 1464 2682 1081
[19]  40(B04) 1f 39 10  0  -1104.7  4092002.8 -0.7  2 0  862 1251  424
[20]  41(B05) 1f 38 21  0  -1134.6  4092002.9 -0.9  2 0 1147 1300  522
[21]  43(B07)  7 42  8  0  -1237.3  4092003.1 -0.0  2 0 2004 2523 1161
[25]  47(B11)  7 44  9  0    255.2  4091999.2  0.0  2 0 2674 3347 1740
[26]  49(B13)  7 42  8  0  -2025.6  4092005.2 -0.0  2 0 1006 1691  713
[27]  54(B18)  7 43  8  0  -1307.9  4092003.3 -0.0  2 0 2638 3206 1245
[28]  59(B23)  7 44 13  0  -2755.1  4092007.1  0.0  2 0 2950 3511 1475
[29]  60(B24)  7 39  7  0   2046.5  4091994.6  0.0  2 0  690 1409  460
[30]  61(B25)  1  7  9  0   -218.3  4091999.2  0.9  1 0 1836 2763 1030
[32]  77(N-4)  1 29  7  0  -3598.1  1022002.3  1.0  1 0  1187 2025 1074
[33]  78(N-3)  1 13 16  0   3252.9  1021998.7  0.0  1 0   119  326  236
[34]  79(N-2)  1 30  7  0    171.0  1021999.6  1.0  1 0  1029 1404  552
[35]  81(N00)  1 26  8  0  -5191.7  1022004.1  0.0  1 0   379  319  124
[36]  82(N01)  1 25 13  0   2728.9  1021998.2  0.4  1 0   474  365  270
[37]  83(N02)  1 31 24  0    345.6  1021999.6  1.0  1 0  2265 2453  887
[38]  86(N05)  1 37  7  0    598.5  1021999.8  0.8  1 0  2737 3331 1213
[48]  37(B01)  f 10 10  1  -1144.9 20460017.3  0.0  2 0  410  487  386
[49]  38(B02)  f 18 10  1    448.4 20459991.4  0.0  2 0  409  519  330
[50]  39(B03)  1 19 24  1   -516.6 20460025.2 -0.1  1 0  568  729  590
[51]  40(B04)  1 22 24  0   -505.4 20460022.0 -0.1  1 0  279  348  475
[52]  41(B05)  1 23 19  1  -1058.3 20460015.3 -0.0  1 0  381  120  457
$GNGGA,080403.331,,,,,0,00,,,M,,,,0000*25
$GNRMC,080403.331,A,,,,,,,120180,,*22
$GPGSA,A,1,,,,,,,,,,,,,,,*1E
$BDGSA,A,1,,,,,,,,,,,,,,,*0F
$GLGSA,A,1,,,,,,,,,,,,,,,*02
$GPGSV,2,1,08,01,00,000,44,07,00,000,45,08,00,000,40,11,00,000,44*79
$GPGSV,2,2,08,18,00,000,43,22,00,000,40,28,00,000,40,30,00,000,45*77
$BDGSV,3,1,11,01,00,000,41,02,00,000,39,03,00,000,45,04,00,000,39*6A
$BDGSV,3,2,11,05,00,000,38,07,00,000,42,11,00,000,44,13,00,000,42*62
$BDGSV,3,3,11,18,00,000,43,23,00,000,44,24,00,000,39*5B
$B3CN0,0,0,0,0,0,0,0,0,0,0,0,0,0,0*4C
---00000010--- Acq_st=7 0  2019-4-20 8:4:4 
[00]  00(G01)  f 45  7  0  -1056.2  2046001.3 -0.0  2 0 2757 4473 1932
[01]  06(G07)  f 44  8  0   1106.2  2045998.5 -0.0  2 0 2464 3691 1774
[02]  07(G08)  f 40  7  0   1475.6  2045998.1  0.0  2 0 1393 1785  706
[03]  10(G11)  f 44  7  0    223.0  2045999.7  0.0  2 0 2549 3270 1094
[04]  17(G18)  f 43  8  0    758.2  2045999.0  0.1  2 0 1875 3068 1908
[05]  21(G22)  f 39  7  0  -2833.6  2046003.6 -0.1  2 0  550 1637  677
[06]  27(G28)  f 42  7  0  -2936.6  2046003.7 -0.0  2 0 1463 2169 1107
[08]  29(G30)  f 45  7  0  -1084.5  2046001.3 -0.0  2 0 4068 5775 2870
[16]  37(B01) 1f 40 10  0  -1088.0  4092002.7 -0.1  2 0 1330 1659 1040
[17]  38(B02) 1f 39 20  0  -1137.5  4092002.9 -0.1  2 0 1448 1480  350
[18]  39(B03) 1f 43 28  0  -1108.6  4092002.8  0.1  2 0 1655 1962  709
[19]  40(B04) 1f 40 22  0  -1110.8  4092002.8  0.7  2 0 1116 1372  493
[20]  41(B05) 1f 38 24  0  -1140.2  4092002.9 -0.4  2 0 1123 1722  984
[21]  43(B07) 1f 42 10  0  -1238.8  4092003.1  0.0  2 0 1464 1888  899
[25]  47(B11) 1f 43 11  0    253.6  4091999.2  0.0  2 0 2532 2686  844
[26]  49(B13) 1f 42  7  0  -2028.3  4092005.2  0.0  2 0 1607 1999  558
[27]  54(B18) 1f 43  7  0  -1306.8  4092003.3 -0.0  2 0 2464 2459 1175
[28]  59(B23) 1f 44 13  0  -2757.4  4092007.1 -0.0  2 0 2221 3088 1329
[29]  60(B24) 1f 40  7  0   2053.9  4091994.5 -0.2  2 0  889 1099  193
[30]  61(B25) 19  7 12  0   -215.5  4091998.9  0.9  1 0 1479 2482 1271
[32]  77(N-4)  7 25  7  0  -3598.5  1022002.3  1.0 10 0  1137 2235 1329
[33]  78(N-3)  1 11 17  0   3162.9  1021998.5  0.1  1 0   374  315   31
[34]  79(N-2)  7 44  7  0    169.1  1021999.8 -0.3  2 0  1017 1471  712
[35]  81(N00)  1 28 12  0  -5180.0  1022003.8  0.1  1 0   184  308   79
[36]  82(N01)  1 27 15  0   2751.9  1021997.9  0.4  1 0   282  508  427
[37]  83(N02)  1 32 24  0    344.1  1021999.5  1.0  1 0  2018 3076 1187
[38]  86(N05)  7 33  7  0    599.6  1021999.5  0.3  5 0  2175 3232 1177
[48]  37(B01)  f 10 17  0  -1553.5 20460024.9  0.1  2 0   78  323  498
[49]  38(B02)  f 10 10  1    233.3 20459996.8 -0.0  2 0  383   92  110
[50]  39(B03)  1 10 23  0    140.6 20460019.5  0.0  1 0  439  658  436
[52]  41(B05)  1 26 19  0  -1036.7 20460016.1  0.1  1 0  903  497  327
$GNGGA,080405.000,2944.9091,N,10633.0898,E,1,09,1.2,325.7,M,,,,0000*15
$GNRMC,080405.000,A,2944.9091,N,10633.0898,E,0.30,0.00,120180,,*19
$GPGSA,A,3,,,,,,,,,,,,,2.2,1.2,1.8*38
$BDGSA,A,3,01,03,04,05,07,11,13,23,24,,,,2.2,1.2,1.8*28
$GLGSA,A,3,,,,,,,,,,,,,2.2,1.2,1.8*24
$GPGSV,2,1,08,01,00,000,45,07,00,000,44,08,00,000,40,11,00,000,44*79
$GPGSV,2,2,08,18,00,000,43,22,00,000,39,28,00,000,42,30,00,000,45*7B
$BDGSV,3,1,11,01,00,000,40,02,00,000,39,03,00,000,43,04,00,000,40*63
$BDGSV,3,2,11,05,00,000,38,07,00,000,42,11,00,000,43,13,00,000,42*65
$BDGSV,3,3,11,18,00,000,43,23,00,000,44,24,00,000,40*55
$B3CN0,0,0,0,0,0,0,0,0,0,0,0,0,0,0*4C
---00000011--- Acq_st=3 0  2000-1-12 8:4:5 
[00]  00(G01)  f 45  9  0  -1056.9  2046001.3  0.0  2 0 3208 4504 2182
[01]  06(G07)  f 45  7  0   1104.1  2045998.5  0.0  2 0 2223 4107 2054
[02]  07(G08)  f 40  7  0   1471.3  2045998.0  0.1  2 0  759 1818 1039
[03]  10(G11)  f 43  7  0    220.7  2045999.7 -0.0  2 0 1469 2763 1658
[04]  17(G18)  f 43  7  0    753.2  2045998.9 -0.0  2 0 1821 2920  955
[05]  21(G22)  f 40  7  0  -2832.3  2046003.6  0.1  2 0  880 1556  836
[06]  27(G28)  f 41  7  0  -2931.3  2046003.7 -0.0  2 0 1234 2507 1523
[08]  29(G30)  f 45  7  0  -1083.1  2046001.4  0.0  2 0 3090 4970 1978
[16]  37(B01) 1f 41 18  0  -1092.0  4092002.8  0.4  2 0 1050 1644  621
[17]  38(B02) 1f 40 24  0  -1129.7  4092002.8  0.8  2 0 1497 1538  603
[18]  39(B03) 1f 43 30  0  -1107.5  4092002.8  0.1  2 0 1468 2148 1184
[19]  40(B04) 1f 41 36  0  -1108.2  4092002.7 -0.7  2 0 1514 1487  680
[20]  41(B05) 1f 39 24  0  -1140.7  4092002.8 -0.8  2 0 1015  910  301
[21]  43(B07) 1f 42 12  0  -1242.0  4092003.1  0.0  2 0 2144 2303  658
[25]  47(B11) 1f 43 12  0    254.5  4091999.2 -0.0  2 0 2186 3211 1253
[26]  49(B13) 1f 42  7  0  -2028.2  4092005.2  0.0  2 0 1739 1792  930
[27]  54(B18) 1f 43  7  0  -1313.1  4092003.3  0.0  2 0 1819 2651 1106
[28]  59(B23) 1f 44 15  0  -2755.0  4092007.1  0.0  2 0 2532 3278 1404
[29]  60(B24) 1f 39  7  0   2044.5  4091994.5  0.0  2 0  574  815  198
[32]  77(N-4)  7 46  7  0  -3599.0  1022002.3  0.2  2 0  1080 2111  780
[33]  78(N-3)  1 17 21  0   3663.1  1021998.8 -0.1  1 0    83  289   76
[34]  79(N-2)  7 44  7  0    170.6  1021999.8  0.0  2 0   870 1930  985
[35]  81(N00)  7 32 13  0  -5183.7  1022003.1  0.1  5 0   312  185  174
[36]  82(N01)  7 34  9  0   2741.7  1021998.3 -0.1  2 0   389  455  182
[37]  83(N02)  1 32 23  0    343.6  1021999.7  1.0  1 0  1332 3079 1790
[38]  86(N05)  7 49  7  0    599.4  1021999.5  0.0  2 0  2190 3498 1643
[49]  38(B02)  f 23 10  1    179.8 20459995.8 -0.2  2 0  276  538  531
[51]  40(B04)  1 26 23  0   -432.7 20460022.3  0.0  1 0  600  423  903
[52]  41(B05)  1 24 25  0  -1187.3 20460019.5  0.2  1 0  895  460  539
[53]  43(B07)  1  7  7  0   -815.4 20460017.1  0.1  1 0  923  654  961
[57]  47(B11)  1  7  7  0    184.9 20459995.6  0.2  1 0  200  621  464
[58]  49(B13)  1 20  7  0  -2027.1 20460031.7  0.2  1 0  561  300  710
[59]  54(B18)  1  7  7  0   -372.0 20460021.3  0.0  1 0  197  313  569
[60]  59(B23)  1  7  7  0  -1992.2 20460043.3  0.0  1 0  451  537  851
[61]  60(B24)  1  9  7  0   1283.0 20459966.5  0.0  1 0  115  196   62
$GNGGA,080406.000,2944.9083,N,10633.0899,E,1,09,1.2,324.1,M,,,,0000*13
$GNRMC,080406.000,A,2944.9083,N,10633.0899,E,0.35,0.00,120180,,*1D
$GPGSA,A,3,,,,,,,,,,,,,2.2,1.2,1.8*38
$BDGSA,A,3,01,03,04,05,07,11,13,23,24,,,,2.2,1.2,1.8*28
$GLGSA,A,3,,,,,,,,,,,,,2.2,1.2,1.8*24
$GPGSV,2,1,08,01,00,000,45,07,00,000,45,08,00,000,40,11,00,000,43*7F
$GPGSV,2,2,08,18,00,000,43,22,00,000,40,28,00,000,41,30,00,000,45*76
$BDGSV,3,1,12,01,40,125,41,02,00,000,40,03,55,171,43,04,23,109,41*62
$BDGSV,3,2,12,05,27,244,39,07,65,089,42,11,62,014,43,13,52,201,42*67
$BDGSV,3,3,12,18,00,000,43,23,54,312,44,24,13,144,39,08,77,165,00*60
$B3CN0,0,23,0,0,0,0,0,0,0,0,0,0,0,0*7D
---00000012--- Acq_st=3 0  2000-1-12 8:4:6 
[00]  00(G01)  f 45  7  0  -1062.5  2046001.3 -0.0  2 0 2522 4172 1962
[01]  06(G07)  f 45  7  0   1101.1  2045998.5 -0.0  2 0 2556 4419 2245
[02]  07(G08)  f 39  7  0   1465.0  2045998.1 -0.1  2 0  653 1780 1079
[03]  10(G11)  f 43  7  0    215.6  2045999.6 -0.1  2 0 2174 3767 1789
[04]  17(G18)  f 44  7  0    749.9  2045999.0 -0.0  2 0 1607 2152 1457
[05]  21(G22)  f 40  7  0  -2838.8  2046003.6 -0.1  2 0 1240 1820  899
[06]  27(G28)  f 41  7  0  -2939.3  2046003.8  0.1  2 0 1718 2297  961
[08]  29(G30)  f 45  7  0  -1090.6  2046001.3 -0.0  2 0 3779 5614 2481
[09]  16(G17)  1 15  7  0  -2892.4  2046004.7  0.0  1 0  401  616 1220
[16]  37(B01) 1f 41 10  0  -1098.3  4092002.8 -0.2  2 0 1148 1518  821
[17]  38(B02) 1f 39 25  0  -1141.6  4092002.8  0.6  2 0 1249 1748  623
[18]  39(B03) 1f 42 29  0  -1114.6  4092002.9  0.3  2 0 1817 2560 1551
[19]  40(B04) 1f 40 20  0  -1110.1  4092002.8 -0.5  2 0  918 1192  394
[20]  41(B05) 1f 38 17  0  -1150.4  4092002.9  0.6  2 0 1215 1332  824
[21]  43(B07) 1f 42 15  0  -1246.1  4092003.2 -0.0  2 0 1915 2084  831
[25]  47(B11) 1f 43 12  0    245.4  4091999.2 -0.0  2 0 2021 2990 1304
[26]  49(B13) 1f 42  9  0  -2034.1  4092005.2 -0.0  2 0 1077 1741 1062
[27]  54(B18) 1f 43  7  0  -1314.3  4092003.3  0.0  2 0 2403 3089 1318
[28]  59(B23) 1f 44 15  0  -2761.2  4092007.1 -0.0  2 0 2217 2757 1276
[29]  60(B24) 1f 39  7  0   2042.6  4091994.6 -0.1  2 0 1055 1371  666
[32]  77(N-4)  7 46 12  0  -3603.2  1022002.2 -0.0  2 0  1049 1690  769
[34]  79(N-2)  f 30  7  0    164.4  1021999.8  0.1  5 0   983 1594  726
[35]  81(N00)  7 32 15  0  -5190.7  1022003.3 -0.1  5 0   250  373  522
[36]  82(N01)  7 35  7  0   2737.6  1021998.1  0.1  2 0   705  839  419
[37]  83(N02)  1 32 27  0    338.8  1021999.7  1.0  1 0  1783 2955 1023
[38]  86(N05)  7 48  7  0    594.3  1021999.6 -0.0  2 0  2562 3878 1584
[48]  37(B01)  1 16 10  0  -1254.9 20460018.3  0.0  1 0  251  186  264
[49]  38(B02)  f 17 10  0    232.0 20459995.6  0.0  2 0  435  477  295
[50]  39(B03)  1 10 16  1   -303.3 20460022.9 -0.0  1 0   65  453  453
[51]  40(B04)  1 24 18  0   -837.4 20460023.0  0.0  1 0  761  517  297
[52]  41(B05)  1 25 27  1  -1196.7 20460023.5 -0.1  1 0  303  448   58
[53]  43(B07)  1 11  7  0   -973.6 20460013.9  0.0  1 0  735  629  758
[57]  47(B11)  7 23  7  0    188.9 20459997.1  0.1 10 0  821 1125 1337
[58]  49(B13)  1  7  7  0  -1364.5 20460030.7 -0.1  1 0  110  459  464
[59]  54(B18)  1  7  7  0   -131.4 20460023.7 -0.1  1 0  325  139  187
[60]  59(B23)  1  7  7  0  -1911.0 20460045.2  0.0  1 0  525  482   89
[61]  60(B24)  1  7  7  0   1326.5 20459968.3 -0.0  1 0  258  475  505
$GNGGA,080407.000,2944.9080,N,10633.0898,E,1,09,1.2,324.8,M,,,,0000*19
$GNRMC,080407.000,A,2944.9080,N,10633.0898,E,0.62,0.00,120180,,*1C
$GPGSA,A,3,,,,,,,,,,,,,2.2,1.2,1.8*38
$BDGSA,A,3,01,03,04,05,07,11,13,23,24,,,,2.2,1.2,1.8*28
$GLGSA,A,3,,,,,,,,,,,,,2.2,1.2,1.8*24
$GPGSV,2,1,08,01,00,000,45,07,00,000,45,08,00,000,39,11,00,000,43*71
$GPGSV,2,2,08,18,00,000,44,22,00,000,40,28,00,000,41,30,00,000,45*71
$BDGSV,3,1,12,01,40,125,41,02,00,000,39,03,55,171,42,04,23,109,40*6C
$BDGSV,3,2,12,05,27,244,38,07,65,089,42,11,62,014,43,13,52,201,42*66
$BDGSV,3,3,12,18,00,000,43,23,54,312,44,24,13,144,39,08,77,165,00*60
$B3CN0,0,16,0,0,0,0,0,0,0,0,23,0,0,0*4A
---00000013--- Acq_st=3 0  2000-1-12 8:4:7 
[00]  00(G01)  f 45  7  0  -1054.0  2046001.3 -0.0  2 0 2243 4140 2063
[01]  06(G07)  f 45  8  0   1107.4  2045998.5 -0.0  2 0 2809 3906 1902
[02]  07(G08)  f 40  7  0   1474.8  2045998.0  0.2  2 0  269  662  399
[03]  10(G11)  f 42  7  0    225.7  2045999.7  0.1  2 0 1952 3666 2137
[04]  17(G18)  f 44  7  0    761.0  2045999.0  0.0  2 0 1741 2934 1491
[05]  21(G22)  f 40  8  0  -2826.5  2046003.6  0.0  2 0 1320 1990  848
[06]  27(G28)  f 41  7  0  -2929.3  2046003.7 -0.1  2 0 1321 2598 1584
[08]  29(G30)  f 46  7  0  -1079.8  2046001.3 -0.0  2 0 3841 5257 1487
[09]  16(G17)  7 23  7  0  -2727.6  2046003.6  0.4 10 0  688 1346  936
[16]  37(B01) 1f 40 17  0  -1087.5  4092002.6 -0.2  2 0 1231 1352  299
[17]  38(B02) 1f 40 24  0  -1130.7  4092002.8  0.7  2 0 1211 1146  339
[18]  39(B03) 1f 45 30  0  -1105.4  4092002.8 -0.5  2 0 1397 2534 1522
[19]  40(B04) 1f 39 20  0  -1107.9  4092002.7  0.5  2 0 1002 1576  820
[20]  41(B05) 1f 37 26  0  -1144.9  4092002.8  0.3  2 0  502  802  389
[21]  43(B07) 1f 42 13  0  -1239.7  4092003.1 -0.0  2 0 1667 2195  972
[22]  44(B08)  1  7  7  0  -1549.9  4092006.7 -0.0  1 0   86 1138 2580
[24]  46(B10)  1  7  7  0  -1500.0  4092006.2 -0.0  1 0  267 1876 2330
[25]  47(B11) 1f 44 12  0    253.9  4091999.2 -0.0  2 0 2819 2924 1699
[26]  49(B13) 1f 42  8  0  -2026.5  4092005.2 -0.1  2 0 1776 2374  795
[27]  54(B18) 1f 43  7  0  -1306.1  4092003.3 -0.0  2 0 2266 2621  880
[28]  59(B23) 1f 44 14  0  -2755.7  4092007.1  0.0  2 0 2510 2929 1122
[29]  60(B24) 1f 39  8  0   2050.7  4091994.5 -0.2  2 0 1088 1136  549
[32]  77(N-4)  7 46  7  0  -3594.4  1022002.2 -0.2  2 0  1110 1652  580
[34]  79(N-2)  f 44  7  0    173.5  1021999.9 -0.3  2 0   738 1044  436
[35]  81(N00)  7 32 15  0  -5181.8  1022003.3  0.0  5 0   194  291  193
[36]  82(N01)  7 35  7  0   2744.6  1021998.2 -0.0  2 0   376  216  313
[38]  86(N05)  7 49  7  0    602.5  1021999.6  0.0  2 0  2015 3532 1694
[48]  37(B01)  1 19 10  1   -727.1 20460024.4  0.0  1 0  415  317  118
[49]  38(B02)  f 10 23  0    306.7 20459995.7  0.3  2 0  334  374  390
[50]  39(B03)  1 36 19  0    -59.0 20460021.1  0.1  1 0  183  293  578
[51]  40(B04)  1 22 20  1   -992.5 20460022.8  0.1  1 0  774  906  358
[53]  43(B07)  1  7  7  0  -1543.7 20460016.3  0.1  1 0  668  460  292
[57]  47(B11)  7 30  7  0    202.0 20459995.8  0.0  5 0  301  626  600
[58]  49(B13)  1  7  7  0  -1250.4 20460032.5  0.2  1 0  555  731  719
[59]  54(B18)  1  7  7  0     96.8 20460021.7  0.0  1 0  739  351  426
[60]  59(B23)  1  7  7  0  -1670.6 20460044.3 -0.0  1 0  288  458  912
[61]  60(B24)  1  7  7  0   1316.6 20459966.2  0.0  1 0  682  270  326
$GNGGA,080408.000,2944.9079,N,10633.0898,E,1,09,1.2,323.8,M,,,,0000*17
$GNRMC,080408.000,A,2944.9079,N,10633.0898,E,0.26,0.00,120180,,*15
$GPGSA,A,3,,,,,,,,,,,,,2.2,1.2,1.8*38
$BDGSA,A,3,01,03,04,05,07,11,13,23,24,,,,2.2,1.2,1.8*28
$GLGSA,A,3,,,,,,,,,,,,,2.2,1.2,1.8*24
$GPGSV,3,1,09,01,00,000,45,07,00,000,45,08,00,000,40,11,00,000,42*7E
$GPGSV,3,2,09,18,00,000,44,22,00,000,40,28,00,000,41,30,00,000,46*72
$GPGSV,3,3,09,17,00,000,23*47
$BDGSV,3,1,12,01,40,125,40,02,00,000,40,03,55,171,45,04,23,109,39*6A
$BDGSV,3,2,12,05,27,244,38,07,65,089,42,11,62,014,44,13,52,201,42*61
$BDGSV,3,3,12,18,00,000,43,23,54,312,44,24,13,144,39,08,77,165,00*60
$B3CN0,0,0,0,0,0,0,0,0,0,0,30,0,0,0*7F
---00000014--- Acq_st=3 0  2000-1-12 8:4:8 
[00]  00(G01)  f 45  7  0  -1063.0  2046001.3  0.0  2 0 3000 4526 2044
[01]  06(G07)  f 45  7  0   1100.5  2045998.5  0.0  2 0 2729 3973 1801
[02]  07(G08)  f 39  7  0   1463.9  2045998.1 -0.0  2 0  844 1969  557
[03]  10(G11)  f 43  7  0    216.4  2045999.7 -0.0  2 0 1970 2764  790
[04]  17(G18)  f 44  7  0    751.3  2045998.9 -0.0  2 0 2194 3283 1367
[05]  21(G22)  f 40  7  0  -2838.5  2046003.6 -0.0  2 0  683 1455  259
[06]  27(G28)  f 41  7  0  -2942.3  2046003.8  0.0  2 0  956 2031  939
[08]  29(G30)  f 46 11  0  -1087.6  2046001.4  0.0  2 0 3253 5667 2618
[09]  16(G17)  7 35  7  0  -2737.8  2046003.6  0.2  2 0  356  700  565
[16]  37(B01) 1f 40 10  0  -1097.2  4092002.7  0.3  2 0 1153 1619  689
[17]  38(B02) 1f 40 24  0  -1137.5  4092003.0 -0.3  2 0 1349 1340  630
[18]  39(B03) 1f 42 30  0  -1118.4  4092002.9  0.3  2 0 1460 2319 1104
[19]  40(B04) 1f 40 10  0  -1121.9  4092002.8  0.5  2 0 1155 1239  564
[20]  41(B05) 1f 38 10  0  -1152.2  4092002.9  0.5  2 0  484  970  582
[21]  43(B07) 1f 42 13  0  -1246.9  4092003.2  0.0  2 0 1776 2751 1322
[22]  44(B08)  7 17  7  0  -1558.8  4092004.0  0.3 10 0 1969 1932  623
[24]  46(B10)  1  7  9  0  -1551.9  4092003.7  0.3  1 0 2046 2598  728
[25]  47(B11) 1f 44 12  0    243.8  4091999.2  0.1  2 0 2158 2654 1062
[26]  49(B13) 1f 42  7  0  -2034.7  4092005.2  0.1  2 0 1410 1949  723
[27]  54(B18) 1f 43  7  0  -1319.4  4092003.3  0.0  2 0 1910 2831 1332
[28]  59(B23) 1f 44 14  0  -2761.8  4092007.1 -0.0  2 0 2704 3480 1199
[29]  60(B24) 1f 39  7  0   2038.0  4091994.5  0.1  2 0  745 1347  605
[32]  77(N-4)  f 30  7  0  -3604.8  1022002.3 -0.0  5 0  1406 2133  994
[34]  79(N-2)  f 43  7  0    164.2  1021999.8  0.1  2 0  1005 1434  562
[35]  81(N00)  f 27  7  0  -5191.7  1022003.3  0.0 10 0    34  387  665
[36]  82(N01)  f 28  7  0   2735.9  1021998.2 -0.2  5 0   537  806  308
[38]  86(N05)  f 30  7  0    592.1  1021999.6 -0.0  5 0  2452 4071 1841
[48]  37(B01)  1 10 18  1   -485.9 20460023.2 -0.1  1 0  701  461  305
[50]  39(B03)  1 18 10  0    122.1 20460017.6  0.2  1 0  662  332  120
[51]  40(B04)  1 21 25  1  -1047.9 20460022.2 -0.0  1 0  229  248  350
[52]  41(B05)  1 23 16  1   -750.2 20460016.9 -0.1  1 0  320   74  316
[53]  43(B07)  1  7  7  0  -1294.6 20460013.7 -0.1  1 0  465  289  328
[57]  47(B11)  7 30  7  0    191.5 20459995.5  0.0  5 0  829 1490  634
[58]  49(B13)  1  7  7  0  -1896.0 20460031.2 -0.2  1 0  366  666  625
[59]  54(B18)  1  7  7  0   -130.9 20460021.0  0.1  1 0  764  593  370
[60]  59(B23)  1  9  7  0  -1195.1 20460044.7  0.0  1 0  263  586  650
[61]  60(B24)  1  7  7  0   1098.7 20459966.2  0.2  1 0  215  148  547
$GNGGA,080409.000,2944.9078,N,10633.0898,E,1,09,1.2,323.6,M,,,,0000*19
$GNRMC,080409.000,A,2944.9078,N,10633.0898,E,0.41,0.00,120180,,*14
$GPGSA,A,3,,,,,,,,,,,,,2.2,1.2,1.8*38
$BDGSA,A,3,01,03,04,05,07,11,13,23,24,,,,2.2,1.2,1.8*28
$GLGSA,A,3,,,,,,,,,,,,,2.2,1.2,1.8*24
$GPGSV,3,1,09,01,00,000,45,07,00,000,45,08,00,000,39,11,00,000,43*71
$GPGSV,3,2,09,18,00,000,44,22,00,000,40,28,00,000,41,30,00,000,46*72
$GPGSV,3,3,09,17,00,000,35*40
$BDGSV,3,1,12,01,40,125,40,02,00,000,40,03,55,171,42,04,23,109,40*63
$BDGSV,3,2,12,05,27,244,38,07,65,089,42,08,77,165,17,11,62,014,44*6D
$BDGSV,3,3,12,13,52,201,42,18,00,000,43,23,54,312,44,24,13,144,39*6A
$B3CN0,0,0,0,0,0,0,0,0,0,0,30,0,0,0*7F
---00000015--- Acq_st=3 0  2000-1-12 8:4:9 
[00]  00(G01)  f 45  7  0  -1055.0  2046001.3 -0.0  2 0 3261 4755 2290
[01]  06(G07)  f 45  7  0   1108.8  2045998.5  0.0  2 0 2826 4433 1997
[02]  07(G08)  f 39  7  0   1472.0  2045998.0  0.0  2 0 1133 1762  879
[03]  10(G11)  f 44  7  0    223.1  2045999.6  0.0  2 0 2360 3252 1784
[04]  17(G18)  f 44  7  0    755.1  2045999.0 -0.0  2 0 1769 2704 1386
[05]  21(G22)  f 40  7  0  -2829.2  2046003.6 -0.0  2 0  999 1687  620
[06]  27(G28)  f 42  7  0  -2935.6  2046003.7  0.0  2 0 1041 2362 1130
[08]  29(G30)  f 46  7  0  -1078.9  2046001.3 -0.0  2 0 3470 5899 2759
[09]  16(G17)  7 36  7  0  -2727.7  2046003.5  0.1  2 0  828 1040  895
[16]  37(B01) 1f 41 19  0  -1094.3  4092002.8  0.1  2 0 1486 1710  568
[17]  38(B02) 1f 40 23  0  -1134.1  4092002.9  0.2  2 0  829 1161  414
[18]  39(B03) 1f 43 29  0  -1106.8  4092002.8 -0.5  2 0 1807 2124 1001
[19]  40(B04) 1f 40 26  0  -1110.7  4092002.9 -0.6  2 0  971 1413  655
[20]  41(B05) 1f 37 26  0  -1139.0  4092002.8  0.8  2 0  838  892  328
[21]  43(B07) 1f 43 10  0  -1240.8  4092003.1  0.0  2 0 1807 2527 1241
[22]  44(B08)  7 43  7  0  -1550.6  4092004.0 -0.1  2 0 1357 2504 1541
[24]  46(B10)  7 36  7  0  -1537.3  4092003.9  0.1  2 0 1665 2919 1118
[25]  47(B11) 1f 44 12  0    253.8  4091999.2  0.0  2 0 2427 2772 1211
[26]  49(B13) 1f 42  7  0  -2030.0  4092005.2 -0.1  2 0 1780 2730 1055
[27]  54(B18) 1f 44 10  0  -1308.8  4092003.3 -0.0  2 0 2300 2499  838
[28]  59(B23) 1f 45 15  0  -2756.2  4092007.1 -0.0  2 0 2845 3493 1645
[29]  60(B24) 1f 39 12  0   2050.2  4091994.5 -0.1  2 0  913 1227  718
[30]  64(B28)  1  7  7  0  -3286.7  4092011.2  0.1  1 0 1266 2572 2594
[32]  77(N-4)  f 46  7  0  -3597.1  1022002.3  0.0  2 0  1503 2487  950
[34]  79(N-2)  f 44  7  0    173.3  1021999.9  0.2  2 0   756 1379  589
[35]  81(N00)  f 32  7  0  -5181.9  1022003.3  0.0  5 0   527  421  184
[36]  82(N01)  f 35  7  0   2745.8  1021998.2  0.0  2 0   427  360  165
[38]  86(N05)  f 48  7  0    601.5  1021999.6  0.0  2 0  2173 3845 1977
[48]  37(B01)  1 23 10  0   -545.7 20460022.2  0.1  1 0  442  583  628
[49]  38(B02)  1 10 21  0  -1138.5 20460018.8  0.1  1 0  231  370  311
[50]  39(B03)  1 10 19  0   -294.1 20460021.5 -0.1  1 0  268   84  118
[52]  41(B05)  1 10 23  0   -731.6 20460019.2 -0.1  1 0  629  381  372
[57]  47(B11)  7 30 10  0    209.2 20459996.1 -0.0  5 0  449  501  444
$GNGGA,080410.000,2944.9076,N,10633.0896,E,1,10,1.2,323.5,M,,,,0000*1A
$GNRMC,080410.000,A,2944.9076,N,10633.0896,E,0.28,0.00,120180,,*13
$GPGSA,A,3,,,,,,,,,,,,,2.0,1.2,1.6*34
$BDGSA,A,3,01,03,04,05,07,08,11,13,23,24,,,2.0,1.2,1.6*2C
$GLGSA,A,3,,,,,,,,,,,,,2.0,1.2,1.6*28
$GPGSV,3,1,09,01,00,000,45,07,00,000,45,08,00,000,39,11,00,000,44*76
$GPGSV,3,2,09,18,00,000,44,22,00,000,40,28,00,000,42,30,00,000,46*71
$GPGSV,3,3,09,17,00,000,36*43
$BDGSV,3,1,12,01,40,125,41,02,00,000,40,03,55,171,43,04,23,109,40*63
$BDGSV,3,2,12,05,27,244,37,07,65,089,43,08,77,165,43,10,74,005,36*61
$BDGSV,3,3,12,11,62,014,44,13,52,201,42,18,00,000,44,23,54,312,45*62
$B3CN0,0,0,0,0,0,0,0,0,0,0,30,0,0,0*7F
---00000016--- Acq_st=7 0  2000-1-12 8:4:10 
[00]  00(G01)  f 45  7  0  -1061.3  2046001.3  0.0  2 0 2567 4727 2348
[01]  06(G07)  f 44  7  0   1099.0  2045998.5 -0.0  2 0 2779 4265 1975
[02]  07(G08)  f 39  7  0   1461.7  2045998.1  0.1  2 0  701 2090 1383
[03]  10(G11)  f 44  7  0    218.1  2045999.7  0.0  2 0 1963 3367 1489
[04]  17(G18)  f 43  7  0    749.2  2045998.9  0.0  2 0 1684 3125 1644
[05]  21(G22)  f 39  7  0  -2843.8  2046003.7 -0.1  2 0  995 1685  301
[06]  27(G28)  f 42  7  0  -2941.2  2046003.8 -0.1  2 0 2077 2913 1406
[08]  29(G30)  f 46  8  0  -1088.2  2046001.4  0.0  2 0 3129 5593 2499
[09]  16(G17)  7 36  7  0  -2732.8  2046003.6  0.0  2 0  700 1033  178
[16]  37(B01) 1f 41 36  0  -1098.1  4092002.8  0.1  2 0 1763 1793  535
[17]  38(B02) 1f 40 25  0  -1141.9  4092002.9 -0.3  2 0  885 1553  862
[18]  39(B03) 1f 43 31  0  -1118.2  4092002.8 -0.2  2 0 1594 1705  867
[19]  40(B04) 1f 40 10  0  -1114.6  4092002.7  0.2  2 0  926 1127  478
[20]  41(B05) 1f 39 19  0  -1150.2  4092002.9  0.2  2 0 1235 1391  740
[21]  43(B07) 1f 43 12  0  -1250.2  4092003.2 -0.0  2 0 2050 2527 1409
[22]  44(B08) 1f 42  7  0  -1557.2  4092004.0 -0.0  2 0 1707 1790  842
[24]  46(B10)  7 43 11  0  -1550.9  4092003.9 -0.0  2 0 1643 2830 1380
[25]  47(B11) 1f 44  7  0    245.2  4091999.2 -0.0  2 0 2450 3021 1230
[26]  49(B13) 1f 42  9  0  -2034.6  4092005.2  0.1  2 0 1294 2238  921
[27]  54(B18) 1f 43  7  0  -1317.2  4092003.3  0.0  2 0 2168 2780 1311
[28]  59(B23) 1f 44 14  0  -2762.4  4092007.1  0.0  2 0 2466 3077 1509
[29]  60(B24) 1f 39  7  0   2040.9  4091994.5 -0.1  2 0  965 1282  891
[30]  64(B28)  7  7  7  0  -3292.7  4092008.4  0.4  2 0 2478 3046 1666
[32]  77(N-4)  f 45  7  0  -3603.5  1022002.3 -0.0  2 0  1532 2412 1157
[34]  79(N-2)  f 44  7  0    166.3  1021999.9  0.1  2 0   998 1569  812
[35]  81(N00)  f 31  7  0  -5189.2  1022003.2 -0.0  5 0    49  194   43
[36]  82(N01)  f 34  7  0   2739.2  1021998.1  0.1  2 0   451  353  542
[38]  86(N05)  f 46  7  0    594.0  1021999.6 -0.0  2 0  2623 4164 1980
[48]  37(B01)  f 36 10  0   -525.8 20460008.4 -0.0  2 0  232  223  355
[49]  38(B02)  f 20 13  0   -984.1 20460014.2  0.1  2 0  297  132  674
[51]  40(B04)  1 22 21  0   -710.7 20460012.3 -0.2  1 0  348  279  324
[52]  41(B05)  1 23 22  1   -437.7 20460021.3  0.0  1 0 1143  592  210
[53]  43(B07)  1  7  7  0   -802.1 20460017.9  0.1  1 0   21  325  355
[57]  47(B11) 1f 31 10  0    189.0 20459995.6  0.1  5 0  598  463  502
[58]  49(B13)  1  7  7  0  -2016.3 20460031.8  0.1  1 0  798  433  167
[59]  54(B18)  1  9  7  0  -1247.7 20460021.0  0.0  1 0  797  744  484
[60]  59(B23)  1  7  7  0  -1919.4 20460043.9 -0.0  1 0  164  417  488
[61]  60(B24)  1  7  7  0   1582.4 20459966.9  0.0  1 0  208  278  525
$GNGGA,080411.000,2944.9074,N,10633.0896,E,1,10,1.2,324.2,M,,,,0000*19
$GNRMC,080411.000,A,2944.9074,N,10633.0896,E,0.25,0.00,120180,,*1D
$GPGSA,A,3,,,,,,,,,,,,,2.0,1.2,1.6*34
$BDGSA,A,3,01,03,04,05,07,08,11,13,23,24,,,2.0,1.2,1.6*2C
$GLGSA,A,3,,,,,,,,,,,,,2.0,1.2,1.6*28
$GPGSV,3,1,09,01,00,000,45,07,00,000,44,08,00,000,39,11,00,000,44*77
$GPGSV,3,2,09,18,00,000,43,22,00,000,39,28,00,000,42,30,00,000,46*78
$GPGSV,3,3,09,17,00,000,36*43
$BDGSV,3,1,12,01,40,125,41,02,00,000,40,03,55,171,43,04,23,109,40*63
$BDGSV,3,2,12,05,27,244,39,07,65,089,43,08,77,165,42,10,74,005,43*6C
$BDGSV,3,3,12,11,62,014,44,13,52,201,42,18,00,000,43,23,54,312,44*64
$B3CN0,0,19,0,0,0,0,0,0,0,0,31,0,0,0*46
---00000017--- Acq_st=3 0  2000-1-12 8:4:11 
[00]  00(G01)  f 45  7  0  -1051.5  2046001.3  0.0  2 0 2759 4572 2112
[01]  06(G07)  f 45  7  0   1110.0  2045998.5  0.0  2 0 3135 3960 1764
[02]  07(G08)  f 39  7  0   1475.7  2045998.0 -0.1  2 0  879 1871  949
[03]  10(G11)  f 44  7  0    227.5  2045999.6 -0.0  2 0 1891 3461 1895
[04]  17(G18)  f 44  7  0    761.8  2045998.9 -0.1  2 0 1468 2728 1635
[05]  21(G22)  f 40  7  0  -2829.7  2046003.6  0.0  2 0 1031 1505  685
[06]  27(G28)  f 41  7  0  -2933.5  2046003.7  0.1  2 0 1925 2535 1006
[08]  29(G30)  f 45  7  0  -1077.7  2046001.3 -0.1  2 0 3166 5292 2394
[09]  16(G17)  7 36  7  0  -2720.2  2046003.5 -0.6  2 0  790 1456 1259
[10]  12(G13)  1  7  7  0  -1000.0  2046001.8 -0.0  1 0  163  332  354
[16]  37(B01) 1f 41 18  0  -1090.7  4092002.7  0.3  2 0  859 1453  381
[17]  38(B02) 1f 40 19  0  -1127.2  4092002.9 -0.6  2 0 1035 1476  777
[18]  39(B03) 1f 42 29  0  -1105.5  4092002.8 -0.2  2 0 2285 2459  964
[19]  40(B04) 1f 38 24  0  -1102.3  4092002.7  0.6  2 0 1580 1460  699
[20]  41(B05) 1f 38 26  0  -1142.9  4092002.9  0.3  2 0 1092 1033  414
[21]  43(B07) 1f 43 11  0  -1238.3  4092003.1  0.1  2 0 1975 2567 1373
[22]  44(B08) 1f 42  7  0  -1549.1  4092003.9 -0.0  2 0 1354 1788 1029
[24]  46(B10)  7 43  7  0  -1540.0  4092003.9  0.0  2 0 1868 2153 1221
[25]  47(B11) 1f 44  7  0    254.8  4091999.2 -0.0  2 0 2404 3383 1596
[26]  49(B13) 1f 42 10  0  -2026.1  4092005.2 -0.1  2 0 2224 2662 1321
[27]  54(B18) 1f 44  7  0  -1306.7  4092003.3  0.0  2 0 1981 3184 1777
[28]  59(B23) 1f 45 16  0  -2754.4  4092007.1 -0.0  2 0 2688 3181 1070
[29]  60(B24) 1f 39  9  0   2054.8  4091994.5  0.1  2 0 1314 1141  437
[30]  64(B28)  7 42  7  0  -3283.8  4092008.5  0.0  2 0 1745 2576 1549
[32]  77(N-4)  f 45  7  0  -3592.6  1022002.2 -0.2  2 0  1047 1797  940
[34]  79(N-2)  f 43  7  0    177.0  1021999.9  0.1  2 0   620 1202  640
[35]  81(N00)  f 31  7  0  -5179.5  1022003.4 -0.1  5 0   289  500  584
[36]  82(N01)  f 34  7  0   2745.2  1021998.2  0.1  2 0   331  709  512
[38]  86(N05)  f 47  7  0    603.9  1021999.6  0.0  2 0  2138 3632 1739
[48]  37(B01)  f 10 10  0   -634.1 20460010.8 -0.1  2 0  319  664  621
[49]  38(B02)  f 10 16  0  -1327.9 20460019.2  0.0  2 0  559  832  262
[50]  39(B03)  1 24 21  0   -761.8 20460022.7 -0.1  1 0  705  525  599
[51]  40(B04)  1 10 24  1     28.6 20460014.8  0.1  1 0  340  201  284
[52]  41(B05)  1 23 22  0     62.4 20460025.2 -0.0  1 0  502  510  610
[53]  43(B07)  1  7  7  0  -1240.4 20460020.3 -0.1  1 0  255  456  247
[54]  44(B08)  1  7  7  0  -1303.5 20460024.8 -0.0  1 0  337  353  334
[57]  47(B11) 1f 30 10  0    203.8 20459995.8  0.1  5 0  167  692  466
[58]  49(B13)  1  7  7  0  -2353.3 20460033.2 -0.0  1 0  575    6  294
[59]  54(B18)  1  7  7  0   -995.0 20460020.8  0.0  1 0  555   81  317
[60]  59(B23)  1  7  7  0  -1381.1 20460043.4  0.1  1 0  538  727  924
[61]  60(B24)  1  7  7  0   1978.2 20459966.9  0.1  1 0  701  719  608
$GNGGA,080412.000,2944.9073,N,10633.0896,E,1,10,1.2,324.0,M,,,,0000*1F
$GNRMC,080412.000,A,2944.9073,N,10633.0896,E,0.06,0.00,120180,,*18
$GPGSA,A,3,,,,,,,,,,,,,2.0,1.2,1.6*34
$BDGSA,A,3,01,03,04,05,07,08,11,13,23,24,,,2.0,1.2,1.6*2C
$GLGSA,A,3,,,,,,,,,,,,,2.0,1.2,1.6*28
$GPGSV,3,1,09,01,00,000,45,07,00,000,45,08,00,000,39,11,00,000,44*76
$GPGSV,3,2,09,18,00,000,44,22,00,000,40,28,00,000,41,30,00,000,45*71
$GPGSV,3,3,09,17,00,000,36*43
$BDGSV,3,1,12,01,40,125,41,02,00,000,40,03,55,171,42,04,23,109,38*6D
$BDGSV,3,2,12,05,27,244,38,07,65,089,43,08,77,165,42,10,74,005,43*6D
$BDGSV,3,3,12,11,62,014,44,13,52,201,42,18,00,000,44,23,54,312,45*62
$B3CN0,0,0,0,0,0,0,0,0,0,0,30,0,0,0*7F
---00000018--- Acq_st=3 0  2000-1-12 8:4:12 
[00]  00(G01)  f 45  7  0  -1056.7  2046001.3 -0.0  2 0 3734 5314 2184
[01]  06(G07)  f 45  7  0   1107.3  2045998.5 -0.0  2 0 2818 3993 1968
[02]  07(G08)  f 40  7  0   1466.8  2045998.0 -0.0  2 0  297  953  492
[03]  10(G11)  f 44  7  0    222.2  2045999.7 -0.0  2 0 2486 3433 1647
[04]  17(G18)  f 43  7  0    756.7  2045999.0  0.0  2 0 2137 2774 1090
[05]  21(G22)  f 40  7  0  -2840.0  2046003.6  0.0  2 0 1144 1240  449
[06]  27(G28)  f 42  7  0  -2939.7  2046003.8  0.1  2 0 1547 2262 1039
[08]  29(G30)  f 45  7  0  -1082.0  2046001.3  0.0  2 0 3847 6173 3031
[09]  16(G17)  7 35  7  0  -2729.9  2046003.5  0.2  2 0  522  745  506
[10]  12(G13)  1  7 12  0  -1504.9  2046002.7 -0.3  1 0  752  117  648
[16]  37(B01) 1f 41 17  0  -1098.5  4092002.7  0.1  2 0 1289 1917  723
[17]  38(B02) 1f 40 27  0  -1139.5  4092002.8  0.3  2 0 1017 1599  751
[18]  39(B03) 1f 43 30  0  -1112.1  4092002.8  0.3  2 0 1372 1809  919
[19]  40(B04) 1f 39 20  0  -1106.8  4092002.7 -0.3  2 0 1121 1313  395
[20]  41(B05) 1f 39 10  0  -1149.9  4092002.9  0.9  2 0  933  944  357
[21]  43(B07) 1f 42 13  0  -1242.2  4092003.1 -0.0  2 0 1833 2732 1634
[22]  44(B08) 1f 42  7  0  -1550.6  4092003.9  0.0  2 0 1327 1940  990
[24]  46(B10)  7 43 12  0  -1543.7  4092003.9  0.0  2 0 1593 2593 1060
[25]  47(B11) 1f 44 13  0    249.7  4091999.2  0.0  2 0 2138 2876 1551
[26]  49(B13) 1f 42  7  0  -2029.7  4092005.2 -0.0  2 0 1982 2621 1098
[27]  54(B18) 1f 43  7  0  -1311.8  4092003.3  0.0  2 0 2252 3111 1474
[28]  59(B23) 1f 44 14  0  -2757.7  4092007.1  0.0  2 0 2631 3355 1708
[29]  60(B24) 1f 38  7  0   2044.5  4091994.5  0.0  2 0  972  972  101
[30]  64(B28)  7 43  7  0  -3289.7  4092008.5 -0.0  2 0 2419 3191 1436
[32]  77(N-4)  f 45  7  0  -3597.1  1022002.3  0.2  2 0  1087 2085  954
[34]  79(N-2)  f 44  7  0    173.1  1021999.8 -0.1  2 0   871 1326  553
[35]  81(N00)  f 17 17  0  -5318.2  1022003.1  0.1 10 0   285  433  260
[36]  82(N01)  f 35  7  0   2741.8  1021998.1 -0.0  2 0   389  150   81
[38]  86(N05)  f 46  7  0    599.7  1021999.6 -0.0  2 0  2028 3597 1487
[48]  37(B01)  f 10 14  0  -1183.0 20460018.7 -0.1  2 0  231   72  362
[49]  38(B02)  f 10 36  1  -1903.8 20460032.8 -0.0  2 0   83  490  714
[50]  39(B03)  1 18 13  1  -1047.9 20460020.3 -0.1  1 0  883  279  216
[51]  40(B04)  1 24 22  0   -111.1 20460027.4  0.1  1 0   61  115  315
[53]  43(B07)  1  7  7  0  -1636.5 20460019.5  0.0  1 0  313  400  232
[54]  44(B08)  1  7  7  0  -1835.6 20460024.5 -0.2  1 0  273  446  281
[57]  47(B11) 1f 31  7  0    197.8 20459996.3 -0.1  5 0  483  628  604
[58]  49(B13)  1  7  7  0  -2046.7 20460031.0  0.1  1 0  386  346  964
[59]  54(B18)  1  7  7  0   -771.9 20460021.3  0.1  1 0  396  577  270
[60]  59(B23)  1  7  7  0  -1201.0 20460043.3  0.1  1 0  890  713  563
[61]  60(B24)  1  7  7  0   2644.8 20459967.7 -0.1  1 0  492  202   29
$GNGGA,080413.000,2944.9072,N,10633.0896,E,1,10,1.2,324.1,M,,,,0000*1E
$GNRMC,080413.000,A,2944.9072,N,10633.0896,E,0.17,0.00,120180,,*18
$GPGSA,A,3,,,,,,,,,,,,,2.0,1.2,1.6*34
$BDGSA,A,3,01,03,04,05,07,08,11,13,23,24,,,2.0,1.2,1.6*2C
$GLGSA,A,3,,,,,,,,,,,,,2.0,1.2,1.6*28
$GPGSV,3,1,09,01,00,000,45,07,00,000,45,08,00,000,40,11,00,000,44*78
$GPGSV,3,2,09,18,00,000,43,22,00,000,40,28,00,000,42,30,00,000,45*75
$GPGSV,3,3,09,17,00,000,35*40
$BDGSV,3,1,12,01,40,125,41,02,00,000,40,03,55,171,43,04,23,109,38*6C
$BDGSV,3,2,12,05,27,244,39,07,65,089,42,08,77,165,42,10,74,005,43*6D
$BDGSV,3,3,12,11,62,014,44,13,52,201,42,18,00,000,43,23,54,312,44*64
$B3CN0,0,0,0,0,0,0,0,0,0,0,31,0,0,0*7E
---00000019--- Acq_st=3 0  2000-1-12 8:4:13 
[00]  00(G01)  f 45  7  0  -1054.5  2046001.3  0.0  2 0 2962 4491 1422
[01]  06(G07)  f 45  8  0   1106.3  2045998.5 -0.0  2 0 2826 3911 1662
[02]  07(G08)  f 39  7  0   1467.7  2045998.0  0.1  2 0 1124 1655  836
[03]  10(G11)  f 44  7  0    222.8  2045999.6  0.0  2 0 1886 3091 1390
[04]  17(G18)  f 43  7  0    755.8  2045999.0  0.0  2 0 2233 2908 1318
[05]  21(G22)  f 39  7  0  -2831.3  2046003.6 -0.0  2 0 1093 1726  653
[06]  27(G28)  f 42  7  0  -2939.3  2046003.8  0.0  2 0 1513 2375  771
[08]  29(G30)  f 45  7  0  -1081.1  2046001.4 -0.0  2 0 3275 5293 2675
[09]  16(G17)  7 35  7  0  -2733.8  2046003.5  0.1  2 0  498 1154  804
[10]  12(G13)  1  7  7  0  -1594.2  2046002.4 -0.1  1 0  643  679  571
[16]  37(B01) 1f 42 18  0  -1097.1  4092002.7 -0.6  2 0 1471 1923  895
[17]  38(B02) 1f 41 24  0  -1138.3  4092002.9  0.1  2 0 1356 1350  624
[18]  39(B03) 1f 43 29  0  -1111.8  4092002.8  0.2  2 0 1466 2058  893
[19]  40(B04) 1f 40 19  0  -1111.4  4092002.9 -0.5  2 0  937 1542 1163
[20]  41(B05) 1f 37 23  0  -1144.6  4092002.9 -0.4  2 0  869 1074  297
[21]  43(B07) 1f 42 11  0  -1244.4  4092003.1 -0.0  2 0 2378 2590 1068
[22]  44(B08) 1f 43  7  0  -1551.1  4092003.9  0.0  2 0 1558 1810  762
[24]  46(B10)  7 43  7  0  -1544.9  4092003.9 -0.0  2 0 1747 2397  690
[25]  47(B11) 1f 44 12  0    250.4  4091999.2 -0.0  2 0 2551 3022 1387
[26]  49(B13) 1f 42  7  0  -2027.3  4092005.2  0.0  2 0 1635 2148 1075
[27]  54(B18) 1f 44  7  0  -1311.2  4092003.3 -0.0  2 0 2232 2303  519
[28]  59(B23) 1f 44 13  0  -2755.9  4092007.1  0.0  2 0 3103 3262 1013
[29]  60(B24) 1f 39  7  0   2044.6  4091994.5  0.1  2 0  663 1088  704
[30]  64(B28)  7 43  7  0  -3287.3  4092008.5 -0.0  2 0 1931 2348  983
[32]  77(N-4)  f 46  7  0  -3596.1  1022002.3  0.1  2 0  1341 1757  768
[34]  79(N-2)  f 43  7  0    172.9  1021999.9  0.0  2 0   874 1550 1176
[35]  81(N00)  f  7  9  0  -5436.4  1022003.7  0.1 10 0   191  543  422
[36]  82(N01)  f 34  7  0   2740.7  1021998.2  0.0  2 0   451  484  279
[38]  86(N05)  f 46  7  0    599.4  1021999.6  0.0  2 0  2504 3726 1641
[48]  37(B01)  f 22 14  1   -906.5 20460014.9  0.1  2 0  242  463  473
[49]  38(B02)  f 10 14  0  -1986.1 20460033.7 -0.1  2 0  356  253  804
[50]  39(B03)  1 19 18  0  -1002.9 20460022.3 -0.0  1 0  247  389  289
[51]  40(B04)  1 19 25  1    -53.3 20460024.1  0.1  1 0  410  361  291
[52]  41(B05)  1 26 20  1   -794.6 20460022.9  0.1  1 0  193  386  330
[53]  43(B07)  1  7  7  0  -1137.1 20460020.1  0.2  1 0  372  632  124
[54]  44(B08)  1  7  7  0  -1840.0 20460023.6 -0.0  1 0  288  281  555
[57]  47(B11) 1f 30 13  0    192.1 20459996.6 -0.0  5 0  387 1010  671
[58]  49(B13)  1  7  7  0  -2097.7 20460030.8  0.0  1 0  145  328  240
[59]  54(B18)  1  7 10  0   -806.2 20460021.6 -0.0  1 0  786  342  214
[60]  59(B23)  1  7  7  0  -1387.7 20460044.5  0.0  1 0  816  749  108
[61]  60(B24)  1  7  7  0   1571.9 20459966.7  0.1  1 0  576  413  491
$GNGGA,080414.000,2944.9071,N,10633.0896,E,1,10,1.2,323.9,M,,,,0000*15
$GNRMC,080414.000,A,2944.9071,N,10633.0896,E,0.39,0.00,120180,,*10
$GPGSA,A,3,,,,,,,,,,,,,2.0,1.2,1.6*34
$BDGSA,A,3,01,03,04,05,07,08,11,13,23,24,,,2.0,1.2,1.6*2C
$GLGSA,A,3,,,,,,,,,,,,,2.0,1.2,1.6*28
$GPGSV,3,1,09,01,00,000,45,07,00,000,45,08,00,000,39,11,00,000,44*76
$GPGSV,3,2,09,18,00,000,43,22,00,000,39,28,00,000,42,30,00,000,45*7B
$GPGSV,3,3,09,17,00,000,35*40
$BDGSV,3,1,12,01,40,125,42,02,00,000,41,03,55,171,43,04,23,109,40*61
$BDGSV,3,2,12,05,27,244,37,07,65,089,42,08,77,165,43,10,74,005,43*62
$BDGSV,3,3,12,11,62,014,44,13,52,201,42,18,00,000,44,23,54,312,44*63
$B3CN0,21,0,0,0,0,0,0,0,0,0,30,0,0,0*4C
---00000020--- Acq_st=3 0  2000-1-12 8:4:14 
[00]  00(G01)  f 45  7  0  -1050.0  2046001.3 -0.0  2 0 2543 4230 2119
[01]  06(G07)  f 45  7  0   1109.4  2045998.5  0.0  2 0 3076 4349 2358
[02]  07(G08)  f 40  7  0   1473.4  2045998.0 -0.1  2 0 1066 1874  677
[03]  10(G11)  f 43  7  0    229.6  2045999.6  0.1  2 0 2483 3127 1838
[04]  17(G18)  f 43  7  0    761.1  2045999.0 -0.0  2 0 1875 3237 1451
[05]  21(G22)  f 40  7  0  -2825.6  2046003.6 -0.1  2 0 1067 2058 1607
[06]  27(G28)  f 42  7  0  -2936.8  2046003.8  0.0  2 0 1316 2156  719
[08]  29(G30)  f 45 11  0  -1075.8  2046001.4  0.0  2 0 3760 5618 2187
[09]  16(G17)  f 35  7  0  -2729.1  2046003.5  0.1  2 0  890 1219  279
[10]  12(G13)  1  7  7  0  -1466.9  2046001.8 -0.1  1 0  154  951  932
[16]  37(B01) 1f 41 21  0  -1092.4  4092002.8 -0.5  2 0 1596 1617  777
[17]  38(B02) 1f 41 21  0  -1129.0  4092002.9  0.6  2 0  906 1202  661
[18]  39(B03) 1f 43 31  0  -1106.2  4092002.7 -0.3  2 0 1372 1545  267
[19]  40(B04) 1f 40 25  0  -1104.7  4092002.8  0.5  2 0  813 1262  519
[20]  41(B05) 1f 37 16  0  -1145.3  4092002.7 -0.5  2 0 1108 1233  495
[21]  43(B07) 1f 43 13  0  -1237.9  4092003.1 -0.0  2 0 1788 2241  807
[22]  44(B08) 1f 42  7  0  -1546.8  4092003.9  0.0  2 0 1625 2233  961
[24]  46(B10)  7 43 10  0  -1540.9  4092003.9  0.0  2 0 1834 2253  542
[25]  47(B11) 1f 44 12  0    255.4  4091999.2  0.0  2 0 2161 2655 1415
[26]  49(B13) 1f 42  7  0  -2025.0  4092005.2  0.0  2 0 1556 2057  684
[27]  54(B18) 1f 44  7  0  -1310.6  4092003.3  0.0  2 0 2422 3386 1294
[28]  59(B23) 1f 45 14  0  -2752.5  4092007.1  0.0  2 0 3217 3620 1552
[29]  60(B24) 1f 38  7  0   2053.4  4091994.5  0.1  2 0  855 1375 1062
[30]  64(B28)  7 43  7  0  -3281.9  4092008.5  0.0  2 0 2590 3124 1403
[32]  77(N-4)  f 45  7  0  -3592.5  1022002.2  0.0  2 0  1193 1874  804
[34]  79(N-2)  f 44  7  0    176.8  1021999.8  0.1  2 0   899 1553  572
[35]  81(N00)  f  7  7  0  -5567.2  1022003.7 -0.1 10 0   440  216  290
[36]  82(N01)  f 35  7  0   2748.1  1021998.2 -0.1  2 0   544  474   63
[38]  86(N05)  f 47  7  0    604.4  1021999.6 -0.0  2 0  2354 4070 1963
[48]  37(B01)  f 10 18  0   -986.6 20460015.4  0.1  2 0  121  192  398
[50]  39(B03)  1 20 19  1   -964.4 20460020.5 -0.1  1 0  523  449  590
[52]  41(B05)  1 18 23  1   -317.1 20460022.6  0.0  1 0  597  388  868
[54]  44(B08)  1  7  7  0  -2159.5 20460025.1  0.1  1 0  172  345  128
[57]  47(B11) 1f 30  9  0    205.8 20459995.6  0.1  5 0  612  735  485
$GNGGA,080415.000,2944.9071,N,10633.0895,E,1,10,1.2,323.2,M,,,,0000*1C
$GNRMC,080415.000,A,2944.9071,N,10633.0895,E,0.31,0.00,120180,,*1A
$GPGSA,A,3,,,,,,,,,,,,,2.0,1.2,1.6*34
$BDGSA,A,3,01,03,04,05,07,08,11,13,23,24,,,2.0,1.2,1.6*2C
$GLGSA,A,3,,,,,,,,,,,,,2.0,1.2,1.6*28
$GPGSV,3,1,09,01,00,000,45,07,00,000,45,08,00,000,40,11,00,000,43*7F
$GPGSV,3,2,09,18,00,000,43,22,00,000,40,28,00,000,42,30,00,000,45*75
$GPGSV,3,3,09,17,00,000,35*40
$BDGSV,3,1,12,01,40,125,41,02,00,000,41,03,55,171,43,04,23,109,40*62
$BDGSV,3,2,12,05,27,244,37,07,65,089,43,08,77,165,42,10,74,005,43*62
$BDGSV,3,3,12,11,62,014,44,13,52,201,42,18,00,000,44,23,54,312,45*62
$B3CN0,0,0,0,0,0,0,0,0,0,0,30,0,0,0*7F
---00000021--- Acq_st=3 0  2000-1-12 8:4:15 
[00]  00(G01)  f 45  7  0  -1047.0  2046001.3  0.0  2 0 2048 4370 2250
[01]  06(G07)  f 44  7  0   1115.1  2045998.5 -0.0  2 0 2717 4446 2499
[02]  07(G08)  f 40  7  0   1476.6  2045998.1  0.0  2 0  784 1533  980
[03]  10(G11)  f 44  7  0    233.0  2045999.6 -0.0  2 0 1746 3450 1600
[04]  17(G18)  f 44  7  0    765.2  2045998.9 -0.1  2 0 2017 2691  690
[05]  21(G22)  f 41  7  0  -2822.3  2046003.6  0.0  2 0 1616 1973 1132
[06]  27(G28)  f 42  9  0  -2934.3  2046003.7 -0.0  2 0 1704 2326 1105
[08]  29(G30)  f 45  7  0  -1073.3  2046001.3 -0.1  2 0 3403 5565 2559
[09]  16(G17)  f 33  7  0  -2723.9  2046003.4 -0.2  2 0  640 1018  724
[10]  12(G13)  1  7  7  0  -1566.1  2046001.4 -0.1  1 0  566  520  465
[16]  37(B01) 1f 41 10  0  -1087.8  4092002.7 -0.2  2 0 1286 1856 1299
[17]  38(B02) 1f 41 25  0  -1131.8  4092002.9  0.2  2 0 1004 1535  506
[18]  39(B03) 1f 45 31  0  -1105.0  4092002.7 -0.2  2 0 2043 2229  753
[19]  40(B04) 1f 41 10  0  -1102.2  4092002.8 -0.2  2 0 1309 1302  667
[20]  41(B05) 1f 38 22  0  -1146.2  4092002.8 -0.6  2 0 1203 1234  521
[21]  43(B07) 1f 42 13  0  -1239.4  4092003.1  0.0  2 0 2012 2467 1373
[22]  44(B08) 1f 42  7  0  -1544.1  4092003.9 -0.1  2 0 1600 2130 1011
[24]  46(B10)  7 43  7  0  -1537.2  4092003.9 -0.1  2 0 2082 2635  743
[25]  47(B11) 1f 44  7  0    258.1  4091999.2 -0.0  2 0 2568 3041 1420
[26]  49(B13) 1f 42  7  0  -2023.6  4092005.2 -0.1  2 0 1671 2205  940
[27]  54(B18) 1f 44  7  0  -1308.1  4092003.3  0.0  2 0 2038 2679 1178
[28]  59(B23) 1f 44 15  0  -2750.7  4092007.1  0.0  2 0 2347 3110 1363
[29]  60(B24) 1f 38  7  0   2055.3  4091994.5 -0.3  2 0 1208 1229  600
[30]  64(B28)  7 43  7  0  -3281.1  4092008.5  0.0  2 0 1891 2315  952
[32]  77(N-4)  f 45  7  0  -3590.0  1022002.3  0.0  2 0  1218 1912  916
[34]  79(N-2)  f 44  7  0    179.4  1021999.9 -0.1  2 0  1016 1638  958
[36]  82(N01)  f 36  7  0   2748.6  1021998.2  0.1  2 0   231  400  142
[38]  86(N05)  f 47  7  0    607.6  1021999.6  0.0  2 0  2255 3895 1631
[49]  38(B02)  1 10 10  1  -1107.8 20460013.9 -0.1  1 0  784  309   40
[51]  40(B04)  1 22 21  1  -1069.9 20460019.0 -0.0  1 0  545  777  495
[52]  41(B05)  1 25 25  0   -597.9 20460016.1  0.2  1 0  986  459  270
[53]  43(B07)  1  7  7  0  -1458.3 20460017.5 -0.2  1 0  296  442  671
[57]  47(B11) 1f 29 12  0    105.2 20459998.8 -0.0  5 0  305  567  649
[58]  49(B13)  1  7  7  0  -1363.4 20460032.6  0.0  1 0  138  308  664
[59]  54(B18)  1  7  7  0   -964.4 20460022.3  0.0  1 0  458  549  357
[60]  59(B23)  1  8  7  0  -2247.4 20460044.8  0.0  1 0  397  489  482
[61]  60(B24)  1  7  8  0   2069.7 20459966.2 -0.1  1 0  160  560  463
$GNGGA,080416.000,2944.9071,N,10633.0897,E,1,12,1.1,322.9,M,,,,0000*16
$GNRMC,080416.000,A,2944.9071,N,10633.0897,E,0.40,0.00,120180,,*1D
$GPGSA,A,3,,,,,,,,,,,,,1.9,1.1,1.5*3E
$BDGSA,A,3,01,03,04,05,07,08,10,11,13,23,24,28,1.9,1.1,1.5*2D
$GLGSA,A,3,,,,,,,,,,,,,1.9,1.1,1.5*22
$GPGSV,3,1,09,01,00,000,45,07,00,000,44,08,00,000,40,11,00,000,44*79
$GPGSV,3,2,09,18,00,000,44,22,00,000,41,28,00,000,42,30,00,000,45*73
$GPGSV,3,3,09,17,00,000,33*46
$BDGSV,3,1,12,01,40,125,41,02,00,000,41,03,55,171,45,04,23,109,41*65
$BDGSV,3,2,12,05,27,244,38,07,65,089,42,08,77,165,42,10,74,005,43*6C
$BDGSV,3,3,12,11,62,014,44,13,52,201,42,18,00,000,44,23,54,312,44*63
$B3CN0,0,0,0,0,0,0,0,0,0,0,29,0,0,0*77
---00000022--- Acq_st=7 0  2000-1-12 8:4:16 
[00]  00(G01)  f 45  7  0  -1049.2  2046001.3  0.0  2 0 2682 4642 2601
[01]  06(G07)  f 44  7  0   1116.5  2045998.5  0.0  2 0 3474 4705 2572
[02]  07(G08)  f 40  7  0   1472.6  2045998.0  0.0  2 0  918 1704  943
[03]  10(G11)  f 43  7  0    233.0  2045999.6 -0.0  2 0 2201 3336 1674
[04]  17(G18)  f 43  7  0    765.5  2045998.9 -0.0  2 0 1703 2837 1545
[05]  21(G22)  f 40  7  0  -2826.0  2046003.6 -0.0  2 0 1131 1754  613
[06]  27(G28)  f 42  7  0  -2927.9  2046003.8  0.0  2 0 1458 2218 1237
[08]  29(G30)  f 45  7  0  -1073.0  2046001.3 -0.0  2 0 3946 5530 1985
[09]  16(G17)  f 33  7  0  -2738.1  2046003.5 -0.2  2 0  190  431  398
[16]  37(B01) 1f 41 25  0  -1086.8  4092002.7 -0.6  2 0 1347 1848  849
[17]  38(B02) 1f 39 23  0  -1131.2  4092002.9 -0.6  2 0  996 1246  795
[18]  39(B03) 1f 43 29  0  -1102.9  4092002.8  0.2  2 0 1608 1721  441
[19]  40(B04) 1f 40 22  0  -1105.4  4092002.8  0.2  2 0 1252 1608  557
[20]  41(B05) 1f 38 21  0  -1145.3  4092003.0 -0.2  2 0  700 1224  736
[21]  43(B07) 1f 42 12  0  -1237.0  4092003.1  0.0  2 0 2262 2185  670
[22]  44(B08) 1f 42  7  0  -1549.2  4092003.9 -0.0  2 0 2007 1976  809
[24]  46(B10) 1f 43  7  0  -1536.6  4092003.9  0.0  2 0 2000 2980 1160
[25]  47(B11) 1f 44  7  0    255.4  4091999.2  0.0  2 0 2058 2752 1048
[26]  49(B13) 1f 42  7  0  -2026.4  4092005.2  0.0  2 0 1329 1824  726
[27]  54(B18) 1f 44  7  0  -1308.8  4092003.3 -0.0  2 0 2843 3330 1562
[28]  59(B23) 1f 44 16  0  -2748.1  4092007.1  0.0  2 0 2615 3147 1238
[29]  60(B24) 1f 38  7  0   2052.5  4091994.5  0.1  2 0  776 1707 1095
[30]  64(B28) 1f 43  7  0  -3282.2  4092008.5 -0.0  2 0 2628 2905 1175
[32]  77(N-4)  f 46  7  0  -3589.9  1022002.2 -0.1  2 0  1186 1951  900
[33]  83(N02)  1 26  7  0    303.3  1022002.2 -0.0  1 0  1018 2517 1808
[34]  79(N-2)  f 44  7  0    179.0  1021999.8  0.1  2 0   900 1519  578
[36]  82(N01)  f 35  7  0   2747.0  1021998.2 -0.0  2 0   350  932  603
[38]  86(N05)  f 47  7  0    607.3  1021999.6 -0.0  2 0  1963 3830 1918
[48]  37(B01)  1 10 10  1   -939.8 20460017.2 -0.1  1 0   99  472  569
[49]  38(B02)  1 10 18  1  -1349.4 20460018.3  0.0  1 0  209  306  328
[50]  39(B03)  1 20 10  0   -864.8 20460015.7  0.1  1 0  588  217  223
[51]  40(B04)  1 21 17  1  -1491.8 20460017.5 -0.0  1 0  326  321  621
[52]  41(B05)  1 24 18  1   -323.4 20460025.9 -0.0  1 0  246  585  715
[53]  43(B07)  1  7  9  0  -1182.6 20460017.9 -0.0  1 0  569  329  454
[54]  44(B08)  1  7  7  0  -1197.6 20460022.3 -0.0  1 0  609  381  503
[57]  47(B11) 1f 14  7  0    103.2 20459997.7  0.0 10 0  651   70  132
[58]  49(B13)  1  7  7  0  -1226.7 20460030.4 -0.1  1 0  258  313  833
[59]  54(B18)  1  7  7  0   -947.1 20460020.7  0.1  1 0  491  846  475
[60]  59(B23)  1  7  7  0  -3209.1 20460045.0 -0.1  1 0  362  524  778
[61]  60(B24)  1  7  7  0   1869.0 20459967.3 -0.0  1 0  443  279  333
$GNGGA,080417.000,2944.9070,N,10633.0900,E,1,12,1.1,323.1,M,,,,0000*10
$GNRMC,080417.000,A,2944.9070,N,10633.0900,E,0.27,0.00,120180,,*13
$GPGSA,A,3,,,,,,,,,,,,,1.9,1.1,1.5*3E
$BDGSA,A,3,01,03,04,05,07,08,10,11,13,23,24,28,1.9,1.1,1.5*2D
$GLGSA,A,3,,,,,,,,,,,,,1.9,1.1,1.5*22
$GPGSV,3,1,09,01,00,000,45,07,00,000,44,08,00,000,40,11,00,000,43*7E
$GPGSV,3,2,09,18,00,000,43,22,00,000,40,28,00,000,42,30,00,000,45*75
$GPGSV,3,3,09,17,00,000,33*46
$BDGSV,3,1,12,01,40,125,41,02,00,000,39,03,55,171,43,04,23,109,40*6D
$BDGSV,3,2,12,05,27,244,38,07,65,089,42,08,77,165,42,10,74,005,43*6C
$BDGSV,3,3,12,11,62,014,44,13,52,201,42,18,00,000,44,23,54,312,44*63
$B3CN0,0,0,0,0,0,0,0,0,0,0,0,0,0,0*4C
---00000023--- Acq_st=3 0  2000-1-12 8:4:17 
[00]  00(G01)  f 44  7  0  -1049.7  2046001.3  0.0  2 0 2469 4051 1726
[01]  06(G07)  f 45  7  0   1111.4  2045998.5  0.0  2 0 2908 4348 2551
